timestamp,timestamp_sample,gps_hvel[0],gps_hvel[1],gps_vvel,gps_hpos[0],gps_hpos[1],gps_vpos,ev_hvel[0],ev_hvel[1],ev_vvel,ev_hpos[0],ev_hpos[1],ev_vpos,rng_vpos,baro_vpos,aux_hvel[0],aux_hvel[1],flow[0],flow[1],terr_flow[0],terr_flow[1],heading,mag_field[0],mag_field[1],mag_field[2],gravity[0],gravity[1],gravity[2],drag[0],drag[1],airspeed,beta,hagl,hagl_rate
200532254,200341730,0.00012089816,0.0007435229,2.8436194e-08,7.363313e-06,9.68396e-05,0.0005184951,0.0,0.0,0.0,0.0,0.0,0.0,0.0,7.669222e-05,0.0,0.0,0.0,0.0,0.0,0.0,0.00073624006,1.05111585e-05,0.00073624006,7.412732e-06,5.0137696e-05,2.093933e-06,4.1438852e-11,0.0,0.0,0.0,0.0,0.0,0.0
201032242,200841730,3.8502374e-05,0.001183184,1.729181e-06,1.3787287e-09,9.315029e-05,0.00046213518,0.0,0.0,0.0,0.0,0.0,0.0,0.0,0.00024014447,0.0,0.0,0.0,0.0,0.0,0.0,0.00079350837,1.533442e-05,0.00079350837,3.10844e-05,0.00037447235,0.00092682004,1.0726544e-06,0.0,0.0,0.0,0.0,0.0,0.0
201532450,201341729,0.0007998909,0.00065318967,0.00070142077,1.9329318e-07,6.111058e-05,0.00026871724,0.0,0.0,0.0,0.0,0.0,0.0,0.0,9.250725e-07,0.0,0.0,0.0,0.0,0.0,0.0,0.00050747354,6.138807e-05,0.00050747354,4.443741e-05,0.0019456823,0.002251994,4.9635815e-07,0.0,0.0,0.0,0.0,0.0,0.0
202032215,201841729,0.0021384102,0.00047414133,0.0014831999,5.162618e-09,9.446238e-05,0.00021323843,0.0,0.0,0.0,0.0,0.0,0.0,0.0,0.00025686668,0.0,0.0,0.0,0.0,0.0,0.0,0.00072307186,1.4810512e-06,0.00072307186,9.388956e-05,0.00013250358,4.306665e-08,5.8572027e-09,0.0,0.0,0.0,0.0,0.0,0.0
202532343,202341729,0.0013147683,0.0004537894,0.0010702055,1.6038399e-05,3.9576084e-05,0.00021523789,0.0,0.0,0.0,0.0,0.0,0.0,0.0,0.00011609817,0.0,0.0,0.0,0.0,0.0,0.0,0.0003727211,0.0001557893,0.0003727211,2.6657185e-06,0.0018361951,1.2248311e-06,3.2574064e-08,0.0,0.0,0.0,0.0,0.0,0.0
203032247,202841729,1.1809534e-05,0.0028400135,3.8630664e-05,2.7169078e-06,6.134433e-05,0.00027524523,0.0,0.0,0.0,0.0,0.0,0.0,0.0,0.00022137034,0.0,0.0,0.0,0.0,0.0,0.0,0.00022894573,0.00022894573,0.00022314601,3.7056026e-07,0.00036929193,0.0005384829,2.569252e-07,0.0,0.0,0.0,0.0,0.0,0.0
203532312,203341729,0.00065206207,0.00053703535,0.0007032974,1.5587359e-05,1.720384e-05,0.00018470662,0.0,0.0,0.0,0.0,0.0,0.0,0.0,4.8778547e-05,0.0,0.0,0.0,0.0,0.0,0.0,0.0001327811,0.0001327811,7.947237e-05,2.942191e-06,1.0176551e-05,0.00025416914,3.017485e-07,0.0,0.0,0.0,0.0,0.0,0.0
204032213,203841729,0.000113198534,0.0003776676,1.6803775e-06,1.395315e-05,4.9795294e-06,0.0002248646,0.0,0.0,0.0,0.0,0.0,0.0,0.0,3.5413515e-05,0.0,0.0,0.0,0.0,0.0,0.0,0.00035331087,8.3051054e-05,0.00035331087,0.00013504094,0.0057597724,0.008417691,4.077998e-06,0.0,0.0,0.0,0.0,0.0,0.0
204532432,204341729,8.23686e-06,0.00028514443,0.00022509694,6.7999854e-06,8.383703e-06,0.0001145611,0.0,0.0,0.0,0.0,0.0,0.0,0.0,0.0004080586,0.0,0.0,0.0,0.0,0.0,0.0,0.0003972365,8.9289926e-05,0.0003972365,0.00031047,0.020299667,0.08008881,3.2780938e-06,0.0,0.0,0.0,0.0,0.0,0.0
205032269,204841729,5.0626448e-05,4.0214227e-06,0.00018204605,6.3452404e-08,3.5328521e-06,0.000102220336,0.0,0.0,0.0,0.0,0.0,0.0,0.0,0.00027263,0.0,0.0,0.0,0.0,0.0,0.0,0.001400584,0.00014309162,0.00048426338,0.001400584,0.0002032541,0.03844646,2.5266268e-06,0.0,0.0,0.0,0.0,0.0,0.0
205532187,205341729,0.001081391,0.0001985767,0.00094353524,6.09928e-06,4.5304278e-06,2.0715375e-05,0.0,0.0,0.0,0.0,0.0,0.0,0.0,0.0002828967,0.0,0.0,0.0,0.0,0.0,0.0,0.006027541,0.00021342249,0.0015011051,0.006027541,0.00050685025,0.049646813,0.00014225069,0.0,0.0,0.0,0.0,0.0,0.0
206032207,205841729,0.0006935288,0.002075482,0.00038401218,2.6862084e-05,4.737445e-06,8.321255e-06,0.0,0.0,0.0,0.0,0.0,0.0,0.0,0.00028285067,0.0,0.0,0.0,0.0,0.0,0.0,0.009401547,0.00014681999,0.0004904051,0.009401547,0.17641893,0.027451446,0.00029248666,0.0,0.0,0.0,0.0,0.0,0.0
207032240,206841729,0.0035641778,0.0022641753,0.0031274033,1.15460644e-07,9.163217e-06,0.00020448428,0.0,0.0,0.0,0.0,0.0,0.0,0.0,0.0007154537,0.0,0.0,0.0,0.0,0.0,0.0,0.010217962,0.0001532344,0.00038909863,0.010217962,0.24878836,5.84731e-06,0.001649856,0.0,0.0,0.0,0.0,0.0,0.0
207532200,207341729,0.0001619985,0.0015420676,0.0007006101,2.9768305e-06,7.7543274e-07,0.00045285397,0.0,0.0,0.0,0.0,0.0,0.0,0.0,0.00035091702,0.0,0.0,0.0,0.0,0.0,0.0,0.0096034445,0.00022564917,0.00049458863,0.0096034445,0.14001295,2.5863505e-05,0.00035792822,0.0,0.0,0.0,0.0,0.0,0.0
208032237,207841729,0.00029373888,0.001126631,0.00034835012,1.3827113e-07,4.8897523e-06,0.0006992247,0.0,0.0,0.0,0.0,0.0,0.0,0.0,0.0004918356,0.0,0.0,0.0,0.0,0.0,0.0,0.009115244,4.4630937e-07,0.0012282599,0.009115244,0.013573127,0.004953112,7.754716e-06,0.0,0.0,0.0,0.0,0.0,0.0
208532253,208341729,0.0009481044,0.0023814286,0.0002602053,1.692812e-07,1.4416591e-09,0.00097199535,0.0,0.0,0.0,0.0,0.0,0.0,0.0,0.0005683392,0.0,0.0,0.0,0.0,0.0,0.0,0.0011795957,1.6344392e-06,1.3317208e-05,0.0011795957,0.00073028065,1.5472671e-06,7.583054e-08,0.0,0.0,0.0,0.0,0.0,0.0
209032497,208841729,0.0059459805,0.00049412454,0.00011521061,1.0528201e-05,8.471384e-06,0.0013591881,0.0,0.0,0.0,0.0,0.0,0.0,0.0,0.0006720776,0.0,0.0,0.0,0.0,0.0,0.0,0.00010715268,4.0445277e-05,6.295911e-05,0.00010715268,0.11388671,0.079169035,1.682633e-05,0.0,0.0,0.0,0.0,0.0,0.0
209532355,209341729,0.0042310227,0.0001497886,1.0877733e-06,3.757252e-05,3.359251e-05,0.0013396735,0.0,0.0,0.0,0.0,0.0,0.0,0.0,6.0012597e-05,0.0,0.0,0.0,0.0,0.0,0.0,0.000108392895,1.0183166e-05,0.000108392895,0.000100764606,0.10357251,0.063455306,0.00045190728,0.0,0.0,0.0,0.0,0.0,0.0
210032421,209841729,0.00043743776,0.00040966374,0.00015667481,3.0742805e-05,0.000119290824,0.0014566358,0.0,0.0,0.0,0.0,0.0,0.0,0.0,0.0020745068,0.0,0.0,0.0,0.0,0.0,0.0,5.2116844e-05,2.8622871e-05,2.5672602e-05,5.2116844e-05,0.42651993,0.014980417,0.00468794,0.0,0.0,0.0,0.0,0.0,0.0
210532673,210341729,0.0040308665,0.0037801082,0.0002084413,0.00018802067,0.0004122052,0.0012403218,0.0,0.0,0.0,0.0,0.0,0.0,0.0,0.00092596386,0.0,0.0,0.0,0.0,0.0,0.0,4.2883225e-05,1.805084e-08,4.2883225e-05,1.35344935e-05,0.30874392,0.0025860395,0.0016456933,0.0,0.0,0.0,0.0,0.0,0.0
211532352,211341729,2.3775299e-06,1.1456875e-06,4.712256e-05,0.00010699689,0.00040215833,0.0012005643,0.0,0.0,0.0,0.0,0.0,0.0,0.0,0.0006667928,0.0,0.0,0.0,0.0,0.0,0.0,0.00014471081,4.3389048e-07,2.8517381e-06,0.00014471081,0.6067969,0.063046,0.021515405,0.0,0.0,0.0,0.0,0.0,0.0
212032598,211841729,0.007529411,0.0009079708,8.308497e-05,9.919928e-05,0.00025373296,0.0010365566,0.0,0.0,0.0,0.0,0.0,0.0,0.0,0.00011346614,0.0,0.0,0.0,0.0,0.0,0.0,0.00083208823,7.652461e-05,5.805637e-05,0.00083208823,0.0026034843,0.001711344,2.7773751e-06,0.0,0.0,0.0,0.0,0.0,0.0
212532625,212341729,0.00017644365,0.0027505204,0.016970517,3.4354576e-05,0.00011690041,0.00022981472,0.0,0.0,0.0,0.0,0.0,0.0,0.0,0.0013876439,0.0,0.0,0.0,0.0,0.0,0.0,9.099878e-05,2.1072215e-06,1.0547445e-05,9.099878e-05,0.77204275,0.02012108,0.011384623,0.0,0.0,0.0,0.0,0.0,0.0
213032426,212841729,0.0003458324,0.0042656693,0.0060971887,2.6210151e-05,5.9129572e-05,0.000102158294,0.0,0.0,0.0,0.0,0.0,0.0,0.0,0.0009275604,0.0,0.0,0.0,0.0,0.0,0.0,0.00032356667,1.5209337e-06,0.00032356667,0.0001215056,0.0030452851,0.02049581,0.00014019363,0.0,0.0,0.0,0.0,0.0,0.0
213532613,213341729,0.00058496156,0.00024446595,0.0018248869,2.1796322e-05,9.906813e-05,6.784363e-06,0.0,0.0,0.0,0.0,0.0,0.0,0.0,5.3475483e-06,0.0,0.0,0.0,0.0,0.0,0.0,0.00033089213,5.470363e-05,0.00010424962,0.00033089213,0.028593915,0.17388165,0.00019190754,0.0,0.0,0.0,0.0,0.0,0.0
214032363,213841729,0.003556064,0.0028606157,0.00050470023,7.3108546e-05,0.00025742484,6.151739e-08,0.0,0.0,0.0,0.0,0.0,0.0,0.0,0.0001494077,0.0,0.0,0.0,0.0,0.0,0.0,0.00016141898,0.00012916385,0.00016141898,0.00010717279,0.2030564,0.055081587,6.0305166e-10,0.0,0.0,0.0,0.0,0.0,0.0
214532654,214341729,0.0022415495,0.0009474599,3.715189e-05,9.1272705e-05,0.0004274477,1.4889431e-05,0.0,0.0,0.0,0.0,0.0,0.0,0.0,0.0013052779,0.0,0.0,0.0,0.0,0.0,0.0,7.310962e-05,7.310962e-05,4.6113844e-05,4.840623e-05,0.3079176,0.0038363608,0.0003282066,0.0,0.0,0.0,0.0,0.0,0.0
215032649,214841729,0.0022973951,0.00023940062,0.00017898934,2.839269e-06,0.00038897654,0.00021427276,0.0,0.0,0.0,0.0,0.0,0.0,0.0,0.0010710289,0.0,0.0,0.0,0.0,0.0,0.0,7.5734395e-05,2.7763786e-05,5.819617e-05,7.5734395e-05,0.14583263,0.013780115,0.0010612168,0.0,0.0,0.0,0.0,0.0,0.0
215532611,215341729,0.0015175253,0.0006775636,2.6067562e-05,5.5567975e-06,0.00041026974,0.00019868137,0.0,0.0,0.0,0.0,0.0,0.0,0.0,5.4260297e-05,0.0,0.0,0.0,0.0,0.0,0.0,0.00025859696,1.5688718e-05,6.838125e-05,0.00025859696,0.94142187,0.088294655,0.020122502,0.0,0.0,0.0,0.0,0.0,0.0
216032599,215841729,0.004751508,0.00017176867,2.9865873e-06,3.7643786e-05,0.00029030818,0.0003548331,0.0,0.0,0.0,0.0,0.0,0.0,0.0,5.5942834e-08,0.0,0.0,0.0,0.0,0.0,0.0,4.5949968e-05,4.5949968e-05,3.6669244e-05,2.010279e-05,0.18758036,0.0025658926,8.690973e-06,0.0,0.0,0.0,0.0,0.0,0.0
216532602,216341729,0.0013742036,6.906938e-05,0.00015867047,4.5386773e-08,0.00014908217,0.00063927175,0.0,0.0,0.0,0.0,0.0,0.0,0.0,0.0003869362,0.0,0.0,0.0,0.0,0.0,0.0,0.0001951156,3.9154734e-06,0.0001951156,2.9985236e-05,0.17187496,0.0788378,0.01108576,0.0,0.0,0.0,0.0,0.0,0.0
217032620,216841729,0.0025652004,2.9121868e-05,0.0037526134,5.9601705e-05,5.7712525e-05,0.0010857471,0.0,0.0,0.0,0.0,0.0,0.0,0.0,8.890688e-05,0.0,0.0,0.0,0.0,0.0,0.0,0.00031526576,0.00031526576,3.705124e-05,7.56143e-05,0.43881616,0.08347703,0.016835988,0.0,0.0,0.0,0.0,0.0,0.0
217532579,217341729,0.0021148578,0.0007223761,0.004978126,9.132934e-05,0.00013043401,0.0012209545,0.0,0.0,0.0,0.0,0.0,0.0,0.0,1.0846498e-05,0.0,0.0,0.0,0.0,0.0,0.0,0.00014417326,3.9226703e-05,3.1609812e-05,0.00014417326,0.02166017,0.1650015,0.00079321925,0.0,0.0,0.0,0.0,0.0,0.0
218032600,217841729,0.009995151,0.01587463,0.000105148654,0.00017214823,2.6480631e-05,0.00035901324,0.0,0.0,0.0,0.0,0.0,0.0,0.0,6.15182e-05,0.0,0.0,0.0,0.0,0.0,0.0,0.00040179942,0.00040179942,0.00018925554,0.00038372524,0.0020690425,0.40369025,0.0006821757,0.0,0.0,0.0,0.0,0.0,0.0
218532634,218341729,3.6741726e-06,0.008400277,5.4599614e-06,0.00029384936,0.00011855068,0.00054904696,0.0,0.0,0.0,0.0,0.0,0.0,0.0,5.719155e-05,0.0,0.0,0.0,0.0,0.0,0.0,0.00027375467,0.00013873597,0.0002676556,0.00027375467,0.9126359,0.038366724,0.20187984,0.0,0.0,0.0,0.0,0.0,0.0
219032429,218841729,0.0069989953,7.737142e-05,0.00288029,0.0004275014,2.1786775e-05,0.000755226,0.0,0.0,0.0,0.0,0.0,0.0,0.0,0.0013726418,0.0,0.0,0.0,0.0,0.0,0.0,0.00031572187,0.00031572187,0.00017763757,5.4948523e-05,1.9542825,0.022159463,0.06991896,0.0,0.0,0.0,0.0,0.0,0.0
219532358,219341729,0.00049792015,0.0005605371,0.0003604844,0.00030718272,3.5543637e-06,0.0007039908,0.0,0.0,0.0,0.0,0.0,0.0,0.0,0.00022352241,0.0,0.0,0.0,0.0,0.0,0.0,5.3095977e-05,2.795748e-07,4.2780037e-05,5.3095977e-05,0.01271698,0.002837072,8.9454974e-05,0.0,0.0,0.0,0.0,0.0,0.0
220032431,219841729,0.0012833306,0.0040107146,0.0006330856,0.0004292009,9.429316e-08,0.0007023885,0.0,0.0,0.0,0.0,0.0,0.0,0.0,0.0011768395,0.0,0.0,0.0,0.0,0.0,0.0,4.9700147e-06,7.3565887e-09,4.9700147e-06,1.0503156e-06,0.9837804,0.042535093,0.0533397,0.0,0.0,0.0,0.0,0.0,0.0
221032271,220841729,9.090018e-05,0.00053833955,0.0016332072,0.00021791224,4.9114504e-05,0.0010444954,0.0,0.0,0.0,0.0,0.0,0.0,0.0,0.00037744237,0.0,0.0,0.0,0.0,0.0,0.0,1.1399966e-05,7.0848428e-06,1.1399966e-05,2.8508936e-07,0.021680245,3.1235253e-05,1.5389453e-05,0.0,0.0,0.0,0.0,0.0,0.0
221532177,221341729,2.012342e-06,0.0011767009,0.0012554419,0.00014983414,0.00015955925,0.0011598016,0.0,0.0,0.0,0.0,0.0,0.0,0.0,2.9863937e-05,0.0,0.0,0.0,0.0,0.0,0.0,0.0002738052,1.3336356e-05,7.7406534e-05,0.0002738052,3.362246e-05,0.22268726,0.0015725545,0.0,0.0,0.0,0.0,0.0,0.0
222032199,221841729,0.00024303744,0.0011529617,0.0022839492,9.651942e-05,0.00031605703,0.0013255787,0.0,0.0,0.0,0.0,0.0,0.0,0.0,0.00025256295,0.0,0.0,0.0,0.0,0.0,0.0,7.752449e-05,6.410671e-06,6.424642e-05,7.752449e-05,0.6457506,0.06258133,0.008103204,0.0,0.0,0.0,0.0,0.0,0.0
223032222,222841729,0.008315838,1.4450676e-05,0.0011589974,0.00013031682,0.00013596025,0.00085439516,0.0,0.0,0.0,0.0,0.0,0.0,0.0,0.00041342698,0.0,0.0,0.0,0.0,0.0,0.0,3.1608106e-05,3.0749736e-06,3.1608106e-05,1.5848313e-05,0.013569482,0.0028115,9.362768e-06,0.0,0.0,0.0,0.0,0.0,0.0
223532203,223341734,0.00020222538,0.0011066012,0.0017613545,0.0003247038,0.00010609717,0.0007012265,0.0,0.0,0.0,0.0,0.0,0.0,0.0,1.7114027e-05,0.0,0.0,0.0,0.0,0.0,0.0,3.81689e-05,3.81689e-05,1.7226181e-06,6.6766546e-07,0.05457716,0.00057244115,0.00016156469,0.0,0.0,0.0,0.0,0.0,0.0
224032185,223841729,0.001574025,0.0023552775,0.0014198219,0.00031822387,0.00010737617,0.0005814014,0.0,0.0,0.0,0.0,0.0,0.0,0.0,2.7146683e-08,0.0,0.0,0.0,0.0,0.0,0.0,9.130536e-05,3.1294633e-07,9.130536e-05,6.708987e-05,0.060964577,0.015336876,5.999653e-05,0.0,0.0,0.0,0.0,0.0,0.0
224532213,224341729,0.0008457985,0.002746643,3.8037913e-06,0.00022450503,6.210335e-05,0.0003857486,0.0,0.0,0.0,0.0,0.0,0.0,0.0,1.4756045e-05,0.0,0.0,0.0,0.0,0.0,0.0,9.075653e-05,9.075653e-05,3.3936554e-05,2.632308e-06,0.09310434,0.0038928753,1.6888986e-05,0.0,0.0,0.0,0.0,0.0,0.0
225032246,224841729,0.003551008,1.1817926e-05,0.0006533001,0.00021099312,7.546233e-05,0.00029323276,0.0,0.0,0.0,0.0,0.0,0.0,0.0,1.07449905e-05,0.0,0.0,0.0,0.0,0.0,0.0,4.8970873e-05,4.8970873e-05,7.2562107e-06,1.1758532e-05,0.073584564,0.027560776,0.00025645137,0.0,0.0,0.0,0.0,0.0,0.0
226032441,225841732,0.0015465451,4.3247346e-05,0.0010320926,0.00025355787,3.9640578e-05,0.000106889056,0.0,0.0,0.0,0.0,0.0,0.0,0.0,1.023673e-05,0.0,0.0,0.0,0.0,0.0,0.0,2.6657932e-05,9.235356e-06,2.6657932e-05,5.2612755e-08,0.0012642387,0.100788616,7.976706e-06,0.0,0.0,0.0,0.0,0.0,0.0
226532205,226341729,0.0036573333,0.0004901733,0.0007958312,0.0002902026,5.2061223e-05,7.076493e-05,0.0,0.0,0.0,0.0,0.0,0.0,0.0,5.769268e-05,0.0,0.0,0.0,0.0,0.0,0.0,2.0324417e-06,2.0324417e-06,4.917761e-07,4.648077e-07,0.00076588895,0.036821876,1.2626268e-06,0.0,0.0,0.0,0.0,0.0,0.0
227032217,226841729,0.000335702,0.0029888968,2.7696864e-05,0.00031761857,2.592676e-05,3.6564732e-05,0.0,0.0,0.0,0.0,0.0,0.0,0.0,3.3549875e-06,0.0,0.0,0.0,0.0,0.0,0.0,0.0001461969,0.0001461969,3.943075e-06,1.6744874e-06,0.028604642,0.0023978895,0.00020177462,0.0,0.0,0.0,0.0,0.0,0.0
227532218,227341729,0.002072422,0.0024354202,1.1325491e-06,0.0003445547,2.0779315e-05,7.0926646e-05,0.0,0.0,0.0,0.0,0.0,0.0,0.0,0.0007968652,0.0,0.0,0.0,0.0,0.0,0.0,0.0002383487,4.3073618e-05,0.0002383487,4.2385822e-05,0.13815047,0.0019054768,9.884444e-09,0.0,0.0,0.0,0.0,0.0,0.0
228032184,227841729,0.00095937424,0.0019526257,2.0347437e-05,0.00031411258,4.915219e-06,2.5828558e-05,0.0,0.0,0.0,0.0,0.0,0.0,0.0,2.6854625e-05,0.0,0.0,0.0,0.0,0.0,0.0,0.00028318082,0.00028318082,0.00010230379,0.00016592767,0.020398753,0.03146388,8.034156e-05,0.0,0.0,0.0,0.0,0.0,0.0
228532217,228341729,0.0010867823,0.0011522367,0.0006308796,0.00023694041,8.532562e-07,4.1595802e-05,0.0,0.0,0.0,0.0,0.0,0.0,0.0,0.00010279167,0.0,0.0,0.0,0.0,0.0,0.0,9.0708934e-05,3.4575743e-05,9.0708934e-05,6.305983e-06,0.0677014,0.14246048,0.00026360207,0.0,0.0,0.0,0.0,0.0,0.0
229032225,228841729,0.00048432485,0.0027025877,0.00018766563,0.00017958452,2.488119e-06,8.2407595e-08,0.0,0.0,0.0,0.0,0.0,0.0,0.0,0.0001363518,0.0,0.0,0.0,0.0,0.0,0.0,7.32477e-05,1.74004e-05,1.1474253e-05,7.32477e-05,0.0006914924,0.2938517,0.0006421317,0.0,0.0,0.0,0.0,0.0,0.0
229532168,229341729,7.942947e-05,0.00105614,0.00041886457,0.00026220555,3.7823796e-07,1.5229855e-06,0.0,0.0,0.0,0.0,0.0,0.0,0.0,0.00010085661,0.0,0.0,0.0,0.0,0.0,0.0,8.136845e-05,1.5320941e-06,4.931901e-05,8.136845e-05,0.012074883,0.0018174858,5.227352e-05,0.0,0.0,0.0,0.0,0.0,0.0
230032214,229841728,2.512131e-05,0.0018342603,0.0001200555,0.00023343597,7.770995e-07,7.0338155e-07,0.0,0.0,0.0,0.0,0.0,0.0,0.0,0.00017788727,0.0,0.0,0.0,0.0,0.0,0.0,0.00021224354,0.00021224354,4.307977e-05,2.3487171e-05,0.0102943685,0.0019624084,4.6556174e-06,0.0,0.0,0.0,0.0,0.0,0.0
230532211,230341729,2.3700295e-07,0.00016827622,8.504241e-05,0.00024282884,1.5535375e-05,6.768888e-06,0.0,0.0,0.0,0.0,0.0,0.0,0.0,6.5792124e-06,0.0,0.0,0.0,0.0,0.0,0.0,4.26528e-05,3.143281e-05,4.26528e-05,2.7889406e-05,0.014873551,0.015928427,5.5301738e-05,0.0,0.0,0.0,0.0,0.0,0.0
231032215,230841729,0.00023228448,0.001508152,0.00076857937,0.00027595225,9.293742e-06,3.3793458e-06,0.0,0.0,0.0,0.0,0.0,0.0,0.0,0.00015060439,0.0,0.0,0.0,0.0,0.0,0.0,0.00024749714,2.9097457e-05,5.5682067e-05,0.00024749714,0.4995394,0.0027468984,0.007318325,0.0,0.0,0.0,0.0,0.0,0.0
231532197,231341729,0.0013380689,0.00018894165,0.00034593733,0.00030490532,1.8767116e-05,7.884489e-07,0.0,0.0,0.0,0.0,0.0,0.0,0.0,7.1238195e-05,0.0,0.0,0.0,0.0,0.0,0.0,8.2359824e-05,1.2131864e-05,2.502472e-05,8.2359824e-05,0.049537707,0.005615206,3.9440703e-05,0.0,0.0,0.0,0.0,0.0,0.0
232032195,231841729,7.9537995e-06,4.4012003e-07,8.1386025e-07,0.0002539853,1.690264e-05,5.6471765e-07,0.0,0.0,0.0,0.0,0.0,0.0,0.0,0.00062595546,0.0,0.0,0.0,0.0,0.0,0.0,0.00015801631,6.0257944e-06,0.00015801631,5.7614096e-05,0.382941,0.12043294,0.0022651274,0.0,0.0,0.0,0.0,0.0,0.0
232532215,232341729,8.4624035e-06,0.00014488882,0.00023902523,0.00021528902,2.6323407e-05,5.6348235e-06,0.0,0.0,0.0,0.0,0.0,0.0,0.0,0.00043404134,0.0,0.0,0.0,0.0,0.0,0.0,0.00037330113,9.376605e-05,0.00037330113,1.5998913e-07,0.5734129,0.010613246,0.008556995,0.0,0.0,0.0,0.0,0.0,0.0
233032423,232841729,5.2430878e-05,0.003352182,9.037958e-06,0.00021165081,8.9009645e-06,3.4346365e-06,0.0,0.0,0.0,0.0,0.0,0.0,0.0,0.00056914747,0.0,0.0,0.0,0.0,0.0,0.0,2.0944843e-05,1.0640187e-05,1.0241341e-05,2.0944843e-05,0.12138577,0.18172888,0.0009109604,0.0,0.0,0.0,0.0,0.0,0.0
233532182,233341729,0.000118480835,0.00014351238,1.1207786e-06,0.0002570952,2.3960543e-05,2.7928154e-06,0.0,0.0,0.0,0.0,0.0,0.0,0.0,8.948326e-05,0.0,0.0,0.0,0.0,0.0,0.0,5.4426502e-05,2.2632032e-06,5.4426502e-05,1.9358945e-06,0.013540074,0.10641156,0.00028194924,0.0,0.0,0.0,0.0,0.0,0.0
235032277,234841729,0.005027165,1.5405918e-05,3.432908e-05,0.00014887254,1.1240255e-05,4.969331e-05,0.0,0.0,0.0,0.0,0.0,0.0,0.0,0.00054041727,0.0,0.0,0.0,0.0,0.0,0.0,0.00010758903,5.039686e-05,0.00010758903,1.7291348e-05,0.0009300914,0.29917815,0.00075329776,0.0,0.0,0.0,0.0,0.0,0.0
235532203,235341729,9.5586765e-06,0.00033871038,3.8869868e-05,6.404158e-05,1.0990016e-05,4.539359e-05,0.0,0.0,0.0,0.0,0.0,0.0,0.0,5.0312415e-06,0.0,0.0,0.0,0.0,0.0,0.0,0.0019009004,0.00041757675,0.00020553528,0.0019009004,0.01711218,0.0056371,6.098626e-06,0.0,0.0,0.0,0.0,0.0,0.0
236032176,235841729,7.594579e-05,0.0010196187,0.00032690974,8.675882e-05,2.1436897e-06,7.783091e-05,0.0,0.0,0.0,0.0,0.0,0.0,0.0,1.192824e-07,0.0,0.0,0.0,0.0,0.0,0.0,0.00057762704,1.9167219e-05,0.00057762704,5.6723744e-05,0.04158088,0.13159585,0.00078950357,0.0,0.0,0.0,0.0,0.0,0.0
236532171,236341729,0.0007016874,0.00023899112,0.0002617927,0.000108147535,2.7808598e-09,0.00010107566,0.0,0.0,0.0,0.0,0.0,0.0,0.0,6.163644e-05,0.0,0.0,0.0,0.0,0.0,0.0,0.0019596145,8.7465414e-05,2.1631964e-05,0.0019596145,0.008757778,0.041294757,0.00022440273,0.0,0.0,0.0,0.0,0.0,0.0
237032230,236841729,0.0015573852,0.00040694958,9.07204e-05,0.00013591327,2.1422592e-08,4.2048196e-05,0.0,0.0,0.0,0.0,0.0,0.0,0.0,0.00010581504,0.0,0.0,0.0,0.0,0.0,0.0,8.6752865e-05,1.6010119e-05,8.6752865e-05,1.618934e-06,0.032833476,0.025405634,5.5866993e-05,0.0,0.0,0.0,0.0,0.0,0.0
237532203,237341729,3.4968773e-05,0.0010388067,1.2585369e-05,6.0742415e-05,3.8683703e-07,2.759864e-05,0.0,0.0,0.0,0.0,0.0,0.0,0.0,0.000102053484,0.0,0.0,0.0,0.0,0.0,0.0,0.0003779156,5.7949004e-05,8.995118e-06,0.0003779156,0.028746804,0.023051262,3.7500693e-05,0.0,0.0,0.0,0.0,0.0,0.0
238032198,237841729,0.00017034075,0.002473595,0.0009780312,5.2890246e-05,2.7537665e-06,4.601849e-06,0.0,0.0,0.0,0.0,0.0,0.0,0.0,0.00018756468,0.0,0.0,0.0,0.0,0.0,0.0,0.00014549581,4.534323e-06,0.000126239,0.00014549581,0.13977806,0.015725488,0.00021440213,0.0,0.0,0.0,0.0,0.0,0.0
238532168,238341729,0.0005717773,0.0025933457,0.00032547733,5.648719e-05,1.0558991e-05,3.7357365e-06,0.0,0.0,0.0,0.0,0.0,0.0,0.0,4.6475784e-06,0.0,0.0,0.0,0.0,0.0,0.0,0.004312002,1.4920643e-05,5.713094e-06,0.004312002,0.020820877,0.017363423,5.4979523e-07,0.0,0.0,0.0,0.0,0.0,0.0
239032212,238841729,9.61945e-05,0.00078127446,0.00010258928,6.3947125e-05,7.5227235e-06,3.871897e-07,0.0,0.0,0.0,0.0,0.0,0.0,0.0,0.0006357321,0.0,0.0,0.0,0.0,0.0,0.0,0.00068094395,5.2649085e-09,0.00068094395,9.38347e-07,0.3775222,0.00090066623,0.0015252829,0.0,0.0,0.0,0.0,0.0,0.0
239532207,239341729,0.0001987209,0.00537105,2.5426052e-06,1.3729119e-05,4.4665387e-05,5.3433523e-05,0.0,0.0,0.0,0.0,0.0,0.0,0.0,6.7499655e-06,0.0,0.0,0.0,0.0,0.0,0.0,0.006946944,1.2548836e-06,0.006946944,0.002253866,0.05964278,0.18795215,0.0022127128,0.0,0.0,0.0,0.0,0.0,0.0
240032212,239841729,0.0038412497,0.004967071,0.0046246233,3.2572425e-05,7.6792385e-05,0.0004997026,0.0,0.0,0.0,0.0,0.0,0.0,0.0,1.1925106e-06,0.0,0.0,0.0,0.0,0.0,0.0,0.00054053654,0.00054053654,0.00018077451,5.5398423e-06,0.00029918528,0.78116274,0.005747648,0.0,0.0,0.0,0.0,0.0,0.0
240532211,240341729,0.007080552,0.0003270183,0.00068954664,0.0001822744,5.70303e-05,0.0005549015,0.0,0.0,0.0,0.0,0.0,0.0,0.0,2.1869395e-05,0.0,0.0,0.0,0.0,0.0,0.0,0.0009487012,0.00038784754,0.0009487012,2.4464182e-06,0.0041056923,0.017559975,3.407014e-05,0.0,0.0,0.0,0.0,0.0,0.0
241032214,240841729,0.0008418596,7.922873e-06,0.0026656035,0.00013471057,8.3846484e-05,0.00051026454,0.0,0.0,0.0,0.0,0.0,0.0,0.0,2.1415963e-06,0.0,0.0,0.0,0.0,0.0,0.0,4.357014e-05,7.539102e-06,4.357014e-05,2.2618897e-06,0.10061184,0.07465389,1.2969453e-05,0.0,0.0,0.0,0.0,0.0,0.0
241532260,241341729,0.00055744906,0.0001393674,0.003664308,3.9386072e-05,0.000102524355,0.00042972408,0.0,0.0,0.0,0.0,0.0,0.0,0.0,4.8773247e-05,0.0,0.0,0.0,0.0,0.0,0.0,2.1563674e-05,2.1563674e-05,7.200368e-06,1.3213363e-06,0.095736325,0.1423312,0.00024491604,0.0,0.0,0.0,0.0,0.0,0.0
242032183,241841729,0.0008741459,0.0008147455,0.002571364,2.0646685e-06,8.455564e-05,0.0003315527,0.0,0.0,0.0,0.0,0.0,0.0,0.0,4.900577e-05,0.0,0.0,0.0,0.0,0.0,0.0,3.0868167e-05,3.0868167e-05,1.0268257e-05,7.300837e-06,0.21957801,0.00899218,3.4617842e-05,0.0,0.0,0.0,0.0,0.0,0.0
242532175,242341729,0.0017492874,0.00069635897,0.001443892,7.346223e-05,8.3365e-05,0.0003279031,0.0,0.0,0.0,0.0,0.0,0.0,0.0,9.921931e-06,0.0,0.0,0.0,0.0,0.0,0.0,3.9766168e-05,5.6020724e-08,7.919303e-06,3.9766168e-05,0.39897567,9.9240606e-05,0.00018599554,0.0,0.0,0.0,0.0,0.0,0.0
243032223,242841729,0.0016865255,0.00013724972,1.873102e-05,0.00011271022,9.393718e-05,0.00033388424,0.0,0.0,0.0,0.0,0.0,0.0,0.0,6.013525e-05,0.0,0.0,0.0,0.0,0.0,0.0,3.463145e-05,3.463145e-05,6.7192545e-06,1.1720293e-05,0.020845374,0.0726415,3.453934e-05,0.0,0.0,0.0,0.0,0.0,0.0
243532221,243341729,0.020901933,0.0010904754,0.0016280042,0.00033224197,7.547244e-05,0.00030058683,0.0,0.0,0.0,0.0,0.0,0.0,0.0,3.5920537e-05,0.0,0.0,0.0,0.0,0.0,0.0,0.0009577691,2.365498e-05,0.0009577691,0.00018121605,0.20868473,0.8932779,0.057144072,0.0,0.0,0.0,0.0,0.0,0.0
244032195,243841729,0.0034080904,0.00019374474,0.0006009166,0.0008453897,7.8436075e-05,0.00027112538,0.0,0.0,0.0,0.0,0.0,0.0,0.0,0.00017623551,0.0,0.0,0.0,0.0,0.0,0.0,0.0004672508,0.00033825752,0.0004672508,1.6392038e-05,1.335461,0.16635336,0.0043932106,0.0,0.0,0.0,0.0,0.0,0.0
244532165,244341729,0.001403466,0.00012189012,0.0010981635,0.0004685091,4.8253834e-05,0.0003490983,0.0,0.0,0.0,0.0,0.0,0.0,0.0,0.00015658663,0.0,0.0,0.0,0.0,0.0,0.0,0.00018358523,4.9742766e-07,0.00018358523,0.00014868415,0.28351745,0.0050713895,0.00078812416,0.0,0.0,0.0,0.0,0.0,0.0
245032257,244841729,6.79304e-06,0.0017239389,0.00020770464,0.00016498296,1.7235705e-05,0.000414343,0.0,0.0,0.0,0.0,0.0,0.0,0.0,0.00017486923,0.0,0.0,0.0,0.0,0.0,0.0,1.0835899e-05,5.387837e-06,1.0835899e-05,8.639564e-07,0.1250789,0.06390862,1.6493523e-05,0.0,0.0,0.0,0.0,0.0,0.0
246032191,245841729,0.00089453557,4.7326324e-05,0.00022546272,2.2059548e-05,2.1001864e-05,0.00035792656,0.0,0.0,0.0,0.0,0.0,0.0,0.0,4.643116e-05,0.0,0.0,0.0,0.0,0.0,0.0,1.4871742e-05,7.690172e-06,1.4871742e-05,1.0959929e-05,0.3801595,0.5444773,0.0049549174,0.0,0.0,0.0,0.0,0.0,0.0
246532206,246341729,2.9168218e-06,0.00077363587,0.00037725217,8.30962e-05,3.3323187e-05,0.00029263564,0.0,0.0,0.0,0.0,0.0,0.0,0.0,1.7619326e-05,0.0,0.0,0.0,0.0,0.0,0.0,3.0526196e-05,1.720895e-05,3.0526196e-05,2.0099612e-06,0.0030092178,0.110629,2.0131367e-05,0.0,0.0,0.0,0.0,0.0,0.0
247032270,246841729,9.3863755e-06,0.00035258342,0.0012301874,0.00038453646,3.7849084e-05,0.00020623945,0.0,0.0,0.0,0.0,0.0,0.0,0.0,0.000107838874,0.0,0.0,0.0,0.0,0.0,0.0,0.00047253782,0.00047253782,3.479266e-05,2.3654058e-05,1.0937665,1.0419543,0.023833066,0.0,0.0,0.0,0.0,0.0,0.0
248032416,247841729,0.00023667722,0.00020696285,0.00031747983,0.00053108967,1.9379228e-05,1.0809309e-05,0.0,0.0,0.0,0.0,0.0,0.0,0.0,8.002667e-05,0.0,0.0,0.0,0.0,0.0,0.0,6.3553496e-05,5.1544514e-05,6.3553496e-05,1.3971673e-07,0.00081019587,0.9883016,6.16476e-05,0.0,0.0,0.0,0.0,0.0,0.0
248532174,248341729,0.00066608406,0.00191732,0.00054997636,0.0002535046,2.9117234e-06,1.1194429e-05,0.0,0.0,0.0,0.0,0.0,0.0,0.0,0.00015359178,0.0,0.0,0.0,0.0,0.0,0.0,0.00018429267,0.00018429267,0.00017348939,4.043019e-05,0.44779754,0.286736,0.00048357292,0.0,0.0,0.0,0.0,0.0,0.0
249032211,248841729,0.002813109,0.00035523434,0.00072883215,1.1068498e-05,8.840762e-06,3.8336e-06,0.0,0.0,0.0,0.0,0.0,0.0,0.0,3.8247998e-07,0.0,0.0,0.0,0.0,0.0,0.0,9.2241746e-05,9.2241746e-05,4.8151196e-06,4.291509e-06,0.3611233,0.14865488,0.00014020495,0.0,0.0,0.0,0.0,0.0,0.0
249532203,249341729,0.007914678,0.0028844269,0.00049240666,1.6774852e-06,1.1852397e-05,1.1906805e-06,0.0,0.0,0.0,0.0,0.0,0.0,0.0,6.347214e-05,0.0,0.0,0.0,0.0,0.0,0.0,0.00012161453,6.860782e-05,0.00012161453,2.6728769e-05,0.009460133,0.0008057712,5.2277798e-08,0.0,0.0,0.0,0.0,0.0,0.0
250032216,249841729,0.013344269,0.0024738107,0.00012731929,6.380639e-05,1.4761689e-05,7.769294e-06,0.0,0.0,0.0,0.0,0.0,0.0,0.0,7.342004e-05,0.0,0.0,0.0,0.0,0.0,0.0,2.3940456e-05,2.3940456e-05,1.1402473e-05,1.2136903e-07,0.23570801,0.01807809,0.001399242,0.0,0.0,0.0,0.0,0.0,0.0
250532165,250341729,0.008039711,0.0009800111,0.0002703087,3.808033e-05,6.186018e-05,1.1138065e-07,0.0,0.0,0.0,0.0,0.0,0.0,0.0,0.00033232966,0.0,0.0,0.0,0.0,0.0,0.0,0.00010175667,2.1150156e-05,5.384272e-05,0.00010175667,3.9578426e-05,0.046648428,3.323141e-06,0.0,0.0,0.0,0.0,0.0,0.0
251032227,250841729,0.0010756244,0.00037471688,0.0012748066,8.7490275e-07,3.721864e-05,6.718098e-05,0.0,0.0,0.0,0.0,0.0,0.0,0.0,0.00081955414,0.0,0.0,0.0,0.0,0.0,0.0,0.000107984095,4.703322e-05,4.3213462e-05,0.000107984095,0.39024487,0.023884526,0.0024481956,0.0,0.0,0.0,0.0,0.0,0.0
251532238,251341729,1.7562098e-08,0.00077594246,0.00093547127,0.00011497495,4.4674172e-05,0.00026339613,0.0,0.0,0.0,0.0,0.0,0.0,0.0,0.00018899622,0.0,0.0,0.0,0.0,0.0,0.0,5.6757566e-05,5.6757566e-05,4.932626e-07,8.3928235e-06,0.044657014,0.13246873,9.081849e-08,0.0,0.0,0.0,0.0,0.0,0.0
252032184,251841729,0.0026723729,0.0005044849,0.00014323936,0.00016662202,5.1517967e-05,0.0004430686,0.0,0.0,0.0,0.0,0.0,0.0,0.0,0.00033533445,0.0,0.0,0.0,0.0,0.0,0.0,2.6689626e-05,2.4323579e-05,2.4795243e-06,2.6689626e-05,0.28261384,0.15991081,0.00047938805,0.0,0.0,0.0,0.0,0.0,0.0
252532220,252341729,0.0008582894,4.3952336e-06,0.00045472907,0.00023966572,8.723656e-05,0.0006808231,0.0,0.0,0.0,0.0,0.0,0.0,0.0,0.0005852191,0.0,0.0,0.0,0.0,0.0,0.0,0.00016149657,8.9494506e-07,8.7752e-05,0.00016149657,1.7922308e-05,0.017313275,3.857408e-07,0.0,0.0,0.0,0.0,0.0,0.0
253032222,252841729,2.021996e-05,0.00064755627,0.0010093057,0.00026852617,0.00012472132,0.0009506911,0.0,0.0,0.0,0.0,0.0,0.0,0.0,0.00048807508,0.0,0.0,0.0,0.0,0.0,0.0,6.778968e-05,8.848928e-07,3.1848864e-05,6.778968e-05,0.43453413,6.687292e-05,0.0007135914,0.0,0.0,0.0,0.0,0.0,0.0
253532247,253341729,0.0040076,0.0022823014,0.0009966245,0.00031011243,0.000100380654,0.0017529359,0.0,0.0,0.0,0.0,0.0,0.0,0.0,5.0690196e-05,0.0,0.0,0.0,0.0,0.0,0.0,0.00017628765,0.00017628765,4.177334e-06,0.00016483093,0.05530344,0.071870595,0.0005401457,0.0,0.0,0.0,0.0,0.0,0.0
254032373,253841729,2.3114835e-05,0.01327995,0.0012098828,0.000713687,7.653969e-05,0.0017803861,0.0,0.0,0.0,0.0,0.0,0.0,0.0,2.005389e-05,0.0,0.0,0.0,0.0,0.0,0.0,5.312384e-05,5.312384e-05,7.771839e-06,4.5040736e-07,0.050062846,0.025870865,0.00025298112,0.0,0.0,0.0,0.0,0.0,0.0
254532186,254341729,0.0009206548,3.256441e-05,8.1276536e-05,0.0005316113,0.00012518707,0.0023077729,0.0,0.0,0.0,0.0,0.0,0.0,0.0,0.00012708995,0.0,0.0,0.0,0.0,0.0,0.0,5.5805198e-05,1.667298e-05,2.8966717e-06,5.5805198e-05,0.23654638,0.031256568,3.4530927e-05,0.0,0.0,0.0,0.0,0.0,0.0
255032415,254841729,6.198728e-05,0.0028168499,4.6626705e-05,0.00027816376,8.798054e-05,0.002198498,0.0,0.0,0.0,0.0,0.0,0.0,0.0,4.4566314e-05,0.0,0.0,0.0,0.0,0.0,0.0,1.6512015e-05,1.6512015e-05,6.5282084e-06,1.1989331e-05,0.23500085,0.30534282,0.0007925878,0.0,0.0,0.0,0.0,0.0,0.0
255532386,255341729,6.718559e-05,0.0010231478,0.0084571345,0.00016637,0.00010821655,0.0021459414,0.0,0.0,0.0,0.0,0.0,0.0,0.0,1.4685024e-05,0.0,0.0,0.0,0.0,0.0,0.0,9.82112e-05,9.82112e-05,2.7718257e-05,3.15513e-05,0.0004335891,0.7564789,0.01782883,0.0,0.0,0.0,0.0,0.0,0.0
256032186,255841729,0.00285594,0.00013046378,0.009628847,0.00023284109,0.00013186537,0.0019137351,0.0,0.0,0.0,0.0,0.0,0.0,0.0,3.9285358e-05,0.0,0.0,0.0,0.0,0.0,0.0,2.8738987e-05,2.8738987e-05,1.073365e-07,1.0535854e-06,0.5172165,0.30668375,0.024632774,0.0,0.0,0.0,0.0,0.0,0.0
256532384,256341730,0.0013538236,0.0019826652,0.0100094555,0.00021049885,0.0002152886,0.001723231,0.0,0.0,0.0,0.0,0.0,0.0,0.0,0.0002958266,0.0,0.0,0.0,0.0,0.0,0.0,3.1995565e-05,5.5316264e-06,3.1995565e-05,1.7154127e-07,0.0098677175,0.12068939,0.00063383335,0.0,0.0,0.0,0.0,0.0,0.0
257532206,257341729,8.513236e-05,0.0021282735,0.0015603768,0.00013108875,0.00010067012,0.0013290645,0.0,0.0,0.0,0.0,0.0,0.0,0.0,6.0509716e-05,0.0,0.0,0.0,0.0,0.0,0.0,4.3114993e-05,2.6631948e-05,1.13584484e-07,4.3114993e-05,0.0075219525,0.06863521,0.0001490698,0.0,0.0,0.0,0.0,0.0,0.0
258032198,257841729,0.0023060238,0.0007484666,0.00027597026,8.4476174e-05,0.00013256879,0.0012221278,0.0,0.0,0.0,0.0,0.0,0.0,0.0,4.5761066e-05,0.0,0.0,0.0,0.0,0.0,0.0,0.0027454873,2.3519586e-05,0.000388419,0.0027454873,0.019306015,0.026037272,1.168539e-06,0.0,0.0,0.0,0.0,0.0,0.0
258532356,258341729,0.013157822,0.0016771953,0.0054698423,6.860886e-05,5.1550407e-05,0.0005495905,0.0,0.0,0.0,0.0,0.0,0.0,0.0,1.9678799e-05,0.0,0.0,0.0,0.0,0.0,0.0,0.00014511605,4.6035802e-05,1.7275558e-07,0.00014511605,0.16722436,0.120255336,0.0014607812,0.0,0.0,0.0,0.0,0.0,0.0
259032215,258841731,0.0060168053,0.007258671,2.4959907e-05,0.00010912427,7.8789344e-05,0.0005040191,0.0,0.0,0.0,0.0,0.0,0.0,0.0,4.669001e-05,0.0,0.0,0.0,0.0,0.0,0.0,7.428428e-05,8.9616515e-06,7.428428e-05,1.9118827e-06,0.3314312,0.0010662602,0.001076995,0.0,0.0,0.0,0.0,0.0,0.0
259532205,259341729,1.6578633e-05,0.00050020835,0.0018131715,0.00020983609,3.5116088e-06,0.0006951234,0.0,0.0,0.0,0.0,0.0,0.0,0.0,0.00075621187,0.0,0.0,0.0,0.0,0.0,0.0,0.00012047128,4.585233e-06,3.2330816e-05,0.00012047128,1.2644405e-05,0.0012455037,3.8016694e-06,0.0,0.0,0.0,0.0,0.0,0.0
260032228,259841729,0.00039894678,0.005334637,0.0015920661,0.00013914025,9.653197e-09,0.00097087,0.0,0.0,0.0,0.0,0.0,0.0,0.0,1.9957179e-06,0.0,0.0,0.0,0.0,0.0,0.0,4.723607e-05,4.723607e-05,1.505875e-06,3.1855518e-05,0.08291544,2.5348487e-05,2.942002e-07,0.0,0.0,0.0,0.0,0.0,0.0
260532174,260341729,0.0007407697,0.0011722366,0.0027885188,0.000106921405,3.2780817e-06,0.000969837,0.0,0.0,0.0,0.0,0.0,0.0,0.0,2.2356971e-05,0.0,0.0,0.0,0.0,0.0,0.0,2.1777361e-05,6.029758e-08,3.4417865e-06,2.1777361e-05,0.26692447,0.03519107,1.4685001e-05,0.0,0.0,0.0,0.0,0.0,0.0
261032250,260841729,0.004755554,0.000566432,0.0004994701,5.9817605e-05,3.1624208e-05,0.0011384739,0.0,0.0,0.0,0.0,0.0,0.0,0.0,0.002130812,0.0,0.0,0.0,0.0,0.0,0.0,0.00010516361,2.8777938e-06,6.615518e-06,0.00010516361,0.9446812,0.19274811,0.0057848417,0.0,0.0,0.0,0.0,0.0,0.0
261532232,261341729,3.3317974e-07,0.0010606616,0.00054647523,4.3668904e-05,1.9836865e-05,0.0010366711,0.0,0.0,0.0,0.0,0.0,0.0,0.0,0.00021403297,0.0,0.0,0.0,0.0,0.0,0.0,7.94549e-05,6.435703e-08,7.94549e-05,1.1072765e-05,0.22409609,0.33069414,0.0043467497,0.0,0.0,0.0,0.0,0.0,0.0
262032191,261841729,0.0005346748,0.0002739792,0.0014055165,2.1798132e-05,4.6482794e-05,0.0010778072,0.0,0.0,0.0,0.0,0.0,0.0,0.0,4.2890766e-05,0.0,0.0,0.0,0.0,0.0,0.0,3.1018113e-05,6.7332535e-06,3.1018113e-05,1.4274255e-05,0.3769675,0.027099298,0.008070742,0.0,0.0,0.0,0.0,0.0,0.0
262532174,262341729,6.5621947e-07,0.00032682787,0.0006251443,1.1244819e-05,7.445304e-05,0.00097574183,0.0,0.0,0.0,0.0,0.0,0.0,0.0,7.6551165e-05,0.0,0.0,0.0,0.0,0.0,0.0,4.535257e-05,7.061824e-06,2.2821352e-05,4.535257e-05,0.009447194,0.04001999,8.826447e-06,0.0,0.0,0.0,0.0,0.0,0.0
263032215,262841729,9.178245e-06,0.000179346,9.830368e-05,2.419906e-06,9.721676e-05,0.0008640293,0.0,0.0,0.0,0.0,0.0,0.0,0.0,0.00024721262,0.0,0.0,0.0,0.0,0.0,0.0,2.6306818e-05,2.6306818e-05,1.4903941e-05,3.1581537e-06,1.0246329,0.055881627,0.0021325708,0.0,0.0,0.0,0.0,0.0,0.0
263532208,263341729,0.00054198474,0.0052964417,8.3718296e-05,9.662422e-07,0.00017160979,0.00076135475,0.0,0.0,0.0,0.0,0.0,0.0,0.0,0.00035227253,0.0,0.0,0.0,0.0,0.0,0.0,5.1080606e-05,2.0675623e-05,5.2786845e-06,5.1080606e-05,0.070929706,0.00017011171,5.691614e-05,0.0,0.0,0.0,0.0,0.0,0.0
264032176,263841729,0.006238041,0.0024799427,1.0745837e-05,1.359899e-06,4.349663e-05,0.0006982333,0.0,0.0,0.0,0.0,0.0,0.0,0.0,0.00038461827,0.0,0.0,0.0,0.0,0.0,0.0,0.00013651974,0.00013651974,4.2477925e-05,1.4214737e-06,0.09277801,0.028852427,0.00020777919,0.0,0.0,0.0,0.0,0.0,0.0
264532168,264341729,8.292841e-05,0.008206721,0.0006851823,1.2202671e-05,9.2838534e-05,0.00079936854,0.0,0.0,0.0,0.0,0.0,0.0,0.0,6.6376415e-05,0.0,0.0,0.0,0.0,0.0,0.0,0.0002624016,1.924895e-08,0.0002624016,5.329356e-05,0.39233872,0.64010966,0.0015910623,0.0,0.0,0.0,0.0,0.0,0.0
265032224,264841729,0.00028199982,1.1345265e-05,6.1982304e-05,5.2878575e-05,0.00012314698,0.0009133663,0.0,0.0,0.0,0.0,0.0,0.0,0.0,0.00038053255,0.0,0.0,0.0,0.0,0.0,0.0,6.759232e-05,1.05888785e-05,6.759232e-05,6.713211e-05,0.12250538,0.15782514,2.4159548e-05,0.0,0.0,0.0,0.0,0.0,0.0
265532392,265341729,1.524033e-06,0.00035392088,0.00015360331,0.00010667958,0.00020513842,0.0013861964,0.0,0.0,0.0,0.0,0.0,0.0,0.0,0.0008861212,0.0,0.0,0.0,0.0,0.0,0.0,3.1985903e-05,3.1985903e-05,2.662523e-05,2.2360796e-06,0.1055552,0.05137854,0.002566835,0.0,0.0,0.0,0.0,0.0,0.0
266032373,265841729,0.00014871941,0.00030341366,0.00077222707,0.00022508814,0.00013995501,0.001511336,0.0,0.0,0.0,0.0,0.0,0.0,0.0,0.00079269864,0.0,0.0,0.0,0.0,0.0,0.0,0.00013268729,0.00013268729,2.808564e-05,4.9012765e-06,0.059535943,0.25138658,0.0002018153,0.0,0.0,0.0,0.0,0.0,0.0
266532243,266341729,0.0012567502,0.0015611369,0.00035209095,0.00024135705,5.9617087e-05,0.0014403742,0.0,0.0,0.0,0.0,0.0,0.0,0.0,0.00067251147,0.0,0.0,0.0,0.0,0.0,0.0,0.00017088211,0.00017088211,0.00010595172,5.787963e-06,0.1281305,0.026983406,0.00032685176,0.0,0.0,0.0,0.0,0.0,0.0
267032418,266841729,0.0016437605,0.00046440263,0.0003762484,0.00019618869,5.730468e-06,0.0013171495,0.0,0.0,0.0,0.0,0.0,0.0,0.0,0.00060927204,0.0,0.0,0.0,0.0,0.0,0.0,6.965461e-05,6.091026e-05,6.965461e-05,3.6187405e-06,0.07176582,0.22968696,6.8281215e-06,0.0,0.0,0.0,0.0,0.0,0.0
267532463,267341729,7.1664235e-06,0.00011609429,0.00021287291,0.00025142796,5.4193744e-05,0.0013219854,0.0,0.0,0.0,0.0,0.0,0.0,0.0,0.00031103854,0.0,0.0,0.0,0.0,0.0,0.0,2.9928598e-05,2.4585042e-05,2.9928598e-05,3.0666308e-06,0.73274255,1.4965106e-05,0.0034385936,0.0,0.0,0.0,0.0,0.0,0.0
268032225,267841729,0.00026851616,9.125513e-05,9.587245e-07,0.00017450676,0.00012144097,0.0011973555,0.0,0.0,0.0,0.0,0.0,0.0,0.0,4.0041654e-05,0.0,0.0,0.0,0.0,0.0,0.0,3.997458e-05,2.6896038e-05,3.997458e-05,2.5846723e-06,0.025765114,0.0324444,0.0003441968,0.0,0.0,0.0,0.0,0.0,0.0
268532356,268341729,0.0009399986,0.0014057319,0.00040666224,0.00022316139,0.00011240882,0.0009726254,0.0,0.0,0.0,0.0,0.0,0.0,0.0,0.0005700028,0.0,0.0,0.0,0.0,0.0,0.0,5.344188e-05,1.2609855e-05,1.39826225e-05,5.344188e-05,0.044796802,0.017411467,6.442248e-05,0.0,0.0,0.0,0.0,0.0,0.0
269032430,268841729,0.0008010848,0.009681468,5.4836957e-05,0.00015221696,7.503091e-05,0.0007145765,0.0,0.0,0.0,0.0,0.0,0.0,0.0,0.0009477441,0.0,0.0,0.0,0.0,0.0,0.0,0.00015885883,0.00015885883,1.5484866e-06,5.4964936e-08,0.07499066,0.00024526537,8.0234764e-05,0.0,0.0,0.0,0.0,0.0,0.0
269532392,269341729,0.002437593,0.00059445604,9.550456e-05,0.00025802676,0.00032522954,0.00046890083,0.0,0.0,0.0,0.0,0.0,0.0,0.0,0.00047503403,0.0,0.0,0.0,0.0,0.0,0.0,8.717218e-05,8.094717e-06,3.0791176e-05,8.717218e-05,0.17607664,0.007719409,0.0031540222,0.0,0.0,0.0,0.0,0.0,0.0
270032373,269841729,0.0008570187,0.00010168563,9.3376744e-05,0.00027333738,0.00024777016,0.00047663497,0.0,0.0,0.0,0.0,0.0,0.0,0.0,0.0001824119,0.0,0.0,0.0,0.0,0.0,0.0,0.00038460767,1.2561261e-05,0.0002881623,0.00038460767,0.14358199,0.035472725,0.0002355159,0.0,0.0,0.0,0.0,0.0,0.0
270532354,270341729,0.0017202924,0.002494227,5.6360427e-06,0.00018562173,0.00016392536,0.00043521586,0.0,0.0,0.0,0.0,0.0,0.0,0.0,0.00015538924,0.0,0.0,0.0,0.0,0.0,0.0,0.00021459287,0.00021459287,0.00011678775,6.846382e-05,0.11756975,0.008193651,2.308887e-05,0.0,0.0,0.0,0.0,0.0,0.0
271032222,270841729,6.9138056e-05,0.0012940383,1.3262979e-05,0.00030413127,2.396293e-05,0.0002843205,0.0,0.0,0.0,0.0,0.0,0.0,0.0,0.00024980272,0.0,0.0,0.0,0.0,0.0,0.0,0.00059769786,0.00059769786,1.2775305e-05,1.6240396e-05,0.08203886,0.17532094,6.675489e-05,0.0,0.0,0.0,0.0,0.0,0.0
272032210,271841729,0.0013425697,5.3093513e-06,4.795149e-05,0.00018321589,1.2793661e-08,0.00040632123,0.0,0.0,0.0,0.0,0.0,0.0,0.0,0.00022563,0.0,0.0,0.0,0.0,0.0,0.0,0.00038878285,0.00038878285,5.392591e-06,9.152542e-06,0.61656314,0.039388943,0.0031955868,0.0,0.0,0.0,0.0,0.0,0.0
272532173,272341729,0.00028982473,0.017367642,9.310729e-05,0.00018957396,5.0242823e-05,0.0004970145,0.0,0.0,0.0,0.0,0.0,0.0,0.0,0.00028499318,0.0,0.0,0.0,0.0,0.0,0.0,0.00044384832,0.00044384832,4.6881507e-07,1.6182261e-06,0.22457734,0.005597952,6.9569534e-05,0.0,0.0,0.0,0.0,0.0,0.0
273032259,272841729,0.0028054959,0.0020768421,0.000118885684,0.0001782843,4.3315733e-05,0.00024123596,0.0,0.0,0.0,0.0,0.0,0.0,0.0,0.00070139806,0.0,0.0,0.0,0.0,0.0,0.0,0.00023636078,0.00023636078,5.0378872e-05,1.3291899e-05,0.2069728,0.03988664,0.00023729014,0.0,0.0,0.0,0.0,0.0,0.0
274032245,273841729,0.0011342996,8.0193335e-05,1.6285498e-05,9.707679e-05,1.1251314e-05,0.00022418266,0.0,0.0,0.0,0.0,0.0,0.0,0.0,7.898987e-05,0.0,0.0,0.0,0.0,0.0,0.0,0.00051096774,5.7915528e-05,0.00051096774,3.8685834e-05,0.414495,0.17158669,0.0024720596,0.0,0.0,0.0,0.0,0.0,0.0
274532171,274341729,0.0007309729,9.4331255e-05,4.8297974e-05,7.4950214e-05,2.9145325e-05,9.019468e-05,0.0,0.0,0.0,0.0,0.0,0.0,0.0,0.00012745662,0.0,0.0,0.0,0.0,0.0,0.0,0.00049271144,1.8827139e-05,0.00049271144,1.48124645e-05,0.29004738,0.10036265,0.0034508242,0.0,0.0,0.0,0.0,0.0,0.0
275032178,274841729,0.0009898336,7.808376e-05,0.0013631302,1.9959803e-05,4.9118484e-05,1.774828e-07,0.0,0.0,0.0,0.0,0.0,0.0,0.0,2.1197338e-06,0.0,0.0,0.0,0.0,0.0,0.0,0.0015095645,0.0004613417,0.0015095645,5.7646384e-06,0.08968295,0.06870718,0.0002457227,0.0,0.0,0.0,0.0,0.0,0.0
275532210,275341729,0.0009463845,0.0031152526,7.129102e-05,5.1458916e-05,4.4903223e-05,2.5024652e-05,0.0,0.0,0.0,0.0,0.0,0.0,0.0,0.00016523869,0.0,0.0,0.0,0.0,0.0,0.0,0.0014499092,0.0014499092,0.00036541853,3.7867526e-06,0.027167417,0.098713815,0.00025473614,0.0,0.0,0.0,0.0,0.0,0.0
276032419,275841729,5.761783e-05,0.00856303,0.0001250237,7.111509e-05,7.546999e-05,5.752138e-07,0.0,0.0,0.0,0.0,0.0,0.0,0.0,6.6105304e-06,0.0,0.0,0.0,0.0,0.0,0.0,0.0019440922,0.0019440922,3.4099303e-05,0.00015077124,0.82982224,0.0009825113,0.013899036,0.0,0.0,0.0,0.0,0.0,0.0
276532389,276341729,0.00011084876,2.7954238e-05,0.0009567266,2.0887923e-05,1.6396387e-05,1.9533006e-06,0.0,0.0,0.0,0.0,0.0,0.0,0.0,6.088991e-05,0.0,0.0,0.0,0.0,0.0,0.0,0.0024645391,0.0024645391,1.7859824e-05,0.00023324616,0.024000172,0.00640848,1.9536772e-05,0.0,0.0,0.0,0.0,0.0,0.0
277032369,276841729,0.00029297898,0.00019983017,0.0012848228,4.2581675e-07,2.9740725e-06,3.1255997e-06,0.0,0.0,0.0,0.0,0.0,0.0,0.0,0.00032107654,0.0,0.0,0.0,0.0,0.0,0.0,0.0016035461,0.0016035461,0.00028568454,0.00018990386,1.627623,0.16833693,0.057702817,0.0,0.0,0.0,0.0,0.0,0.0
277532214,277341731,0.0013877817,0.0012547045,0.00076593255,8.082697e-07,6.2948247e-06,4.3474025e-05,0.0,0.0,0.0,0.0,0.0,0.0,0.0,0.00018511213,0.0,0.0,0.0,0.0,0.0,0.0,0.00048433195,0.00036439142,0.00048433195,6.8766453e-06,4.4037926e-05,0.0021161127,4.323831e-07,0.0,0.0,0.0,0.0,0.0,0.0
278032447,277841729,0.00054476375,0.0032599892,0.0006925565,5.1986623e-05,6.6590615e-06,8.872072e-05,0.0,0.0,0.0,0.0,0.0,0.0,0.0,4.5011955e-05,0.0,0.0,0.0,0.0,0.0,0.0,0.00018298943,0.00013300678,0.00018298943,0.000101932485,0.12686937,4.091746e-05,0.00081305654,0.0,0.0,0.0,0.0,0.0,0.0
278532172,278341729,0.00040945137,0.0007694708,0.0003761677,3.3289143e-05,9.397506e-07,0.00019814128,0.0,0.0,0.0,0.0,0.0,0.0,0.0,5.465428e-05,0.0,0.0,0.0,0.0,0.0,0.0,0.00049045356,9.432762e-05,9.730664e-05,0.00049045356,0.05933638,0.07980733,0.0009935185,0.0,0.0,0.0,0.0,0.0,0.0
279032208,278841729,0.001960823,4.859129e-05,0.00031107548,3.6125275e-05,1.5856304e-07,0.00026668215,0.0,0.0,0.0,0.0,0.0,0.0,0.0,6.535646e-05,0.0,0.0,0.0,0.0,0.0,0.0,0.00030782368,0.00026546206,0.00030782368,0.00022645458,0.00627783,0.04948883,1.9834174e-06,0.0,0.0,0.0,0.0,0.0,0.0
279532453,279341729,0.0023338909,0.00018464563,0.00010709243,3.6865047e-05,4.7221187e-09,0.0002943663,0.0,0.0,0.0,0.0,0.0,0.0,0.0,0.00042024333,0.0,0.0,0.0,0.0,0.0,0.0,0.00036526562,0.00017532664,0.000115385905,0.00036526562,0.050669063,0.09241607,0.0009933832,0.0,0.0,0.0,0.0,0.0,0.0
280532592,280341729,0.0018341397,0.00064638857,0.0019247511,3.356998e-05,5.549502e-07,0.00022945825,0.0,0.0,0.0,0.0,0.0,0.0,0.0,8.740514e-05,0.0,0.0,0.0,0.0,0.0,0.0,0.00011133862,7.188506e-06,5.4537475e-05,0.00011133862,0.9201555,0.00011918942,0.005010725,0.0,0.0,0.0,0.0,0.0,0.0
281032579,280841729,0.019140383,0.0006686029,0.0012690563,7.3847576e-07,2.364268e-06,0.00022776214,0.0,0.0,0.0,0.0,0.0,0.0,0.0,0.0001690399,0.0,0.0,0.0,0.0,0.0,0.0,0.00018426751,5.259873e-05,0.00018426751,1.2140798e-05,0.4514466,0.00062208506,0.0083503695,0.0,0.0,0.0,0.0,0.0,0.0
281532377,281341729,0.0012220569,0.00013739755,0.0010303877,7.687709e-06,1.6443264e-05,0.00033038843,0.0,0.0,0.0,0.0,0.0,0.0,0.0,0.00043077773,0.0,0.0,0.0,0.0,0.0,0.0,0.00022872828,5.0153023e-05,4.8337148e-05,0.00022872828,1.3597772,0.06465895,0.012657956,0.0,0.0,0.0,0.0,0.0,0.0
282032610,281841729,0.00028697713,0.00023709689,0.0023208058,2.15895e-05,1.7497528e-05,0.0001999707,0.0,0.0,0.0,0.0,0.0,0.0,0.0,0.0001330571,0.0,0.0,0.0,0.0,0.0,0.0,0.00020207815,8.7955596e-05,0.00020207815,4.197611e-05,0.09882049,0.13375407,1.532405e-05,0.0,0.0,0.0,0.0,0.0,0.0
282532564,282341729,0.0059231254,0.0008584487,0.0024607591,1.3566286e-05,8.4646235e-05,0.00024952117,0.0,0.0,0.0,0.0,0.0,0.0,0.0,0.00013014674,0.0,0.0,0.0,0.0,0.0,0.0,0.00033493596,0.00026510065,0.00033493596,1.5292704e-05,0.02357656,0.015374758,8.2289385e-05,0.0,0.0,0.0,0.0,0.0,0.0
283032384,282841729,2.6529166e-05,0.0007030501,0.002233302,2.8149063e-05,0.0001411004,0.00023998515,0.0,0.0,0.0,0.0,0.0,0.0,0.0,1.7174671e-06,0.0,0.0,0.0,0.0,0.0,0.0,0.00012649699,0.00012649699,9.558264e-06,3.0369465e-05,0.4765095,0.029319901,0.009111144,0.0,0.0,0.0,0.0,0.0,0.0
283532606,283341730,0.0022077037,1.03777296e-07,0.0009940744,7.0700626e-05,0.000117498435,0.0001699935,0.0,0.0,0.0,0.0,0.0,0.0,0.0,1.7461047e-05,0.0,0.0,0.0,0.0,0.0,0.0,0.00016877595,8.9081404e-05,8.843691e-06,0.00016877595,0.0059987595,9.4083596e-05,6.798251e-06,0.0,0.0,0.0,0.0,0.0,0.0
284032607,283841729,6.479296e-06,0.007840246,0.00028112115,1.2634971e-05,1.0105655e-05,1.4057231e-05,0.0,0.0,0.0,0.0,0.0,0.0,0.0,2.5237798e-05,0.0,0.0,0.0,0.0,0.0,0.0,0.0011455128,3.7482256e-05,0.00031761942,0.0011455128,0.008818213,0.23329979,6.28931e-05,0.0,0.0,0.0,0.0,0.0,0.0
284532570,284341729,0.000627634,0.0005330456,0.0001394502,6.419689e-06,1.3166784e-05,7.096511e-05,0.0,0.0,0.0,0.0,0.0,0.0,0.0,8.6959815e-05,0.0,0.0,0.0,0.0,0.0,0.0,0.0008369736,0.0008369736,5.721863e-06,3.4882734e-05,0.3681686,0.020222904,0.0018447157,0.0,0.0,0.0,0.0,0.0,0.0
285032362,284841729,0.000925606,0.0012373388,5.3229753e-05,2.4807492e-05,2.6188516e-07,3.42624e-05,0.0,0.0,0.0,0.0,0.0,0.0,0.0,1.7598168e-06,0.0,0.0,0.0,0.0,0.0,0.0,0.00094997,0.00094997,4.133449e-05,3.745538e-05,0.109863,0.0017293377,0.0017774481,0.0,0.0,0.0,0.0,0.0,0.0
285532414,285341729,0.00089407084,2.3608227e-05,0.0005673447,3.1838135e-05,2.984209e-06,3.42624e-05,0.0,0.0,0.0,0.0,0.0,0.0,0.0,1.7082913e-05,0.0,0.0,0.0,0.0,0.0,0.0,0.00157695,0.00157695,1.507763e-05,3.906116e-05,2.3000476,0.0001486462,0.21674672,0.0,0.0,0.0,0.0,0.0,0.0
286032450,285841729,0.0018331874,0.00032150344,0.00052178564,3.9640836e-06,1.5353572e-06,3.42624e-05,0.0,0.0,0.0,0.0,0.0,0.0,0.0,0.00037387214,0.0,0.0,0.0,0.0,0.0,0.0,0.0006576124,0.0006576124,4.8084392e-05,2.2111165e-07,0.07890442,0.22292322,0.00020172722,0.0,0.0,0.0,0.0,0.0,0.0
286532339,286341729,0.0002719192,0.0017213182,1.4826373e-05,8.563491e-05,9.8691335e-06,3.42624e-05,0.0,0.0,0.0,0.0,0.0,0.0,0.0,0.0002989674,0.0,0.0,0.0,0.0,0.0,0.0,0.000400912,0.000400912,7.1153925e-05,0.00014954459,0.067069665,0.15834144,0.0010248738,0.0,0.0,0.0,0.0,0.0,0.0
287032392,286841729,0.0016368327,0.0015681696,0.00092604774,0.000250089,1.602581e-05,3.42624e-05,0.0,0.0,0.0,0.0,0.0,0.0,0.0,0.00016830339,0.0,0.0,0.0,0.0,0.0,0.0,0.00023602344,0.0002015452,0.00018653407,0.00023602344,0.009986808,0.085967645,9.074039e-05,0.0,0.0,0.0,0.0,0.0,0.0
287532387,287341729,0.0016267861,0.0005461345,0.00043630847,0.00023904632,1.0593739e-09,3.42624e-05,0.0,0.0,0.0,0.0,0.0,0.0,0.0,0.0003206773,0.0,0.0,0.0,0.0,0.0,0.0,0.00029471444,0.00024217789,0.00026457375,0.00029471444,0.00025049955,0.08580592,0.0003665314,0.0,0.0,0.0,0.0,0.0,0.0
288032437,287841729,0.000830471,0.0016303853,3.8208305e-05,0.00021084533,7.933264e-06,3.42624e-05,0.0,0.0,0.0,0.0,0.0,0.0,0.0,9.0447684e-05,0.0,0.0,0.0,0.0,0.0,0.0,0.00031112685,0.00017791512,0.00013947337,0.00031112685,0.006239127,0.0065837847,1.44393525e-05,0.0,0.0,0.0,0.0,0.0,0.0
288532348,288341729,0.00041415592,0.0002885937,0.0011120384,0.000111514346,3.769534e-05,3.42624e-05,0.0,0.0,0.0,0.0,0.0,0.0,0.0,1.43557945e-05,0.0,0.0,0.0,0.0,0.0,0.0,0.00046956344,0.00046956344,0.00019441984,0.00044643442,0.112642005,0.012426705,0.0014276739,0.0,0.0,0.0,0.0,0.0,0.0
289032365,288841729,0.00015513589,0.004876676,0.0013681845,8.349608e-05,0.0002880226,3.42624e-05,0.0,0.0,0.0,0.0,0.0,0.0,0.0,7.5881835e-05,0.0,0.0,0.0,0.0,0.0,0.0,0.0004989145,0.0004989145,4.0011546e-05,8.3037e-06,0.0031057615,0.077740975,0.0010637967,0.0,0.0,0.0,0.0,0.0,0.0
289532390,289341729,0.003751684,0.002183073,0.00033841637,2.1369084e-07,0.0004928764,3.42624e-05,0.0,0.0,0.0,0.0,0.0,0.0,0.0,5.7214576e-05,0.0,0.0,0.0,0.0,0.0,0.0,0.00049186544,0.00023239231,0.00049186544,2.7908143e-05,0.69286567,0.28918618,0.012671584,0.0,0.0,0.0,0.0,0.0,0.0
290032389,289841729,0.011607795,0.006225806,0.0005133828,0.0004697643,4.475638e-05,3.42624e-05,0.0,0.0,0.0,0.0,0.0,0.0,0.0,0.00019436415,0.0,0.0,0.0,0.0,0.0,0.0,0.0028263966,0.00015154808,2.2485981e-05,0.0028263966,0.19996688,0.43802467,0.009936186,0.0,0.0,0.0,0.0,0.0,0.0
290532201,290341730,0.011152392,0.008493828,0.0022391062,0.00093762134,9.8265766e-05,3.42624e-05,0.0,0.0,0.0,0.0,0.0,0.0,0.0,0.00019923173,0.0,0.0,0.0,0.0,0.0,0.0,0.0006680956,0.0006680956,5.7104906e-05,1.5973127e-07,0.01146659,0.03276172,2.0247066e-05,0.0,0.0,0.0,0.0,0.0,0.0
291032196,290841729,0.0045483806,0.0041512647,0.000103750805,0.0012006344,0.00013038055,3.42624e-05,0.0,0.0,0.0,0.0,0.0,0.0,0.0,1.3353696e-05,0.0,0.0,0.0,0.0,0.0,0.0,0.0018206751,0.00058298185,9.9430035e-05,0.0018206751,0.060188882,0.013467119,0.00017172006,0.0,0.0,0.0,0.0,0.0,0.0
291532219,291341729,9.854447e-05,6.1796774e-05,0.0001782022,0.0012714455,0.00016421206,3.42624e-05,0.0,0.0,0.0,0.0,0.0,0.0,0.0,0.0005094495,0.0,0.0,0.0,0.0,0.0,0.0,0.0007279329,0.0007279329,9.858503e-06,2.9257928e-05,0.07637739,0.22458348,0.0016366926,0.0,0.0,0.0,0.0,0.0,0.0
292032230,291841730,0.0036893531,0.004427644,9.272752e-07,0.0012202889,6.3263597e-06,3.42624e-05,0.0,0.0,0.0,0.0,0.0,0.0,0.0,0.00012336961,0.0,0.0,0.0,0.0,0.0,0.0,0.0006477556,0.0006477556,3.0567422e-05,4.174714e-05,0.054583702,0.026695946,2.4068238e-05,0.0,0.0,0.0,0.0,0.0,0.0
292532216,292341729,0.0016388379,0.0034375032,7.7347715e-05,0.0010949266,7.41943e-06,3.42624e-05,0.0,0.0,0.0,0.0,0.0,0.0,0.0,7.269438e-05,0.0,0.0,0.0,0.0,0.0,0.0,0.0010462815,0.0010462815,6.911128e-07,3.437755e-06,0.620288,0.01392382,0.005105817,0.0,0.0,0.0,0.0,0.0,0.0
293032218,292841729,0.002249225,9.7463e-05,0.0007919107,0.0010346122,3.4651293e-06,3.42624e-05,0.0,0.0,0.0,0.0,0.0,0.0,0.0,0.00065729755,0.0,0.0,0.0,0.0,0.0,0.0,0.0003005271,0.0003005271,2.59952e-06,2.036018e-05,0.23841624,0.17805196,0.002267193,0.0,0.0,0.0,0.0,0.0,0.0
293532245,293341729,0.007153184,0.0048785335,0.0004978018,0.0003922381,3.277516e-07,3.42624e-05,0.0,0.0,0.0,0.0,0.0,0.0,0.0,0.00012347107,0.0,0.0,0.0,0.0,0.0,0.0,0.0005334107,0.0005334107,7.266733e-05,3.2979801e-06,1.2615181,0.25623152,0.026811074,0.0,0.0,0.0,0.0,0.0,0.0
294032229,293841729,0.0020929214,0.007925728,0.0012823635,0.00018659253,8.471401e-05,3.42624e-05,0.0,0.0,0.0,0.0,0.0,0.0,0.0,0.00019274215,0.0,0.0,0.0,0.0,0.0,0.0,0.0001792221,0.0001792221,4.853367e-06,4.1273135e-05,0.2116575,0.22016495,0.004292033,0.0,0.0,0.0,0.0,0.0,0.0
294532214,294341729,0.00064455386,0.0002520577,7.285936e-05,0.000106898675,1.6939503e-05,3.42624e-05,0.0,0.0,0.0,0.0,0.0,0.0,0.0,0.0014523715,0.0,0.0,0.0,0.0,0.0,0.0,0.00037516587,0.000278698,2.0272822e-05,0.00037516587,0.20664194,0.04011766,0.0006135776,0.0,0.0,0.0,0.0,0.0,0.0
295032193,294841732,0.048296425,5.7179786e-06,0.00081787293,0.00022072159,3.2684093e-07,3.42624e-05,0.0,0.0,0.0,0.0,0.0,0.0,0.0,0.0007946144,0.0,0.0,0.0,0.0,0.0,0.0,3.5111305e-05,3.5111305e-05,1.2939395e-05,2.6715781e-05,0.22265686,0.07942528,0.0019611875,0.0,0.0,0.0,0.0,0.0,0.0
295532208,295341729,0.026982576,0.00063266023,0.0027894843,0.00061540114,8.860532e-06,3.42624e-05,0.0,0.0,0.0,0.0,0.0,0.0,0.0,0.0017471475,0.0,0.0,0.0,0.0,0.0,0.0,0.000107001666,0.000107001666,8.007518e-05,6.7172546e-06,0.23811236,0.0061020413,0.0010429509,0.0,0.0,0.0,0.0,0.0,0.0
296032225,295841729,0.0007103661,0.0005346022,0.0038673736,0.00038943684,4.3822434e-05,3.42624e-05,0.0,0.0,0.0,0.0,0.0,0.0,0.0,0.0011199205,0.0,0.0,0.0,0.0,0.0,0.0,0.00024567827,0.00024567827,8.3538755e-05,4.237099e-06,0.28660545,0.16968149,0.0025047897,0.0,0.0,0.0,0.0,0.0,0.0
297032183,296841729,0.09638949,0.0049399417,0.0028936882,0.001450228,1.6922226e-05,3.42624e-05,0.0,0.0,0.0,0.0,0.0,0.0,0.0,1.4888269e-05,0.0,0.0,0.0,0.0,0.0,0.0,0.0010247622,0.0010247622,8.077477e-05,0.00038890116,0.1642904,1.9698837,0.09299391,0.0,0.0,0.0,0.0,0.0,0.0
297532191,297341729,0.09195965,1.1637394e-05,0.00088529236,0.0034238524,5.5291184e-05,inf,0.0,0.0,0.0,0.0,0.0,0.0,0.0,0.0023420027,0.0,0.0,0.0,0.0,0.0,0.0,0.000111224486,0.000111224486,2.2709962e-06,6.167683e-05,0.67120314,0.4329714,0.019711517,0.0,0.0,0.0,0.0,0.0,0.0
298532163,298341728,0.040306147,9.558469e-06,0.00017817924,0.0048310156,2.2768645e-05,inf,0.0,0.0,0.0,0.0,0.0,0.0,0.0,0.00041221108,0.0,0.0,0.0,0.0,0.0,0.0,3.0254196e-05,3.472283e-07,3.0254196e-05,2.3032151e-05,0.1864681,0.003944516,0.00564307,0.0,0.0,0.0,0.0,0.0,0.0
299032220,298841729,0.026028898,0.0012983021,0.00067426614,0.005451388,1.02124795e-05,inf,0.0,0.0,0.0,0.0,0.0,0.0,0.0,0.0014798329,0.0,0.0,0.0,0.0,0.0,0.0,3.0136533e-05,2.6761252e-05,2.4631312e-05,3.0136533e-05,0.5342707,0.5670145,0.0032381741,0.0,0.0,0.0,0.0,0.0,0.0
299532236,299341729,0.015034528,0.00025973556,0.0030076369,0.005606877,3.6336007e-06,inf,0.0,0.0,0.0,0.0,0.0,0.0,0.0,3.0553678e-05,0.0,0.0,0.0,0.0,0.0,0.0,0.00038125744,0.00015224605,6.372207e-05,0.00038125744,1.837736,0.137579,0.37704006,0.0,0.0,0.0,0.0,0.0,0.0
300032273,299841729,0.014734618,0.001470859,0.006577585,0.005842609,1.043855e-06,inf,0.0,0.0,0.0,0.0,0.0,0.0,0.0,0.002186824,0.0,0.0,0.0,0.0,0.0,0.0,0.0009451536,3.416374e-06,3.0498381e-06,0.0009451536,1.9727174,0.9530052,0.043520086,0.0,0.0,0.0,0.0,0.0,0.0
300532162,300341729,0.009101152,7.0954766e-06,0.005516449,0.0064750514,9.9567046e-08,inf,0.0,0.0,0.0,0.0,0.0,0.0,0.0,0.00058434426,0.0,0.0,0.0,0.0,0.0,0.0,1.817296e-05,1.817296e-05,1.7202171e-07,1.6027856e-05,0.032640018,0.14687392,6.121035e-05,0.0,0.0,0.0,0.0,0.0,0.0
301032213,300841729,0.011756988,0.0022894817,0.0005917609,0.0072414433,4.323169e-06,inf,0.0,0.0,0.0,0.0,0.0,0.0,0.0,6.967988e-05,0.0,0.0,0.0,0.0,0.0,0.0,0.00023565575,5.2776813e-05,0.00023565575,0.00011964503,3.4683022,0.43503973,0.28383923,0.0,0.0,0.0,0.0,0.0,0.0
301532194,301341729,0.009485417,2.3197774e-06,0.0013081739,0.00790294,2.1516496e-06,inf,0.0,0.0,0.0,0.0,0.0,0.0,0.0,0.0010850327,0.0,0.0,0.0,0.0,0.0,0.0,9.6354306e-05,9.6354306e-05,5.1147543e-07,6.82089e-05,1.0963436,0.00036376473,0.016139865,0.0,0.0,0.0,0.0,0.0,0.0
302032333,301841729,0.0063630706,0.00019067382,0.000704694,0.00814141,1.8946231e-08,inf,0.0,0.0,0.0,0.0,0.0,0.0,0.0,0.000113198854,0.0,0.0,0.0,0.0,0.0,0.0,0.00011838777,7.1309245e-05,0.00011838777,3.086397e-05,0.35747305,0.0009967278,0.0020838142,0.0,0.0,0.0,0.0,0.0,0.0
302532201,302341729,0.009465409,0.0009599956,0.0018554849,0.008580384,2.0880671e-07,inf,0.0,0.0,0.0,0.0,0.0,0.0,0.0,2.6354714e-05,0.0,0.0,0.0,0.0,0.0,0.0,0.00012051793,0.00012051793,8.3310454e-07,2.055175e-05,0.5588938,0.04555558,0.0055810693,0.0,0.0,0.0,0.0,0.0,0.0
303032211,302841729,0.008335345,0.00023521036,2.9920146e-05,0.0087698605,1.1740091e-06,inf,0.0,0.0,0.0,0.0,0.0,0.0,0.0,0.00013981714,0.0,0.0,0.0,0.0,0.0,0.0,0.00032942134,4.7406826e-05,1.6239788e-05,0.00032942134,2.71069,0.031644374,0.13292773,0.0,0.0,0.0,0.0,0.0,0.0
303532169,303341729,0.015360865,3.227733e-07,0.0014017549,0.008950691,2.3201235e-06,inf,0.0,0.0,0.0,0.0,0.0,0.0,0.0,0.00011104424,0.0,0.0,0.0,0.0,0.0,0.0,0.00011413294,0.00011413294,3.3427781e-07,8.842603e-07,4.6185813,0.18874508,0.4275667,0.0,0.0,0.0,0.0,0.0,0.0
304032223,303841729,0.0017563466,0.003097051,0.000857192,0.008164949,7.5141843e-06,inf,0.0,0.0,0.0,0.0,0.0,0.0,0.0,7.3416006e-05,0.0,0.0,0.0,0.0,0.0,0.0,9.3857874e-05,7.6769975e-05,9.3857874e-05,6.97072e-06,0.00033046663,0.44910532,0.00195315,0.0,0.0,0.0,0.0,0.0,0.0
305032170,304841729,0.007401019,4.8991983e-06,0.006674414,0.008139707,6.370387e-06,inf,0.0,0.0,0.0,0.0,0.0,0.0,0.0,0.0006697186,0.0,0.0,0.0,0.0,0.0,0.0,7.802993e-05,9.416168e-06,4.936512e-07,7.802993e-05,0.6001174,0.30211914,0.011461834,0.0,0.0,0.0,0.0,0.0,0.0
305532222,305341729,0.013010525,0.0001636436,0.0051983804,0.008431828,9.297822e-06,inf,0.0,0.0,0.0,0.0,0.0,0.0,0.0,0.0031746575,0.0,0.0,0.0,0.0,0.0,0.0,3.169995e-05,1.6407907e-05,3.169995e-05,1.2194105e-06,0.08328398,0.15662892,0.0011985146,0.0,0.0,0.0,0.0,0.0,0.0
306032325,305841729,0.013827175,0.0002104845,0.009059818,0.008603662,1.6417103e-05,inf,0.0,0.0,0.0,0.0,0.0,0.0,0.0,7.092551e-05,0.0,0.0,0.0,0.0,0.0,0.0,0.00030878372,0.00030878372,8.869557e-07,3.1441894e-05,0.16930766,0.1568744,0.0031820692,0.0,0.0,0.0,0.0,0.0,0.0
306532195,306341729,0.01194816,0.0003046922,0.010433583,0.008487775,2.3347757e-05,inf,0.0,0.0,0.0,0.0,0.0,0.0,0.0,0.0065221535,0.0,0.0,0.0,0.0,0.0,0.0,0.00012865815,2.4625251e-06,4.1425487e-06,0.00012865815,0.0007123346,0.0255373,2.2963024e-05,0.0,0.0,0.0,0.0,0.0,0.0
307032179,306841729,0.007964481,0.0011505315,0.014928879,0.008427669,3.684371e-05,inf,0.0,0.0,0.0,0.0,0.0,0.0,0.0,0.005561705,0.0,0.0,0.0,0.0,0.0,0.0,0.00031526995,8.691469e-05,0.00013803376,0.00031526995,0.077379294,0.37430045,0.0030676692,0.0,0.0,0.0,0.0,0.0,0.0
307532358,307341729,2.581139e-05,0.0023455159,0.00013721484,1.9416739e-06,7.08694e-09,7.0112714e-07,0.0,0.0,0.0,0.0,0.0,0.0,0.0,0.0066870656,0.0,0.0,0.0,0.0,0.0,0.0,0.000121019315,4.4602334e-06,0.000121019315,5.5263514e-05,0.011011778,0.036766946,3.6621142e-05,0.0,0.0,0.0,0.0,0.0,0.0
308532389,308341729,0.002700222,0.00456525,0.00056083873,1.094952e-05,4.2532934e-06,0.00019740265,0.0,0.0,0.0,0.0,0.0,0.0,0.0,0.020193312,0.0,0.0,0.0,0.0,0.0,0.0,0.0014504417,2.494964e-07,0.0014504417,2.7407161e-06,0.2258933,1.4307593,0.045824878,0.0,0.0,0.0,0.0,0.0,0.0
309032369,308841729,0.044304594,0.0070209093,0.0460146,2.8248583e-05,2.1440223e-05,0.00048255257,0.0,0.0,0.0,0.0,0.0,0.0,0.0,0.019004166,0.0,0.0,0.0,0.0,0.0,0.0,0.004304371,0.00077801396,0.0016102938,0.004304371,1.3419734,0.39467824,0.0048618508,0.0,0.0,0.0,0.0,0.0,0.0
309532391,309341729,0.05404582,1.9585632e-05,0.11827929,6.113053e-05,2.3519141e-07,0.00057669164,0.0,0.0,0.0,0.0,0.0,0.0,0.0,0.013265325,0.0,0.0,0.0,0.0,0.0,0.0,0.004348784,0.0006779705,0.0031985051,0.004348784,0.0434312,0.04776385,0.0053340867,0.0,0.0,0.0,0.0,0.0,0.0
310032424,309841729,0.0011051551,0.0071923435,0.25652096,5.423078e-05,1.0944706e-05,0.0014639974,0.0,0.0,0.0,0.0,0.0,0.0,0.0,0.004829686,0.0,0.0,0.0,0.0,0.0,0.0,0.0046849223,2.3392857e-05,0.0046849223,0.0008084316,0.7296531,0.07941351,0.0030816821,0.0,0.0,0.0,0.0,0.0,0.0
310532388,310341729,0.019271903,0.008366125,0.094552234,0.0001351014,2.802878e-05,0.0034307328,0.0,0.0,0.0,0.0,0.0,0.0,0.0,0.0021356598,0.0,0.0,0.0,0.0,0.0,0.0,0.003346779,0.0002337156,0.003346779,7.740226e-05,1.3887032,0.38496256,0.015115186,0.0,0.0,0.0,0.0,0.0,0.0
311032372,310841729,0.06505595,1.9016656e-05,0.0030907555,0.00013649616,0.00018268483,0.0033982475,0.0,0.0,0.0,0.0,0.0,0.0,0.0,0.0014908718,0.0,0.0,0.0,0.0,0.0,0.0,0.0007369132,0.00037886563,0.00069453876,0.0007369132,0.09726725,1.3227316,0.013990907,0.0,0.0,0.0,0.0,0.0,0.0
312032263,311841729,0.068615474,0.06595916,0.17159219,0.0011779759,7.57574e-05,0.0039036325,0.0,0.0,0.0,0.0,0.0,0.0,0.0,0.00025025842,0.0,0.0,0.0,0.0,0.0,0.0,0.0009255308,0.00013300093,0.00016220796,0.0009255308,0.050013952,0.19656692,0.0032525756,0.0,0.0,0.0,0.0,0.0,0.0
312532212,312341729,0.014664096,0.0114781195,0.10386844,0.0023287348,0.0004395014,0.0039036325,0.0,0.0,0.0,0.0,0.0,0.0,0.0,0.00025406768,0.0,0.0,0.0,0.0,0.0,0.0,0.00030040732,1.23124655e-05,0.00030040732,0.00022675053,0.93425465,0.0003563063,0.011372515,0.0,0.0,0.0,0.0,0.0,0.0
313032211,312841729,0.0070540523,0.003523031,0.08375006,0.0030146278,5.1764655e-05,0.0039036325,0.0,0.0,0.0,0.0,0.0,0.0,0.0,0.0016930916,0.0,0.0,0.0,0.0,0.0,0.0,0.0019346805,2.3443896e-07,0.00016792036,0.0019346805,0.45652512,0.28903636,0.030795444,0.0,0.0,0.0,0.0,0.0,0.0
313532177,313341729,0.019090656,0.0001132955,0.07883474,0.0052681537,5.8614074e-07,0.0039036325,0.0,0.0,0.0,0.0,0.0,0.0,0.0,0.0038744588,0.0,0.0,0.0,0.0,0.0,0.0,0.00023772843,8.908941e-06,0.00023772843,5.023804e-05,0.040817037,0.111739874,0.00011414811,0.0,0.0,0.0,0.0,0.0,0.0
314032226,313841729,0.004729717,0.0026127584,0.07951958,0.0057702404,0.00015355005,0.0039036325,0.0,0.0,0.0,0.0,0.0,0.0,0.0,0.0050042635,0.0,0.0,0.0,0.0,0.0,0.0,0.00079621247,0.00014160044,0.00079621247,0.00025062737,1.769354,5.9584538e-05,0.041582435,0.0,0.0,0.0,0.0,0.0,0.0
314532249,314341729,0.000119528435,0.009489534,0.05079657,0.0047131614,0.00078563904,0.0039036325,0.0,0.0,0.0,0.0,0.0,0.0,0.0,0.0054658074,0.0,0.0,0.0,0.0,0.0,0.0,0.00049270265,3.037002e-05,0.00049270265,0.00010166233,0.002922463,0.34656355,0.00022663687,0.0,0.0,0.0,0.0,0.0,0.0
315032201,314841730,0.0032031953,0.0073551484,0.049940914,0.004886847,0.0014433415,0.0039036325,0.0,0.0,0.0,0.0,0.0,0.0,0.0,0.0046403348,0.0,0.0,0.0,0.0,0.0,0.0,0.0005487602,9.6261e-05,0.0004450584,0.0005487602,0.92471343,0.004591917,0.0064934036,0.0,0.0,0.0,0.0,0.0,0.0
315532188,315341729,0.00021841092,0.0030218293,0.040383287,0.0048905755,0.001994141,0.0039036325,0.0,0.0,0.0,0.0,0.0,0.0,0.0,0.0063940748,0.0,0.0,0.0,0.0,0.0,0.0,3.973886e-05,7.4106566e-07,3.973886e-05,1.5919031e-05,0.1776312,0.2393871,0.007866007,0.0,0.0,0.0,0.0,0.0,0.0
