timestamp,timestamp_sample,lat,lon,alt,alt_ellipsoid,delta_alt,eph,epv,terrain_alt,lat_lon_reset_counter,alt_reset_counter,terrain_alt_valid,dead_reckoning
200062302,200061731,60.1877329078172,24.832660952043494,-6.548893,11.042349,2.0861626e-07,0.24058177,0.22751144,-6.6453285,3,2,1,0
200072314,200071732,60.18773290747316,24.832660949677923,-6.549491,11.041751,2.0861626e-07,0.24118564,0.22790591,-6.6455936,3,2,1,0
200262277,200261730,60.187732911267325,24.832660893191044,-6.5601783,11.028406,2.0861626e-07,0.24068022,0.22766276,-6.656086,3,2,1,0
200462267,200461729,60.18773291445615,24.832660830493733,-6.571917,11.015093,2.0861626e-07,0.24080215,0.22782236,-6.667841,3,2,1,0
200662533,200661730,60.187732907191915,24.832660812491035,-6.584031,11.0015135,2.0861626e-07,0.24092352,0.22798124,-6.6776066,3,2,1,0
200862265,200861730,60.18773288954673,24.832660736799276,-6.596002,10.988316,2.0861626e-07,0.2410953,0.2281566,-6.688574,3,2,1,0
201062247,201061729,60.187732891885226,24.832660659171054,-6.608388,10.975379,2.0861626e-07,0.24123627,0.22784351,-6.6990848,3,2,1,0
201262251,201261730,60.1877328784612,24.832660625022324,-6.62132,10.960998,2.0861626e-07,0.24137594,0.22800976,-6.7106886,3,2,1,0
201462211,201461729,60.18773284870752,24.832660563989773,-6.633723,10.947916,2.0861626e-07,0.24151427,0.22817142,-6.7215567,3,2,1,0
201662510,201661729,60.18773282601232,24.83266055348489,-6.6453056,10.93606,2.0861626e-07,0.24167436,0.22834031,-6.7286177,3,2,1,0
201862209,201861729,60.18773279891942,24.832660539907135,-6.655759,10.925466,2.0861626e-07,0.24182904,0.22850499,-6.739421,3,2,1,0
202062249,202061729,60.187732796724916,24.832660497368924,-6.6649675,10.916083,2.0861626e-07,0.24193063,0.22864829,-6.745142,3,2,1,0
202262255,202261729,60.187732755104165,24.83266041341601,-6.6746483,10.906128,2.0861626e-07,0.24205081,0.2287958,-6.7574825,3,2,1,0
202462253,202461729,60.18773272941195,24.832660413924938,-6.6853895,10.895331,2.0861626e-07,0.24216451,0.22893839,-6.766901,3,2,1,0
202662541,202661729,60.18773269180055,24.83266041582259,-6.695589,10.885126,2.0861626e-07,0.24225508,0.22907011,-6.777466,3,2,1,0
202862251,202861730,60.18773265092517,24.832660410839175,-6.7054977,10.875164,2.0861626e-07,0.24234508,0.22919746,-6.785389,3,2,1,0
203062214,203061729,60.187732625129215,24.832660346442633,-6.71552,10.865207,2.0861626e-07,0.24242747,0.22932243,-6.7979603,3,2,1,0
203262224,203261730,60.18773258325311,24.832660280696203,-6.7264695,10.854713,2.0861626e-07,0.24251325,0.2294438,-6.807658,3,2,1,0
203462231,203461729,60.18773254026484,24.83266021406996,-6.7379804,10.843435,2.0861626e-07,0.24259554,0.22956336,-6.8189774,3,2,1,0
203662517,203661729,60.1877324835034,24.83266019488235,-6.7501707,10.831328,2.0861626e-07,0.24268118,0.22919933,-6.83064,3,2,1,0
203862265,203861728,60.18773245381066,24.83266016154228,-6.7625294,10.819126,2.0861626e-07,0.24277388,0.22933164,-6.8435388,3,2,1,0
204062208,204061729,60.18773240174763,24.83266016558556,-6.777198,10.804517,2.0861626e-07,0.2428722,0.22946855,-6.8605623,3,2,1,0
204262296,204261730,60.18773235910224,24.832660219721983,-6.792592,10.78934,2.0861626e-07,0.24295966,0.22960566,nan,3,2,0,0
204462247,204461729,60.18773235180316,24.832660315006798,-6.8069267,10.775669,2.0861626e-07,0.24305107,0.2297387,nan,3,2,0,0
204662517,204661729,60.18773234851153,24.83266031851095,-6.8211465,10.762516,2.0861626e-07,0.24315582,0.22987455,nan,3,2,0,0
205062252,205061729,60.18773236177742,24.83266028635903,-6.840889,10.744457,2.0861626e-07,0.24332005,0.23011978,nan,3,2,0,0
205262240,205261729,60.187732353912516,24.832660273291253,-6.84694,10.740731,2.0861626e-07,0.24342342,0.23024514,nan,3,2,0,0
205462215,205461729,60.18773242623576,24.832660132592633,-6.8452845,10.743953,2.0861626e-07,0.24352358,0.23038,nan,3,2,0,0
205662486,205661729,60.1877326335006,24.832659878935274,-6.8299065,10.761276,2.0861626e-07,0.24359609,0.23050371,nan,3,2,0,0
205862225,205861729,60.18773296755861,24.832659544195067,-6.787862,10.805484,2.0861626e-07,0.24367787,0.23062603,nan,3,2,0,0
206062246,206061729,60.18773334422697,24.832659355001002,-6.728918,10.865585,2.0861626e-07,0.24375479,0.23024757,nan,3,2,0,0
206262284,206261729,60.187733776172315,24.832659332250735,-6.659833,10.938201,2.0861626e-07,0.24384494,0.23036,nan,3,2,0,0
206662249,206661729,60.18773424714891,24.832659485102518,-6.4621344,11.141065,2.0861626e-07,0.24403124,0.23057139,nan,3,2,0,0
206862302,206861729,60.187734325513325,24.832659644326686,-6.3383408,11.267778,2.0861626e-07,0.24411504,0.2306685,nan,3,2,0,0
207062250,207061729,60.18773421694041,24.832659748416145,-6.2011185,11.406443,2.0861626e-07,0.24419035,0.2307646,nan,3,2,0,0
207262225,207261729,60.187734045579035,24.832659792564204,-6.0468655,11.565334,2.0861626e-07,0.24429211,0.23086391,nan,3,2,0,0
207462213,207461729,60.18773384249898,24.832659848725587,-5.8791075,11.736466,2.0861626e-07,0.24436602,0.23094992,nan,3,2,0,0
207662217,207661729,60.187733531170785,24.83266000104087,-5.6994314,11.919421,2.0861626e-07,0.24445198,0.23103222,nan,3,2,0,0
207862219,207861729,60.18773320822915,24.832660174930936,-5.505692,12.116596,2.0861626e-07,0.24454188,0.23111491,nan,3,2,0,0
208062233,208061731,60.18773286851479,24.832660323312965,-5.300223,12.323891,2.0861626e-07,0.24465369,0.23120478,nan,3,2,0,0
208262242,208261729,60.18773263822246,24.832660486617204,-5.0843267,12.545409,2.0861626e-07,0.24476649,0.2312925,nan,3,2,0,0
208462251,208461729,60.187732511701704,24.832660545649784,-4.8599925,12.773453,2.0861626e-07,0.2448909,0.23137733,nan,3,2,0,0
208662282,208661729,60.1877323146533,24.83266045213225,-4.6292453,13.008625,2.0861626e-07,0.24498095,0.23095044,nan,3,2,0,0
208862274,208861729,60.18773210181203,24.832660071750013,-4.386852,13.255863,2.0861626e-07,0.24510752,0.2310358,nan,3,2,0,0
209062250,209061729,60.18773165335338,24.83265925607718,-4.132565,13.512556,2.0861626e-07,0.24520153,0.23110613,nan,3,2,0,0
209262214,209261729,60.18773102765975,24.83265770430685,-3.8670273,13.784643,2.0861626e-07,0.24527591,0.2311657,nan,3,2,0,0
209462253,209461729,60.1877302575006,24.832655411401714,-3.591905,14.064125,2.0861626e-07,0.24535295,0.2312295,nan,3,2,0,0
209662220,209661729,60.18772925755541,24.83265240982867,-3.308516,14.3512745,2.0861626e-07,0.24546818,0.2312981,nan,3,2,0,0
209862218,209861729,60.18772802815055,24.832648524628418,-3.0226111,14.6413765,2.0861626e-07,0.24561031,0.23136832,nan,3,2,0,0
210062215,210061729,60.1877265390199,24.832643645210254,-2.7321186,14.934061,2.0861626e-07,0.24569386,0.23142102,nan,3,2,0,0
210262257,210261729,60.1877248112511,24.832637901721693,-2.4353795,15.236305,2.0861626e-07,0.24580409,0.23147596,nan,3,2,0,0
210462461,210461729,60.18772290603947,24.83263141900761,-2.1373081,15.537621,2.0861626e-07,0.24587949,0.23152184,nan,3,2,0,0
210662240,210661729,60.18772078899109,24.83262413329927,-1.8446755,15.833357,2.0861626e-07,0.24601369,0.23158051,nan,3,2,0,0
210862240,210861729,60.18771859218595,24.832616009141223,-1.5516319,16.129171,2.0861626e-07,0.24614915,0.23164007,nan,3,2,0,0
211262246,211261729,60.18771405090454,24.832598005305112,-0.9151192,16.770456,2.0861626e-07,0.24636725,0.23124877,nan,3,2,0,0
211462381,211461729,60.18771176196919,24.83258849561334,-0.58163357,17.10624,2.0861626e-07,0.24647108,0.23130533,nan,3,2,0,0
211662212,211661729,60.18770953316145,24.832578835130132,-0.22742939,17.46214,2.0861626e-07,0.24653059,0.23135221,nan,3,2,0,0
211862215,211861729,60.18770740093839,24.832569182488573,0.13456917,17.826033,2.0861626e-07,0.24662387,0.23140627,nan,3,2,0,0
212062256,212061729,60.187705334675236,24.832559645551694,0.43539238,18.12767,2.0861626e-07,0.24669242,0.23145789,nan,3,2,0,0
212262265,212261729,60.18770323723556,24.83255024277855,0.62756157,18.322021,2.0861626e-07,0.24674079,0.2315118,nan,3,2,0,0
212462424,212461729,60.18770131522351,24.83254120420411,0.7736244,18.469677,2.0861626e-07,0.24680291,0.2315889,nan,3,2,0,0
212662249,212661729,60.187699548630015,24.83253260974432,0.9331856,18.631008,2.0861626e-07,0.24688616,0.2316949,nan,3,2,0,0
213062274,213061729,60.18769663401716,24.832518340499572,1.255599,18.955032,2.0861626e-07,0.24713643,0.23199926,nan,3,2,0,0
213262222,213261729,60.18769568593831,24.83251299420994,1.400486,19.100235,2.0861626e-07,0.24749106,0.23228115,nan,3,2,0,0
213462389,213461729,60.18769502580498,24.832508748423272,1.534647,19.23351,2.0861626e-07,0.24767818,0.23250964,nan,3,2,0,0
213662238,213661729,60.187694627687875,24.83250546545791,1.6649103,19.363121,2.0861626e-07,0.24782407,0.23222323,nan,3,2,0,0
213862246,213861729,60.18769434753864,24.832503022796672,1.7900267,19.486713,2.0861626e-07,0.24801351,0.23247316,nan,3,2,0,0
214062216,214061729,60.1876942499861,24.8325013062709,1.912633,19.608486,2.0861626e-07,0.24821687,0.23274347,nan,3,2,0,0
214262240,214261729,60.187694267901215,24.83250025986635,2.0348759,19.727156,2.0861626e-07,0.24868819,0.2331204,nan,3,2,0,0
214462431,214461729,60.187694409384434,24.83249977603916,2.1594114,19.849537,2.0861626e-07,0.2491399,0.23351148,nan,3,2,0,0
214662282,214661729,60.187694520356914,24.832499672738525,2.2857418,19.972464,2.0861626e-07,0.24991976,0.2340345,nan,3,2,0,0
214862253,214861729,60.18769459405139,24.83249970328995,2.4074917,20.089699,2.0861626e-07,0.2509357,0.23465788,nan,3,2,0,0
215062255,215061729,60.187694767560274,24.832499700615077,2.525095,20.202826,2.0861626e-07,0.25177202,0.23524967,nan,3,2,0,0
215262211,215261729,60.18769496758808,24.832499748123716,2.6392984,20.31255,2.0861626e-07,0.25288734,0.23596235,nan,3,2,0,0
215462382,215461729,60.187695203200605,24.83250011181169,2.7577887,20.426323,2.0861626e-07,0.25446635,0.23685102,nan,3,2,0,0
215662220,215661729,60.18769550186016,24.832500800045676,2.8733969,20.537987,2.0861626e-07,0.25557318,0.23761554,nan,3,2,0,0
215862211,215861729,60.1876958351349,24.83250152762941,2.9851189,20.644918,2.0861626e-07,0.25660878,0.23838346,nan,3,2,0,0
216062214,216061729,60.18769605750142,24.83250230220596,3.0948744,20.752354,2.0861626e-07,0.2581293,0.23932642,nan,3,2,0,0
216262271,216261729,60.18769625741834,24.832502810062223,3.1969767,20.846855,2.0861626e-07,0.25954983,0.23970681,nan,3,2,0,0
216462488,216461729,60.18769637682605,24.832502817997124,3.293252,20.93803,2.0861626e-07,0.2600814,0.24038243,nan,3,2,0,0
216662245,216661729,60.18769635449187,24.832502282469022,3.3733168,21.012543,2.0861626e-07,0.26030967,0.24096298,nan,3,2,0,0
216862244,216861729,60.18769622125325,24.832501404074414,3.446352,21.079683,2.0861626e-07,0.26012945,0.24139449,nan,3,2,0,0
217062276,217061729,60.1876960420441,24.832500580797568,3.5254927,21.155388,2.0861626e-07,0.2599614,0.2418098,nan,3,2,0,0
217262251,217261729,60.18769596721681,24.832500023205505,3.604352,21.223907,2.0861626e-07,0.25971532,0.2421684,nan,3,2,0,0
217462377,217461729,60.1876959702269,24.83249979604202,3.684533,21.297123,2.0861626e-07,0.25951418,0.24247465,nan,3,2,0,0
217662216,217661729,60.187695894920296,24.832499960704894,3.766982,21.373825,2.0861626e-07,0.25933823,0.24273004,nan,3,2,0,0
217862215,217861729,60.18769574002255,24.832499916163204,3.849244,21.451366,2.0861626e-07,0.25916827,0.24292503,nan,3,2,0,0
218062212,218061729,60.187695373611355,24.83249863179801,3.9427738,21.543337,2.0861626e-07,0.25900826,0.24307892,nan,3,2,0,0
218262239,218261729,60.187694630140015,24.832495310968337,4.0334187,21.62926,2.0861626e-07,0.25883707,0.2432015,nan,3,2,0,0
218462446,218461729,60.187693656303345,24.832490503623752,4.1147394,21.707134,2.0861626e-07,0.25869727,0.24330965,nan,3,2,0,0
218662271,218661729,60.18769255226399,24.83248490571072,4.202567,21.790657,2.0861626e-07,0.25854874,0.242818,nan,3,2,0,0
218862272,218861729,60.18769154980178,24.832479586593646,4.3056173,21.88913,2.0861626e-07,0.2585618,0.24294767,nan,3,2,0,0
219062263,219061729,60.18769066082542,24.832474595886744,4.4174166,21.998608,2.0861626e-07,0.2584556,0.24300759,nan,3,2,0,0
219262243,219261729,60.18768971556976,24.83246994823727,4.5018225,22.077492,2.0861626e-07,0.25836304,0.24304925,nan,3,2,0,0
219462379,219461729,60.18768877298593,24.832465541034868,4.574607,22.146923,2.0861626e-07,0.2584239,0.24313916,nan,3,2,0,0
219662206,219661729,60.18768781754573,24.832461177530014,4.638335,22.207764,2.0861626e-07,0.25838643,0.24317566,nan,3,2,0,0
219862271,219861729,60.18768691411801,24.83245673960352,4.709343,22.275988,2.0861626e-07,0.25845733,0.2432455,nan,3,2,0,0
220062220,220061729,60.18768593518174,24.83245227666359,4.777298,22.341106,2.0861626e-07,0.25852,0.24330646,nan,3,2,0,0
220262217,220261729,60.18768492282224,24.832447770458234,4.824918,22.385708,2.0861626e-07,0.25863475,0.2433841,nan,3,2,0,0
220462238,220461729,60.187683997326694,24.832443442629618,4.8759604,22.432571,2.0861626e-07,0.2586102,0.24340339,nan,3,2,0,0
220662254,220661729,60.187683183228835,24.832439483095612,4.933964,22.486849,2.0861626e-07,0.25864747,0.24344127,nan,3,2,0,0
221062256,221061729,60.18768185863826,24.83243288743196,5.055523,22.60191,2.0861626e-07,0.2587355,0.2435089,nan,3,2,0,0
221262289,221261730,60.18768139609374,24.832430619113968,5.110813,22.651434,2.0861626e-07,0.2586994,0.24292728,nan,3,2,0,0
221462248,221461731,60.18768103118189,24.832428871107737,5.1517153,22.688335,2.0861626e-07,0.25866026,0.24291599,nan,3,2,0,0
221662219,221661729,60.18768081097998,24.83242779912191,5.193136,22.725285,2.0861626e-07,0.25860158,0.24288295,nan,3,2,0,0
221862220,221861729,60.18768069664441,24.832427300891837,5.237464,22.765598,2.0861626e-07,0.25852758,0.2428255,nan,3,2,0,0
222062212,222061729,60.18768064602043,24.832426987593788,5.2844667,22.810589,2.0861626e-07,0.25844428,0.24275246,nan,3,2,0,0
222262220,222261729,60.187680657718566,24.832426799590483,5.335273,22.855534,2.0861626e-07,0.2583485,0.24266654,nan,3,2,0,0
222462306,222461729,60.18768064336952,24.832426589626643,5.3784246,22.895817,2.0861626e-07,0.2582582,0.2425688,nan,3,2,0,0
222662251,222661729,60.18768057736339,24.832426264252895,5.4237156,22.93793,2.0861626e-07,0.2581634,0.24246322,nan,3,2,0,0
222862247,222861729,60.187680453486536,24.832425876119853,5.47089,22.982407,2.0861626e-07,0.25806266,0.24234666,nan,3,2,0,0
223062256,223061729,60.18768029067205,24.8324255536278,5.520957,23.03096,2.0861626e-07,0.25795758,0.24222496,nan,3,2,0,0
223262264,223261730,60.18768000537515,24.83242522603035,5.5714226,23.077627,2.0861626e-07,0.25788343,0.24210551,nan,3,2,0,0
223462251,223461729,60.18767961246359,24.832425019623177,5.626664,23.130672,2.0861626e-07,0.25779414,0.2419767,nan,3,2,0,0
223662256,223661729,60.187679212107504,24.832424796913717,5.674652,23.176567,2.0861626e-07,0.25770092,0.24127778,nan,3,2,0,0
223862243,223861729,60.18767898166235,24.83242452124187,5.716647,23.217278,2.0861626e-07,0.25760454,0.24114574,nan,3,2,0,0
224062225,224061729,60.18767888784271,24.83242440276159,5.7585382,23.258633,2.0861626e-07,0.25750476,0.24101014,nan,3,2,0,0
224262218,224261729,60.18767888626454,24.832424372606564,5.8108406,23.309591,2.0861626e-07,0.25740007,0.2408713,nan,3,2,0,0
224462248,224461729,60.18767903050158,24.832424408211857,5.8668537,23.365217,2.0861626e-07,0.2573066,0.24074228,nan,3,2,0,0
224662251,224661729,60.18767921996307,24.83242447705979,5.922846,23.420813,2.0861626e-07,0.25722232,0.24062587,nan,3,2,0,0
224862284,224861729,60.187679301604106,24.832424686781582,5.9781065,23.4761,2.0861626e-07,0.257144,0.24052556,nan,3,2,0,0
225062306,225061729,60.18767943180161,24.832424911321752,6.0325108,23.53038,2.0861626e-07,0.25744915,0.24058592,nan,3,2,0,0
225262486,225261730,60.18767960803841,24.83242520764367,6.0831633,23.58207,2.0861626e-07,0.25739536,0.24051435,nan,3,2,0,0
225462210,225461729,60.18767972299506,24.83242530726827,6.132222,23.632229,2.0861626e-07,0.257327,0.2404372,nan,3,2,0,0
225662212,225661729,60.18767987488263,24.83242546099224,6.182433,23.6838,2.0861626e-07,0.25730333,0.24037555,nan,3,2,0,0
225862205,225861729,60.1876799212694,24.832425574073277,6.2347126,23.737713,2.0861626e-07,0.25728258,0.24031346,nan,3,2,0,0
226062249,226061729,60.1876798138993,24.83242576452698,6.287858,23.791523,2.0861626e-07,0.2572695,0.24026014,nan,3,2,0,0
226262441,226261729,60.18767959379015,24.832426129149322,6.33117,23.837757,2.0861626e-07,0.2572301,0.23964265,nan,3,2,0,0
226462289,226461729,60.18767937071794,24.832426566864875,6.3934793,23.901726,2.0861626e-07,0.25719342,0.23959419,nan,3,2,0,0
226662244,226661729,60.18767917642004,24.8324269195492,6.4409533,23.95102,2.0861626e-07,0.25717264,0.23955587,nan,3,2,0,0
226862241,226861729,60.18767894879786,24.832427324556566,6.484864,23.997158,2.0861626e-07,0.25719705,0.23953746,nan,3,2,0,0
227062249,227061729,60.18767879329609,24.83242761335952,6.523881,24.03727,2.0861626e-07,0.25718743,0.2395038,nan,3,2,0,0
227462250,227461729,60.18767864454429,24.832428000787335,6.61073,24.128288,2.0861626e-07,0.25714526,0.23942168,nan,3,2,0,0
227662252,227661729,60.18767851189847,24.832427935734202,6.6628084,24.181778,2.0861626e-07,0.2571133,0.23936565,nan,3,2,0,0
227862217,227861729,60.18767837042311,24.83242789338367,6.7216673,24.242405,2.0861626e-07,0.25709727,0.23931155,nan,3,2,0,0
228062221,228061729,60.18767819766856,24.832427689493468,6.777528,24.299065,2.0861626e-07,0.2570482,0.2392381,nan,3,2,0,0
228262411,228261729,60.187678148781046,24.832427209825187,6.8223906,24.346355,2.0861626e-07,0.25701106,0.23916331,nan,3,2,0,0
228462256,228461729,60.18767837984212,24.832426642915618,6.878701,24.404404,2.0861626e-07,0.25694117,0.23907776,nan,3,2,0,0
228662275,228661729,60.18767874043956,24.832425905322008,6.91879,24.446342,2.0861626e-07,0.25687182,0.23898791,nan,3,2,0,0
228862285,228861729,60.187679085007275,24.832425151615922,6.9645967,24.494568,2.0861626e-07,0.25679252,0.23834072,nan,3,2,0,0
229062294,229061729,60.18767929085734,24.832424531245152,7.008792,24.539795,2.0861626e-07,0.25670657,0.2382395,nan,3,2,0,0
229262449,229261730,60.18767931115704,24.832423950484493,7.042348,24.577183,2.0861626e-07,0.25662014,0.238136,nan,3,2,0,0
229462216,229461729,60.18767933621715,24.83242357734158,7.0930567,24.630291,2.0861626e-07,0.25652975,0.23802833,nan,3,2,0,0
229662221,229661729,60.18767938807058,24.832423218482422,7.1347303,24.674088,2.0861626e-07,0.25643536,0.23791873,nan,3,2,0,0
229862222,229861729,60.1876794549245,24.832422874493652,7.185647,24.727486,2.0861626e-07,0.256341,0.23780827,nan,3,2,0,0
230062224,230061729,60.18767950426097,24.832422664236056,7.2407217,24.783749,2.0861626e-07,0.25624081,0.23769954,nan,3,2,0,0
230262457,230261729,60.18767953797503,24.832422366894694,7.2818384,24.827812,2.0861626e-07,0.2561504,0.2375918,nan,3,2,0,0
230462213,230461729,60.187679586685455,24.832422177597266,7.332011,24.87999,2.0861626e-07,0.2560505,0.23748009,nan,3,2,0,0
230662252,230661729,60.187679637523004,24.832422053129708,7.3926,24.942493,2.0861626e-07,0.25594833,0.23736876,nan,3,2,0,0
230862255,230861729,60.18767968297471,24.832422065170665,7.469779,25.021317,2.0861626e-07,0.2558376,0.23725659,nan,3,2,0,0
231062245,231061729,60.18767978672608,24.832422201109043,7.532016,25.084225,2.0861626e-07,0.25572813,0.23714495,nan,3,2,0,0
231262520,231261729,60.18767991496806,24.832422382486804,7.5916033,25.146523,2.0861626e-07,0.25561768,0.23649526,nan,3,2,0,0
231462285,231461729,60.18768006397388,24.832422525049278,7.654191,25.21103,2.0861626e-07,0.25550464,0.23638251,nan,3,2,0,0
231662238,231661730,60.18768011686562,24.832422459114913,7.714978,25.273441,2.0861626e-07,0.2553893,0.23627003,nan,3,2,0,0
231862222,231861729,60.18768023590428,24.832422326245496,7.7731657,25.333405,2.0861626e-07,0.2552746,0.23615842,nan,3,2,0,0
232062221,232061729,60.18768038406905,24.832422189925623,7.834283,25.395172,2.0861626e-07,0.2551569,0.23604381,nan,3,2,0,0
232262423,232261729,60.18768048886644,24.832422147435178,7.892188,25.455814,2.0861626e-07,0.25504598,0.23592998,nan,3,2,0,0
232462221,232461729,60.1876805858979,24.83242220576062,7.950732,25.516205,2.0861626e-07,0.25492966,0.23581345,nan,3,2,0,0
232662264,232661729,60.187680683538446,24.832422340284452,8.005675,25.573292,2.0861626e-07,0.25481698,0.23569761,nan,3,2,0,0
232862285,232861729,60.187680711382654,24.83242248229584,8.063022,25.632511,2.0861626e-07,0.25470063,0.23558232,nan,3,2,0,0
233062255,233061729,60.187680605393616,24.832422778050667,8.107577,25.678165,2.0861626e-07,0.25462726,0.23548065,nan,3,2,0,0
233262457,233261729,60.18768033936952,24.832423074824558,8.151942,25.725658,2.0861626e-07,0.25453004,0.23537442,nan,3,2,0,0
233462253,233461729,60.1876799969966,24.832423395353892,8.1999445,25.775791,2.0861626e-07,0.2544097,0.23525923,nan,3,2,0,0
233662220,233661729,60.18767960644485,24.83242384580213,8.236722,25.814987,2.0861626e-07,0.25431517,0.2351526,nan,3,2,0,0
233862270,233861729,60.187679230855174,24.832424389285773,8.282054,25.862312,2.0861626e-07,0.25419903,0.23451638,nan,3,2,0,0
234262389,234261729,60.18767871171053,24.832425014868814,8.385024,25.969112,2.0861626e-07,0.25402883,0.23432446,nan,3,2,0,0
234862263,234861729,60.18767891475296,24.832425021957476,8.520478,26.111538,2.0861626e-07,0.25368845,0.2340122,nan,3,2,0,0
235062253,235061729,60.187679174821355,24.832425116612615,8.55252,26.1451,2.0861626e-07,0.25357756,0.23391046,nan,3,2,0,0
235262250,235261729,60.18767950604998,24.83242531001288,8.585633,26.182259,2.0861626e-07,0.25346473,0.23380755,nan,3,2,0,0
235462298,235461729,60.18767982549417,24.832425397353067,8.620593,26.220062,2.0861626e-07,0.25338164,0.2337145,nan,3,2,0,0
235662218,235661729,60.187680003827104,24.832425248974413,8.670592,26.272907,2.0861626e-07,0.25327715,0.23361835,nan,3,2,0,0
235862230,235861729,60.18768004929505,24.832424771789547,8.727904,26.332836,2.0861626e-07,0.2532208,0.23353629,nan,3,2,0,0
236062217,236061729,60.18768014417257,24.832424193443458,8.774407,26.380688,2.0861626e-07,0.25314298,0.23344843,nan,3,2,0,0
236262231,236261730,60.18768031413402,24.83242366390034,8.831862,26.441738,2.0861626e-07,0.25304183,0.23335305,nan,3,2,0,0
236462273,236461729,60.187680455158095,24.832423175673977,8.872867,26.485474,2.0861626e-07,0.2529388,0.23273966,nan,3,2,0,0
236662251,236661729,60.1876804632795,24.83242285045492,8.925214,26.540009,2.0861626e-07,0.25283495,0.23264262,nan,3,2,0,0
236862261,236861729,60.18768044650326,24.832422628812065,8.984281,26.601116,2.0861626e-07,0.2527249,0.23253922,nan,3,2,0,0
237062251,237061729,60.1876805086704,24.83242245284968,9.033576,26.651726,2.0861626e-07,0.25261778,0.23243192,nan,3,2,0,0
237262256,237261729,60.187680630114635,24.832422241573695,9.09014,26.710999,2.0861626e-07,0.2525277,0.2323318,nan,3,2,0,0
237462251,237461729,60.187680699395614,24.832421830219083,9.147361,26.769886,2.0861626e-07,0.2524061,0.23221947,nan,3,2,0,0
237862224,237861729,60.18768073557047,24.832421192098142,9.259114,26.88398,2.0861626e-07,0.25221208,0.23200543,nan,3,2,0,0
238062258,238061729,60.187680754682916,24.83242093229542,9.311618,26.936977,2.0861626e-07,0.25209415,0.23188823,nan,3,2,0,0
238262214,238261729,60.18768074548409,24.83242072281458,9.366244,26.99316,2.0861626e-07,0.25199804,0.2317752,nan,3,2,0,0
238462215,238461729,60.18768068398557,24.83242070732351,9.421437,27.049122,2.0861626e-07,0.25187457,0.23165464,nan,3,2,0,0
238662253,238661729,60.18768054146427,24.832420884373356,9.482223,27.110306,2.0861626e-07,0.25175157,0.23153616,nan,3,2,0,0
238862285,238861730,60.18768040467669,24.83242119020311,9.530402,27.159164,2.0861626e-07,0.2516285,0.23091394,nan,3,2,0,0
239062540,239061730,60.18768026025638,24.832421729768974,9.570672,27.19957,2.0861626e-07,0.25150663,0.23079477,nan,3,2,0,0
239262251,239261729,60.18768016254004,24.832422323796404,9.616384,27.245022,2.0861626e-07,0.2513871,0.2306789,nan,3,2,0,0
239462253,239461729,60.18768036386802,24.832422787626946,9.57796,27.2067,2.0861626e-07,0.2512902,0.23057209,nan,3,2,0,0
239662219,239661729,60.18768131886828,24.832422905427727,9.472957,27.101578,2.0861626e-07,0.25117442,0.23045905,nan,3,2,0,0
239862243,239861730,60.18768315640046,24.832422955545308,9.365327,26.993801,2.0861626e-07,0.2510421,0.23034862,nan,3,2,0,0
240062440,240061729,60.18768556819577,24.832422882623085,9.280082,26.908169,2.0861626e-07,0.25090185,0.23024057,nan,3,2,0,0
240262213,240261729,60.18768839945096,24.832422745022946,9.211053,26.837181,2.0861626e-07,0.25077215,0.2301305,nan,3,2,0,0
240462218,240461729,60.187691432376155,24.832422523632264,9.148862,26.77304,2.0861626e-07,0.25064513,0.2300209,nan,3,2,0,0
240662299,240661729,60.187694430844715,24.832422241569436,9.093421,26.715187,2.0861626e-07,0.25052518,0.22991319,nan,3,2,0,0
240862252,240861729,60.187697361412155,24.83242184849577,9.044452,26.663994,2.0861626e-07,0.2504089,0.22980857,nan,3,2,0,0
241062450,241061729,60.18770004697855,24.832421568539917,9.004645,26.623058,2.0861626e-07,0.25028723,0.22970475,nan,3,2,0,0
241262251,241261729,60.187702398259205,24.832421348327472,8.972941,26.587711,2.0861626e-07,0.25016654,0.22959998,nan,3,2,0,0
241462279,241461729,60.18770439678659,24.832421174264667,8.946511,26.55915,2.0861626e-07,0.25004053,0.22900517,nan,3,2,0,0
241662282,241661729,60.187706011912205,24.832421055926158,8.92744,26.538105,2.0861626e-07,0.2499092,0.22889979,nan,3,2,0,0
241862214,241861729,60.187707299806426,24.832421012650094,8.919679,26.528568,2.0861626e-07,0.24977376,0.22879589,nan,3,2,0,0
242062385,242061729,60.18770822276009,24.83242106080815,8.918166,26.52629,2.0861626e-07,0.24963047,0.22868589,nan,3,2,0,0
242262220,242261729,60.18770880643013,24.832421219652453,8.916762,26.52246,2.0861626e-07,0.24949008,0.2285774,nan,3,2,0,0
242662255,242661729,60.187709115374616,24.832421419056438,8.914504,26.517181,2.0861626e-07,0.2492078,0.22835094,nan,3,2,0,0
242862258,242861729,60.187708946604296,24.83242141502098,8.918817,26.520065,2.0861626e-07,0.24906343,0.22823305,nan,3,2,0,0
243062440,243061729,60.18770859865375,24.83242137879623,8.927201,26.52758,2.0861626e-07,0.2489252,0.22811899,nan,3,2,0,0
243262297,243261729,60.187707922337516,24.832421412941613,8.941718,26.539913,2.0861626e-07,0.24879274,0.22800386,nan,3,2,0,0
243462252,243461729,60.18770643952716,24.83242142903133,8.973426,26.570202,2.0861626e-07,0.24865907,0.22788748,nan,3,2,0,0
243662215,243661729,60.187703964993915,24.832421435951186,8.990687,26.586124,2.0861626e-07,0.24853772,0.22777313,nan,3,2,0,0
243862235,243861729,60.18770094743958,24.832421364209925,9.002816,26.597095,2.0861626e-07,0.24842031,0.22718021,nan,3,2,0,0
244062433,244061729,60.18769763827036,24.832421407277536,9.0175085,26.611282,2.0861626e-07,0.2483348,0.22707097,nan,3,2,0,0
244262265,244261729,60.18769426456439,24.8324214533301,9.038255,26.63049,2.0861626e-07,0.24826168,0.22696951,nan,3,2,0,0
244462219,244461729,60.187690986519726,24.83242153790377,9.057206,26.648361,2.0861626e-07,0.24816154,0.22685306,nan,3,2,0,0
244662251,244661729,60.18768800762263,24.83242165268188,9.068265,26.658257,2.0861626e-07,0.24805859,0.22673707,nan,3,2,0,0
244862254,244861729,60.187685381811434,24.83242186658243,9.076236,26.665,2.0861626e-07,0.24797073,0.22662748,nan,3,2,0,0
245062461,245061729,60.187683168114496,24.83242212626432,9.080249,26.668247,2.0861626e-07,0.24785371,0.22650926,nan,3,2,0,0
245262260,245261729,60.18768145466488,24.832422399294675,9.082364,26.668407,2.0861626e-07,0.24773112,0.2263894,nan,3,2,0,0
245662205,245661729,60.187679360813384,24.83242282263738,9.082807,26.6666,2.0861626e-07,0.24746466,0.22615023,nan,3,2,0,0
245862277,245861729,60.18767886379529,24.832422889575774,9.080735,26.663433,2.0861626e-07,0.24733007,0.22603206,nan,3,2,0,0
246062390,246061729,60.187678689943226,24.83242282509227,9.077071,26.659374,2.0861626e-07,0.24720234,0.22591737,nan,3,2,0,0
246262223,246261729,60.18767872578861,24.832422567808106,9.076743,26.658192,2.0861626e-07,0.24707983,0.22580753,nan,3,2,0,0
246462260,246461729,60.187678991589756,24.832422291908138,9.0765085,26.657467,2.0861626e-07,0.24696536,0.22523452,nan,3,2,0,0
246662252,246661729,60.187679591474925,24.83242188353385,9.071931,26.65263,2.0861626e-07,0.24686033,0.22512744,nan,3,2,0,0
246862287,246861729,60.18768103808035,24.832421378856903,9.084573,26.664715,2.0861626e-07,0.24675564,0.22502454,nan,3,2,0,0
247062440,247061729,60.187683412330664,24.832420836168307,9.09209,26.672028,2.0861626e-07,0.24665958,0.2249247,nan,3,2,0,0
247462254,247461729,60.187689402096915,24.83241982137288,9.144498,26.724201,2.0861626e-07,0.24652122,0.22474742,nan,3,2,0,0
247662246,247661729,60.18769228673668,24.832419443325193,9.201114,26.780716,2.0861626e-07,0.24644823,0.22466056,nan,3,2,0,0
247862214,247861729,60.18769475880362,24.832419166683103,9.270564,26.850277,2.0861626e-07,0.24638034,0.22457509,nan,3,2,0,0
248062386,248061729,60.187696761394186,24.832419003867937,9.34883,26.928822,2.0861626e-07,0.24632865,0.22449984,nan,3,2,0,0
248262219,248261729,60.18769821316353,24.832418914460863,9.439185,27.020008,2.0861626e-07,0.24624869,0.22441573,nan,3,2,0,0
248462278,248461729,60.187699104216584,24.83241898913416,9.536332,27.117725,2.0861626e-07,0.24616084,0.2243355,nan,3,2,0,0
248662215,248661729,60.18769942989184,24.832419167370738,9.635734,27.217659,2.0861626e-07,0.24606021,0.22425157,nan,3,2,0,0
248862251,248861729,60.18769929536615,24.83241938258023,9.738708,27.321354,2.0861626e-07,0.24596292,0.22417212,nan,3,2,0,0
249262281,249261729,60.187697619400616,24.832419681125057,9.965049,27.549591,2.0861626e-07,0.24577396,0.2235594,nan,3,2,0,0
249462287,249461729,60.18769624619298,24.83241979559743,10.0795355,27.665012,2.0861626e-07,0.2456867,0.22348467,nan,3,2,0,0
249662250,249661729,60.18769463865992,24.832419976988948,10.194394,27.78075,2.0861626e-07,0.24560902,0.22341336,nan,3,2,0,0
249862215,249861729,60.187692813311244,24.832420160642062,10.308751,27.895664,2.0861626e-07,0.24554095,0.22334534,nan,3,2,0,0
250062220,250061729,60.18769077604802,24.832420524433566,10.422704,28.010117,2.0861626e-07,0.24548578,0.22328177,nan,3,2,0,0
250262214,250261729,60.187688712090456,24.832421052042353,10.534743,28.123802,2.0861626e-07,0.2454287,0.22321439,nan,3,2,0,0
250462213,250461729,60.187686770516756,24.83242162108742,10.630687,28.220951,2.0861626e-07,0.24537335,0.2231509,nan,3,2,0,0
250662241,250661729,60.187684925644156,24.832422176416987,10.712426,28.303516,2.0861626e-07,0.24531661,0.22308293,nan,3,2,0,0
250862252,250861729,60.1876832655458,24.83242271249275,10.778237,28.369877,2.0861626e-07,0.24525672,0.2230183,nan,3,2,0,0
251062301,251061729,60.187681898308114,24.832423169504082,10.827586,28.419449,2.0861626e-07,0.24520284,0.22295517,nan,3,2,0,0
251262266,251261729,60.187680820989364,24.832423552246848,10.863549,28.455574,2.0861626e-07,0.24513465,0.22289789,nan,3,2,0,0
251462281,251461729,60.18768014211798,24.832423939937588,10.890803,28.482613,2.0861626e-07,0.24507053,0.22239828,nan,3,2,0,0
251662286,251661729,60.1876796955179,24.832424247011808,10.908015,28.499023,2.0861626e-07,0.24501139,0.22235022,nan,3,2,0,0
251862218,251861729,60.18767948561021,24.83242440375753,10.917443,28.507275,2.0861626e-07,0.24495852,0.22230406,nan,3,2,0,0
252062240,252061729,60.187679463744466,24.83242455748284,10.9220915,28.511387,2.0861626e-07,0.24490659,0.22226459,nan,3,2,0,0
252262216,252261729,60.18767953127669,24.83242459807431,10.928523,28.515305,2.0861626e-07,0.24485357,0.22222666,nan,3,2,0,0
252462222,252461729,60.18767967639278,24.832424611805116,10.9306,28.515137,2.0861626e-07,0.24480826,0.22219521,nan,3,2,0,0
252662249,252661729,60.18767985203282,24.832424540332177,10.924226,28.506214,2.0861626e-07,0.24478377,0.22217123,nan,3,2,0,0
252862258,252861729,60.187680056352896,24.832424415811676,10.914781,28.494072,2.0861626e-07,0.24476285,0.22215259,nan,3,2,0,0
253062252,253061729,60.18768030665198,24.832424214419618,10.90195,28.479698,2.0861626e-07,0.24474901,0.2221405,nan,3,2,0,0
253262258,253261730,60.187680775323926,24.832423895631678,10.826226,28.399673,2.0861626e-07,0.24473718,0.22213283,nan,3,2,0,0
253462250,253461729,60.1876815901943,24.83242343187948,10.691791,28.262417,2.0861626e-07,0.24473345,0.22213025,nan,3,2,0,0
253662292,253661729,60.18768264773529,24.832422981339764,10.54601,28.11444,2.0861626e-07,0.24472375,0.22213839,nan,3,2,0,0
253862378,253861729,60.187683805832556,24.83242251639451,10.400136,27.966011,2.0861626e-07,0.24471664,0.22215104,nan,3,2,0,0
254062250,254061729,60.1876849737115,24.832422066940698,10.255204,27.819992,2.0861626e-07,0.24475211,0.22173838,nan,3,2,0,0
254262245,254261729,60.18768604596608,24.8324218462036,10.10917,27.66948,2.0861626e-07,0.24478514,0.22177352,nan,3,2,0,0
254462220,254461729,60.18768687843198,24.832421713708108,9.962205,27.51933,2.0861626e-07,0.24480717,0.2218082,nan,3,2,0,0
254662217,254661729,60.1876874275659,24.832421708580213,9.810983,27.364662,2.0861626e-07,0.24485707,0.2218571,nan,3,2,0,0
254862435,254861729,60.187687668877324,24.832421830026565,9.659074,27.209347,2.0861626e-07,0.24491383,0.22191548,nan,3,2,0,0
255062280,255061729,60.18768758277303,24.83242207744352,9.518399,27.06709,2.0861626e-07,0.24500385,0.2219896,nan,3,2,0,0
255262261,255261729,60.18768723326441,24.832422419536957,9.4014845,26.944698,2.0861626e-07,0.24507946,0.22206669,nan,3,2,0,0
255462248,255461729,60.187686667393635,24.832422613064995,9.305812,26.84496,2.0861626e-07,0.2451471,0.22214463,nan,3,2,0,0
255662248,255661729,60.18768603030717,24.83242286348794,9.225682,26.760845,2.0861626e-07,0.24528313,0.22225235,nan,3,2,0,0
255862380,255861729,60.18768549520095,24.832423212517764,9.159936,26.69128,2.0861626e-07,0.24543323,0.22236508,nan,3,2,0,0
256062235,256061729,60.18768499715005,24.832423622340407,9.106627,26.633606,2.0861626e-07,0.24562582,0.22249267,nan,3,2,0,0
256262257,256261729,60.187684600302276,24.832423648410007,9.06565,26.588634,2.0861626e-07,0.2460041,0.22269236,nan,3,2,0,0
256462240,256461729,60.1876841472816,24.83242342868539,9.03556,26.554665,2.0861626e-07,0.24640469,0.22245316,nan,3,2,0,0
257262285,257261729,60.18768239239577,24.832422310875124,8.994565,26.501316,2.0861626e-07,0.25089964,0.22436926,nan,3,2,0,0
257462254,257461729,60.18768209232629,24.83242231420694,8.983413,26.487816,2.0861626e-07,0.25092405,0.22450842,nan,3,2,0,0
257662251,257661729,60.187681877774224,24.83242238148817,8.972194,26.47496,2.0861626e-07,0.2509275,0.22462629,nan,3,2,0,0
257862393,257861729,60.1876816765715,24.832422384801962,8.960071,26.461262,2.0861626e-07,0.250921,0.22472903,nan,3,2,0,0
258062216,258061729,60.18768163476088,24.832422541322128,9.016154,26.51653,2.0861626e-07,0.2509021,0.22481942,nan,3,2,0,0
258262209,258261729,60.187681845480206,24.83242298990259,9.123769,26.621384,2.0861626e-07,0.25089428,0.22491768,nan,3,2,0,0
258462212,258461729,60.187682224048494,24.832423760543797,9.216956,26.712753,2.0861626e-07,0.25093,0.22503485,nan,3,2,0,0
258662213,258661729,60.187682612557815,24.832424934275732,9.283839,26.778324,2.0861626e-07,0.2509457,0.22515193,nan,3,2,0,0
258862515,258861729,60.18768308353175,24.832426439453744,9.325873,26.820168,2.0861626e-07,0.2509274,0.2252501,nan,3,2,0,0
259062280,259061729,60.18768353568951,24.832428409050646,9.360316,26.854218,2.0861626e-07,0.25090143,0.22488144,nan,3,2,0,0
259262285,259261729,60.18768402974469,24.832430794762722,9.390252,26.88356,2.0861626e-07,0.250887,0.2249762,nan,3,2,0,0
259462255,259461729,60.18768445344676,24.832433604957647,9.407252,26.900333,2.0861626e-07,0.25086772,0.22506548,nan,3,2,0,0
259662263,259661729,60.18768481623373,24.8324365502125,9.411286,26.904129,2.0861626e-07,0.250815,0.22513445,nan,3,2,0,0
259862436,259861729,60.187685145928256,24.832439731411895,9.404546,26.897476,2.0861626e-07,0.25075406,0.22519107,nan,3,2,0,0
260062213,260061729,60.18768535979599,24.832443055434616,9.394885,26.887459,2.0861626e-07,0.2506943,0.22523756,nan,3,2,0,0
260262222,260261729,60.187685412813714,24.832446339177036,9.371558,26.863972,2.0861626e-07,0.25062713,0.22527647,nan,3,2,0,0
260462217,260461729,60.18768533939932,24.832449547446487,9.337117,26.829536,2.0861626e-07,0.25055665,0.22530735,nan,3,2,0,0
260662220,260661729,60.187685170154005,24.832452637494317,9.30886,26.800613,2.0861626e-07,0.2504864,0.22533223,nan,3,2,0,0
260862435,260861734,60.18768498579642,24.832455594276944,9.277822,26.768795,2.0861626e-07,0.25041392,0.22535005,nan,3,2,0,0
261062311,261061729,60.18768469169696,24.832458583630473,9.2327795,26.72343,2.0861626e-07,0.2503449,0.22536024,nan,3,2,0,0
261262250,261261729,60.18768424343317,24.832461648959118,9.188291,26.677517,2.0861626e-07,0.25027665,0.2253651,nan,3,2,0,0
261862496,261861730,60.18768229944904,24.832470116190017,9.08797,26.574707,2.0861626e-07,0.25006917,0.22488782,nan,3,2,0,0
262062220,262061730,60.18768173248354,24.832472335245765,9.068358,26.554695,2.0861626e-07,0.25003067,0.2248776,nan,3,2,0,0
262262217,262261729,60.18768128315822,24.832474078789534,9.057334,26.54203,2.0861626e-07,0.2499935,0.22486535,nan,3,2,0,0
262462253,262461729,60.1876809145596,24.8324755050838,9.0481615,26.531822,2.0861626e-07,0.24996191,0.22485304,nan,3,2,0,0
262662220,262661732,60.187680672748236,24.832476520454463,9.03575,26.518692,2.0861626e-07,0.24993418,0.2248426,nan,3,2,0,0
262862387,262861729,60.187680508605844,24.832477083171277,9.021302,26.503757,2.0861626e-07,0.24991013,0.22482829,nan,3,2,0,0
263062251,263061729,60.18768044554669,24.832477273659045,9.006515,26.488697,2.0861626e-07,0.24989103,0.2248149,nan,3,2,0,0
263262259,263261730,60.18768054143712,24.83247711815644,8.9940195,26.47575,2.0861626e-07,0.24987322,0.22480117,nan,3,2,0,0
263462253,263461729,60.18768072919973,24.8324767198086,8.988465,26.470078,2.0861626e-07,0.2498651,0.22479178,nan,3,2,0,0
263662252,263661729,60.18768092415331,24.832476009007575,8.985002,26.466507,2.0861626e-07,0.24986368,0.22478476,nan,3,2,0,0
263862259,263861729,60.187681061163374,24.832475291168425,8.988185,26.469547,2.0861626e-07,0.24986826,0.22478156,nan,3,2,0,0
264062288,264061729,60.18768118756875,24.8324747502573,8.990161,26.47153,2.0861626e-07,0.24988215,0.22432259,nan,3,2,0,0
264262255,264261729,60.18768135569013,24.832473831666114,9.020608,26.501293,2.0861626e-07,0.24989945,0.22432505,nan,3,2,0,0
264462219,264461729,60.18768159169407,24.832472135719648,9.057818,26.5378,2.0861626e-07,0.24992263,0.22433634,nan,3,2,0,0
264662214,264661729,60.18768184389341,24.83246948250578,9.08034,26.559532,2.0861626e-07,0.24996126,0.22435021,nan,3,2,0,0
264862216,264861729,60.18768205550736,24.83246630135466,9.095887,26.574203,2.0861626e-07,0.24999852,0.22437064,nan,3,2,0,0
265062283,265061729,60.18768220597344,24.832462540443913,9.09587,26.573776,2.0861626e-07,0.25003076,0.22439533,nan,3,2,0,0
265262297,265261729,60.18768230631687,24.832458238260834,9.08138,26.55774,2.0861626e-07,0.25008738,0.22443113,nan,3,2,0,0
265462243,265461729,60.18768234530683,24.832453564574255,9.065789,26.54108,2.0861626e-07,0.25014922,0.22447062,nan,3,2,0,0
265662255,265661729,60.18768229691801,24.83244876978508,9.059411,26.533436,2.0861626e-07,0.25022712,0.22452,nan,3,2,0,0
265862251,265861729,60.18768214569971,24.832443865969278,9.052127,26.524654,2.0861626e-07,0.25025183,0.22454964,nan,3,2,0,0
266062216,266061729,60.18768195915867,24.83243905311918,9.042766,26.514442,2.0861626e-07,0.2502927,0.22458895,nan,3,2,0,0
266262216,266261729,60.18768175639967,24.832434554775293,9.032355,26.501953,2.0861626e-07,0.25031766,0.22461942,nan,3,2,0,0
266462225,266461729,60.187681601974894,24.832430560475693,9.0253,26.493458,2.0861626e-07,0.2503391,0.22465652,nan,3,2,0,0
266662281,266661729,60.18768141685974,24.832427146712643,9.0187845,26.485832,2.0861626e-07,0.25035414,0.22423501,nan,3,2,0,0
266862237,266861729,60.18768123514626,24.832424328684155,9.016566,26.482311,2.0861626e-07,0.25039572,0.22428177,nan,3,2,0,0
267062254,267061729,60.18768105127675,24.83242205877704,9.014733,26.47985,2.0861626e-07,0.2504704,0.22434543,nan,3,2,0,0
267262244,267261729,60.18768089840849,24.832420383051645,9.01143,26.474392,2.0861626e-07,0.25052232,0.2244017,nan,3,2,0,0
267462245,267461729,60.18768074341851,24.83241922123854,9.008588,26.470367,2.0861626e-07,0.2505745,0.2244602,nan,3,2,0,0
267662496,267661729,60.187680576778206,24.83241857097438,9.007373,26.467918,2.0861626e-07,0.25062904,0.22452202,nan,3,2,0,0
267862246,267861729,60.18768041790488,24.832418367739646,9.005422,26.464848,2.0861626e-07,0.25067833,0.2245827,nan,3,2,0,0
268062227,268061729,60.18768031201418,24.832418506060336,9.001924,26.461018,2.0861626e-07,0.25072247,0.22463787,nan,3,2,0,0
268262218,268261729,60.18768026363859,24.832418880928568,9.002595,26.460728,2.0861626e-07,0.25076374,0.22468935,nan,3,2,0,0
268462208,268461729,60.1876802763374,24.832419469745282,9.005582,26.463112,2.0861626e-07,0.25080463,0.22473863,nan,3,2,0,0
268662382,268661729,60.18768025066901,24.832420175335447,9.003093,26.460934,2.0861626e-07,0.25083554,0.2247813,nan,3,2,0,0
268862207,268861729,60.18768024375778,24.832420954398177,9.001327,26.459484,2.0861626e-07,0.25088435,0.22483037,nan,3,2,0,0
269062282,269061729,60.18768029951688,24.832422308735065,9.008239,26.466732,2.0861626e-07,0.2509325,0.22442245,nan,3,2,0,0
269262321,269261729,60.187680390300095,24.832424495440478,9.021705,26.48082,2.0861626e-07,0.25096008,0.22446464,nan,3,2,0,0
269462294,269461729,60.18768052436217,24.832427408109158,9.026458,26.486706,2.0861626e-07,0.25101763,0.22452022,nan,3,2,0,0
269662424,269661729,60.18768063680306,24.83243057721662,9.026372,26.488152,2.0861626e-07,0.25107905,0.22457376,nan,3,2,0,0
269862245,269861729,60.187680720735266,24.832433758831407,9.02601,26.48948,2.0861626e-07,0.25112212,0.22462411,nan,3,2,0,0
270062217,270061729,60.18768083266536,24.832436749648107,9.024436,26.488552,2.0861626e-07,0.2511757,0.22467689,nan,3,2,0,0
270262249,270261729,60.18768097317206,24.832439427459445,9.022183,26.48848,2.0861626e-07,0.25118038,0.2247091,nan,3,2,0,0
270462231,270461732,60.187681141543486,24.832441772581852,9.020511,26.488167,2.0861626e-07,0.25118402,0.22473866,nan,3,2,0,0
270662391,270661729,60.187681298734574,24.832443728811306,9.020471,26.489655,2.0861626e-07,0.25120735,0.2247754,nan,3,2,0,0
270862213,270861729,60.18768139098738,24.83244537648686,9.019429,26.490318,2.0861626e-07,0.25120822,0.2247986,nan,3,2,0,0
271062246,271061729,60.18768145951232,24.832446633199396,9.021338,26.492973,2.0861626e-07,0.2512094,0.22481896,nan,3,2,0,0
271262252,271261729,60.18768150785999,24.832447429167907,9.027631,26.501247,2.0861626e-07,0.251215,0.2248326,nan,3,2,0,0
271462246,271461729,60.18768158195404,24.832447890291082,9.034339,26.509403,2.0861626e-07,0.25122568,0.22484806,nan,3,2,0,0
271862336,271861729,60.187681656836524,24.83244800121556,9.049603,26.527016,2.0861626e-07,0.2512683,0.22441319,nan,3,2,0,0
272062215,272061729,60.187681794572555,24.832448087073654,9.052114,26.52972,2.0861626e-07,0.25164786,0.22454493,nan,3,2,0,0
272262219,272261729,60.187681946622774,24.832448076721885,9.0542345,26.532803,2.0861626e-07,0.25168726,0.2245674,nan,3,2,0,0
272462213,272461729,60.18768209749772,24.83244789784347,9.058124,26.53762,2.0861626e-07,0.25174463,0.22459462,nan,3,2,0,0
272662383,272661729,60.187682228457504,24.832447559512655,9.064401,26.545155,2.0861626e-07,0.2518116,0.22463016,nan,3,2,0,0
272862221,272861729,60.18768232352429,24.83244725383855,9.070632,26.5531,2.0861626e-07,0.25189227,0.2246722,nan,3,2,0,0
273062227,273061730,60.18768236322491,24.832446995139758,9.074391,26.5579,2.0861626e-07,0.252007,0.2247323,nan,3,2,0,0
273262255,273261729,60.187682372903346,24.832446849384574,9.080157,26.56731,2.0861626e-07,0.2527316,0.22499448,nan,3,2,0,0
273462248,273461729,60.187682410010105,24.832446897394313,9.082849,26.572388,2.0861626e-07,0.2544509,0.22557963,nan,3,2,0,0
273662512,273661729,60.18768243525998,24.832447110842832,9.080312,26.571903,2.0861626e-07,0.2549962,0.2258496,nan,3,2,0,0
273862253,273861729,60.18768238425528,24.832447310249435,9.075158,26.568615,2.0861626e-07,0.25493723,0.22595693,nan,3,2,0,0
274062252,274061729,60.18768229869102,24.83244741132463,9.070115,26.564655,2.0861626e-07,0.2548974,0.22607467,nan,3,2,0,0
274262242,274261729,60.18768218860192,24.832447481382395,9.066775,26.56388,2.0861626e-07,0.25558272,0.22596005,nan,3,2,0,0
274462295,274461729,60.1876821314906,24.832447625326537,9.061404,26.56097,2.0861626e-07,0.25551668,0.22609238,nan,3,2,0,0
274662383,274661729,60.18768207449067,24.83244771549879,9.057261,26.560017,2.0861626e-07,0.25609913,0.22645155,nan,3,2,0,0
274862215,274861729,60.18768207377039,24.832447801530368,9.054595,26.560997,2.0861626e-07,0.2571204,0.22698063,nan,3,2,0,0
275062214,275061729,60.187682108355474,24.8324477775165,9.052737,26.561111,2.0861626e-07,0.25782323,0.22744006,nan,3,2,0,0
275262264,275261729,60.187682181269295,24.83244769119115,9.055142,26.568535,2.0861626e-07,0.25760114,0.22762087,nan,3,2,0,0
275462288,275461730,60.18768223772871,24.83244749927151,9.060124,26.576561,2.0861626e-07,0.25739393,0.2278074,nan,3,2,0,0
275662428,275661729,60.18768223478635,24.832447157870927,9.065099,26.584526,2.0861626e-07,0.25800654,0.22829261,nan,3,2,0,0
275862244,275861729,60.18768213057575,24.83244679777079,9.063554,26.586128,2.0861626e-07,0.25902966,0.2289378,nan,3,2,0,0
276062251,276061729,60.18768201323863,24.83244642197219,9.059617,26.583927,2.0861626e-07,0.2592794,0.22933245,nan,3,2,0,0
276262208,276261729,60.18768193072261,24.832446095822203,9.055915,26.585327,2.0861626e-07,0.26004776,0.2299003,nan,3,2,0,0
276462209,276461729,60.187681870329996,24.832445818924143,9.051305,26.584183,2.0861626e-07,0.26072416,0.23043765,nan,3,2,0,0
276662424,276661729,60.18768185559496,24.83244556888583,9.044986,26.581367,2.0861626e-07,0.26061353,0.230194,nan,3,2,0,0
276862248,276861729,60.18768185724569,24.832445415402184,9.039252,26.579033,2.0861626e-07,0.2608632,0.2305377,nan,3,2,0,0
277062258,277061729,60.18768184616002,24.832445177957194,9.03844,26.579777,2.0861626e-07,0.26051605,0.23063278,nan,3,2,0,0
277262246,277261729,60.18768189453589,24.832444931817196,9.03231,26.579128,2.0861626e-07,0.26020256,0.23070782,nan,3,2,0,0
277462246,277461729,60.18768207298008,24.832444631680115,9.0223055,26.573086,2.0861626e-07,0.25989422,0.23075312,nan,3,2,0,0
277662270,277661729,60.18768229124538,24.832444308564188,9.019496,26.574451,2.0861626e-07,0.25960535,0.23077755,nan,3,2,0,0
277862251,277861729,60.18768253249596,24.832443985379093,9.024241,26.583805,2.0861626e-07,0.25934464,0.23078543,nan,3,2,0,0
278062273,278061729,60.18768276258423,24.83244372700671,9.035329,26.596916,2.0861626e-07,0.25933126,0.23086531,nan,3,2,0,0
278262221,278261729,60.18768292879423,24.83244361340658,9.045308,26.613857,2.0861626e-07,0.25912148,0.23085219,nan,3,2,0,0
278462215,278461729,60.18768298117567,24.8324435298588,9.056258,26.62946,2.0861626e-07,0.25936222,0.2309973,nan,3,2,0,0
278662221,278661729,60.18768303500252,24.832443599915408,9.063554,26.641819,2.0861626e-07,0.25917253,0.23096606,nan,3,2,0,0
278862210,278861729,60.1876830505908,24.832443772185457,9.068082,26.651405,2.0861626e-07,0.2589865,0.23091628,nan,3,2,0,0
279062211,279061729,60.18768308161717,24.832444064471776,9.071628,26.657604,2.0861626e-07,0.25883836,0.23087326,nan,3,2,0,0
279262280,279261729,60.18768306398866,24.83244446654487,9.071713,26.665272,2.0861626e-07,0.25869378,0.23032412,nan,3,2,0,0
279462277,279461729,60.187683026072264,24.832444888698472,9.067445,26.66605,2.0861626e-07,0.2585646,0.23026557,nan,3,2,0,0
279662278,279661729,60.18768302419049,24.832445340196053,9.057242,26.660553,2.0861626e-07,0.2585651,0.23025654,nan,3,2,0,0
279862244,279861729,60.187682963675094,24.832445952975217,9.046979,26.654598,2.0861626e-07,0.2585134,0.23021786,nan,3,2,0,0
280262217,280261729,60.18768283715961,24.832447220402166,9.029782,26.646004,2.0861626e-07,0.25845677,0.23014043,nan,3,2,0,0
280462217,280461729,60.187682788852804,24.832447736264175,9.020078,26.64,2.0861626e-07,0.258444,0.2301022,nan,3,2,0,0
280662249,280661729,60.18768278679079,24.832448108406382,9.008744,26.633156,2.0861626e-07,0.25846055,0.23006809,nan,3,2,0,0
280862206,280861729,60.18768279405979,24.83244830753656,9.000739,26.62894,2.0861626e-07,0.2584911,0.23004036,nan,3,2,0,0
281062215,281061729,60.187682773827724,24.832448381061177,8.995328,26.62532,2.0861626e-07,0.2585865,0.2300351,nan,3,2,0,0
281262246,281261729,60.18768267672326,24.83244826585856,8.996688,26.632507,2.0861626e-07,0.25867325,0.23002195,nan,3,2,0,0
281462246,281461729,60.1876825932083,24.832448061829588,9.000915,26.640396,2.0861626e-07,0.2601584,0.2305257,nan,3,2,0,0
281662243,281661729,60.18768249370668,24.832447961238724,9.001601,26.644196,2.0861626e-07,0.26024958,0.23054041,nan,3,2,0,0
281862271,281861729,60.18768248463688,24.832447931756544,8.996526,26.642445,2.0861626e-07,0.26038074,0.23007463,nan,3,2,0,0
282062250,282061729,60.18768247130433,24.83244779983696,8.991525,26.638931,2.0861626e-07,0.26079592,0.23020993,nan,3,2,0,0
282262264,282261729,60.18768250066614,24.832447696001974,8.986852,26.63866,2.0861626e-07,0.26090634,0.23023033,nan,3,2,0,0
282462393,282461729,60.18768254423081,24.832447598429066,8.984536,26.639618,2.0861626e-07,0.2619364,0.23057471,nan,3,2,0,0
282662203,282661729,60.187682480973635,24.832447326499356,8.986924,26.645588,2.0861626e-07,0.26234722,0.23072113,nan,3,2,0,0
282862207,282861729,60.18768232757598,24.832446818367295,8.995891,26.657753,2.0861626e-07,0.2644799,0.23146166,nan,3,2,0,0
283062217,283061729,60.187682149782056,24.832446235900132,9.000939,26.664188,2.0861626e-07,0.264845,0.23164693,nan,3,2,0,0
283262283,283261731,60.187682008794795,24.83244575683621,9.005744,26.673416,2.0861626e-07,0.26549035,0.2319378,nan,3,2,0,0
283662242,283661729,60.18768207052902,24.832445678515473,9.005902,26.678947,2.0861626e-07,0.26767612,0.23283464,nan,3,2,0,0
283862240,283861729,60.187682358179686,24.832445746051754,8.97639,26.651348,2.0861626e-07,0.26827076,0.23313813,nan,3,2,0,0
284062247,284061729,60.18768271421171,24.83244588593895,8.956611,26.632282,2.0861626e-07,0.2699251,0.23378497,nan,3,2,0,0
284262240,284261729,60.18768311315741,24.83244639460406,8.973102,26.651836,2.0861626e-07,0.27207154,0.23407508,nan,3,2,0,0
284462434,284461729,60.18768358687854,24.832447106797936,9.000968,26.681496,2.0861626e-07,0.27493364,0.2350963,nan,3,2,0,0
284662219,284661729,60.187684197945025,24.832447651464772,9.018825,26.700462,2.0861626e-07,0.278273,0.23626556,nan,3,2,0,0
284862257,284861729,60.18768494015148,24.832447901359984,9.01611,26.698677,2.0861626e-07,0.2875987,0.24035686,nan,3,2,0,0
285262199,285261729,60.187686624081,24.832447917460744,8.998723,26.682842,2.0861626e-07,0.32358053,0.2550365,nan,3,2,0,0
285462429,285461729,60.187687510793744,24.83244768566779,9.015012,26.699467,2.0861626e-07,0.34501714,0.26271886,nan,3,2,0,0
285662245,285661729,60.18768848210979,24.832447135141596,9.028159,26.712826,2.0861626e-07,0.36896583,0.27058774,nan,3,2,0,0
285862269,285861729,60.187689530811845,24.832446213128097,9.03762,26.722206,2.0861626e-07,0.39541814,0.27861348,nan,3,2,0,1
286062258,286061729,60.1876906604593,24.832444989580733,9.042386,26.726883,2.0861626e-07,0.42446953,0.28676075,nan,3,2,0,1
286262245,286261731,60.18769187438415,24.832443443228737,9.035516,26.720875,2.0861626e-07,0.45616832,0.2950005,nan,3,2,0,1
286462381,286461729,60.18769314127755,24.832441623220888,9.022233,26.708385,2.0861626e-07,0.49053857,0.30329615,nan,3,2,0,1
286662209,286661729,60.18769440974866,24.832439609827222,9.009982,26.696774,2.0861626e-07,0.52772605,0.31161898,nan,3,2,0,1
286862236,286861729,60.187695634744934,24.832437571747295,9.002715,26.69027,2.0861626e-07,0.56751645,0.3186158,nan,3,2,0,1
287062247,287061729,60.18769681508291,24.83243558866429,8.996846,26.685673,2.0861626e-07,0.61000824,0.3267869,nan,3,2,0,1
287262220,287261729,60.187697921559334,24.832433684040037,8.988204,26.677948,2.0861626e-07,0.655182,0.33488664,nan,3,2,0,1
287462512,287461729,60.18769896093068,24.83243200395748,8.982341,26.672634,2.0861626e-07,0.7029984,0.34288082,nan,3,2,0,1
287662241,287661729,60.18769992417654,24.832430535064294,8.974828,26.665268,2.0861626e-07,0.7537217,0.35074842,nan,3,2,0,1
287862244,287861731,60.18770082421941,24.832429142214686,8.967021,26.657871,2.0861626e-07,0.80683744,0.3584578,nan,3,2,0,1
288062253,288061729,60.187701659706505,24.832427918409792,8.958665,26.649944,2.0861626e-07,0.86257315,0.36599368,nan,3,2,0,1
288262245,288261729,60.18770243753128,24.832426854678957,8.9474,26.63855,2.0861626e-07,0.9209251,0.37332875,nan,3,2,0,1
288462429,288461729,60.18770313765018,24.83242593261535,8.950826,26.641308,2.0861626e-07,0.98188287,0.38045242,nan,3,2,0,1
288662214,288661729,60.1877037732948,24.832425164691486,8.96593,26.654942,2.0861626e-07,1.0459516,0.3873577,nan,3,2,0,1
288862208,288861729,60.18770430949405,24.832424566726974,8.991124,26.678295,2.0861626e-07,1.1122507,0.3940158,nan,3,2,0,1
289062225,289061729,60.18770473456223,24.832424075772373,9.011851,26.696964,2.0861626e-07,1.1811825,0.40042403,nan,3,2,0,1
289262240,289261729,60.18770506450336,24.832423734403474,9.022559,26.70538,2.0861626e-07,1.2526894,0.4038753,nan,3,2,0,1
289462504,289461729,60.187705351107304,24.832423595701766,9.03506,26.715828,2.0861626e-07,1.3267502,0.4096358,nan,3,2,0,1
289662248,289661729,60.18770562515329,24.832423626561997,9.048255,26.727558,2.0861626e-07,1.4041636,0.41513255,nan,3,2,0,1
289732243,289731729,60.187705722943775,24.832423682541318,9.05343,26.73273,2.0861626e-07,1.4316839,0.41713712,nan,3,2,0,1
307342503,307341729,60.18763720267515,24.83249086380606,-0.48069382,17.669344,-2.9694805,2.6106384,2.538,nan,4,3,0,0
307352259,307351729,60.18763726403225,24.832490943626752,-0.49700928,17.653028,-2.9694805,2.6106417,2.538004,nan,4,3,0,0
307542207,307541729,60.18763864375183,24.83249240860332,-0.80762196,17.336643,-2.9694805,1.5036429,1.1868261,nan,4,3,0,0
307742290,307741729,60.1876400579492,24.832493790515546,-1.073019,17.066248,-2.9694805,1.1620557,0.8888992,nan,4,3,0,0
307942253,307941729,60.18764140099496,24.83249508479247,-1.2654562,16.869648,-2.9694805,0.9801934,0.7412708,nan,4,3,0,0
308142457,308141729,60.18764263191844,24.832496084110016,-1.4700041,16.66169,-2.9694805,0.863053,0.6494583,nan,4,3,0,0
308342430,308341729,60.187643861255076,24.832496975521718,-1.6833334,16.446102,-2.9694805,0.77978945,0.5856032,nan,4,3,0,0
308542255,308541730,60.18764533685118,24.832497551132615,-1.855094,16.271526,-2.9694805,0.7168888,0.5381314,nan,4,3,0,0
308742254,308741729,60.18764761519822,24.832496974517632,-1.9113464,16.212042,-2.9694805,0.66758233,0.50146455,nan,4,3,0,0
308942275,308941729,60.18765090263162,24.832494932980982,-1.8432407,16.276583,-2.9694805,0.62809813,0.46816793,nan,4,3,0,0
309142439,309141729,60.18765492999201,24.832491527546313,-1.664197,16.450489,-2.9694805,0.5959383,0.44517428,nan,4,3,0,0
309342425,309341729,60.18765946735745,24.832486514231153,-1.3914413,16.717472,-2.9694805,0.56957567,0.42623976,nan,4,3,0,0
309542212,309541729,60.187664334597685,24.832479848596698,-1.0435648,17.057468,-2.9694805,0.54782075,0.41049755,nan,4,3,0,0
309742239,309741729,60.187669204331314,24.832471847961934,-0.6250534,17.467396,-2.9694805,0.5286985,0.39701232,nan,4,3,0,0
309942245,309941729,60.18767390971853,24.832463135335868,-0.17221642,17.911238,-2.9694805,0.5115747,0.38532442,nan,4,3,0,0
310142445,310141729,60.18767841657807,24.83245427705707,0.26536655,18.340504,-2.9694805,0.4959561,0.37502798,nan,4,3,0,0
310342692,310341729,60.187682661602715,24.83244579801012,0.7046442,18.774696,-2.9694805,0.48260307,0.36621457,nan,4,3,0,0
310542243,310541729,60.18768670317813,24.832437940625624,1.1364374,19.203663,-2.9694805,0.47093606,0.35859627,nan,4,3,0,0
310742411,310741729,60.18769056892075,24.832430517245513,1.5196867,19.586456,-2.9694805,0.46067315,0.35198897,nan,4,3,0,0
310942205,310941729,60.18769425484734,24.832423807304597,1.8332272,19.901756,-2.9694805,0.45183864,0.34634712,nan,4,3,0,0
311142392,311141729,60.18769764244303,24.832418179703307,2.0668697,20.139412,-2.9694805,0.4443333,0.3415722,nan,4,3,0,0
311342421,311341729,60.187700684116116,24.832413512890724,2.2192326,20.298405,-2.9694805,0.43802825,0.33757138,nan,4,3,0,0
311742273,311741729,60.18770520368953,24.83240685286384,2.1720123,20.275211,-2.9694805,0.46636367,0.34451833,nan,4,3,0,0
311942246,311941729,60.18770652800439,24.832404780761863,1.9712095,20.09269,-2.9694805,0.4843448,0.34940732,nan,4,3,0,0
312142256,312141729,60.18770731394866,24.832403610814737,1.731247,19.873596,-2.9694805,0.50516343,0.3546488,nan,4,3,0,0
312342441,312341729,60.18770776389105,24.83240311851402,1.5036526,19.665134,-2.9694805,0.5291567,0.36019477,nan,4,3,0,1
312542245,312541729,60.18770804756831,24.8324030361545,1.2863913,19.467873,-2.9694805,0.5567253,0.36598653,nan,4,3,0,1
312742222,312741729,60.18770830256799,24.83240314542134,1.0626135,19.263939,-2.9694805,0.5877348,0.37197584,nan,4,3,0,1
312942269,312941729,60.18770853014851,24.832403364526684,0.83183193,19.053154,-2.9694805,0.62218344,0.3781022,nan,4,3,0,1
313142223,313141729,60.18770868098741,24.83240341403631,0.60328007,18.845146,-2.9694805,0.66001767,0.38432086,nan,4,3,0,1
313342384,313341729,60.18770878567519,24.83240325777423,0.38876438,18.650131,-2.9694805,0.7011831,0.39057544,nan,4,3,0,1
313542233,313541729,60.18770883562893,24.832402940127807,0.17890644,18.460228,-2.9694805,0.74597764,0.39682862,nan,4,3,0,1
313742247,313741729,60.187708790157124,24.832402544524097,-0.03656864,18.264748,-2.9694805,0.7937247,0.403029,nan,4,3,0,1
313942278,313941729,60.18770864482814,24.832402231985665,-0.25105953,18.07027,-2.9694805,0.8446393,0.40914977,nan,4,3,0,1
314342487,314341729,60.18770829749248,24.832401961576323,-0.6528406,17.708637,-2.9694805,0.9560688,0.4180203,nan,4,3,0,1
314542256,314541729,60.18770814435286,24.832401893763222,-0.8458853,17.535591,-2.9694805,1.0171106,0.42359647,nan,4,3,0,1
314742217,314741731,60.18770797210019,24.832401769383658,-1.0309362,17.370388,-2.9694805,1.0806204,0.4289822,nan,4,3,0,1
314942228,314941732,60.18770774111253,24.83240151337808,-1.2116165,17.209736,-2.9694805,1.1471245,0.4341507,nan,4,3,0,1
315142229,315141729,60.18770749450669,24.832401155607922,-1.3883085,17.053757,-2.9694805,1.216563,0.4390993,nan,4,3,0,1
315342209,315341729,60.18770725494846,24.832400695020677,-1.5606976,16.900993,-2.9694805,1.2898246,0.4438066,nan,4,3,0,1
315542252,315541729,60.18770697299392,24.832400227740337,-1.7271895,16.754177,-2.9694805,1.3650786,0.4482745,nan,4,3,0,1
315742229,315741729,60.187706622707786,24.83239990666434,-1.8908706,16.610611,-2.9694805,1.4432409,0.4524896,nan,4,3,0,1
316142263,316141729,60.18770578214928,24.832399751617867,-2.2257357,16.31623,-2.9694805,1.6082975,0.46019283,nan,4,3,0,1
316312244,316311731,60.1877054108767,24.83239967514654,-2.366416,16.195065,-2.9694805,1.6826323,0.46138325,nan,4,3,0,1
