timestamp,timestamp_sample,states[0],states[1],states[2],states[3],states[4],states[5],states[6],states[7],states[8],states[9],states[10],states[11],states[12],states[13],states[14],states[15],states[16],states[17],states[18],states[19],states[20],states[21],states[22],states[23],covariances[0],covariances[1],covariances[2],covariances[3],covariances[4],covariances[5],covariances[6],covariances[7],covariances[8],covariances[9],covariances[10],covariances[11],covariances[12],covariances[13],covariances[14],covariances[15],covariances[16],covariances[17],covariances[18],covariances[19],covariances[20],covariances[21],covariances[22],n_states
201032246,200841730,-0.4581712,0.011631228,-0.0130137075,0.8886926,0.00011258357,-0.009672627,0.038025875,0.045592815,-0.9881987,-3.0509734,-0.004621203,-0.0010501962,0.0009829238,-0.0039688945,-0.010619543,-0.035088036,0.14309408,0.025489464,0.497189,0.0018368182,-0.0012877556,-0.006982081,0.0,0.0,3.2709613e-05,3.2673823e-05,0.050879583,0.0062644207,0.006271296,0.004285628,0.030117147,0.030141829,0.053037528,1.8875306e-07,1.8888883e-07,3.957482e-07,0.0019177226,0.0019705205,1.4127187e-05,0.0012120649,4.116147e-05,0.001251029,0.0011605613,0.0011570661,0.0012501243,1.0,1.0,24
202032219,201841729,-0.4584622,0.0116610555,-0.01313388,0.8885403,-0.0019157191,-0.0046587936,0.051633213,0.039538413,-0.9995034,-3.0021656,-0.004621594,-0.0010535804,0.0009654803,-0.003967433,-0.010614245,-0.03503926,0.14314611,0.025496854,0.49717984,0.0018994482,-0.0012869112,-0.0069790385,0.0,0.0,3.273482e-05,3.2695603e-05,0.05086816,0.006270465,0.006278032,0.004293191,0.03028954,0.030314224,0.05341346,1.8876933e-07,1.8889949e-07,3.9568528e-07,0.001917814,0.0019706136,1.411176e-05,0.0012120216,4.1149968e-05,0.0012510306,0.0011604263,0.0011569181,0.0012501212,1.0,1.0,24
203032250,202841729,-0.4588804,0.011718734,-0.013094888,0.8883242,-0.011631243,-0.0048783575,0.06326528,0.018876446,-1.0128536,-2.9519398,-0.0046197595,-0.0010453316,0.0009484061,-0.003973009,-0.010603382,-0.034970973,0.14321227,0.02550681,0.4971692,0.0019350431,-0.0013297899,-0.0069763022,0.0,0.0,3.2751737e-05,3.2706743e-05,0.050853383,0.0062596737,0.0062675285,0.004289633,0.030410813,0.030435357,0.053498417,1.887396e-07,1.8887039e-07,3.956264e-07,0.0019179034,0.0019707044,1.409571e-05,0.0012119551,4.1138017e-05,0.0012510321,0.0011602206,0.001156703,0.0012501184,1.0,1.0,24
204032217,203841729,-0.45911267,0.011697363,-0.0131615205,0.88820356,-0.020177588,-0.005122083,0.07701308,-0.0064329845,-1.0148451,-2.8884149,-0.004614366,-0.0010466356,0.00093190634,-0.0039716805,-0.010592599,-0.034911867,0.14328623,0.025518164,0.49715728,0.0020142472,-0.0013409039,-0.006974095,0.0,0.0,3.2776334e-05,3.2723452e-05,0.050837357,0.00625271,0.006260315,0.0042929845,0.030515421,0.030540062,0.053790577,1.8872294e-07,1.8885902e-07,3.9556977e-07,0.0019179916,0.0019707945,1.40804505e-05,0.001211853,4.1125237e-05,0.0012510336,0.0011599835,0.0011564533,0.0012501157,1.0,1.0,24
205032273,204841729,-0.45967075,0.011027748,-0.013040459,0.8879252,-0.015849588,0.006673312,0.07150974,-0.009497743,-1.0129757,-2.8284817,-0.0046294746,-0.0010566681,0.00091152545,-0.003980958,-0.010593321,-0.0348263,0.14340885,0.025537997,0.49712998,0.002078467,-0.0014470175,-0.0069779237,0.0,0.0,3.281615e-05,3.2754935e-05,0.050818592,0.00626409,0.006271657,0.0042915107,0.030627491,0.030652417,0.053861763,1.8933616e-07,1.8947836e-07,3.982566e-07,0.001918079,0.001970883,1.4065102e-05,0.001211701,4.111122e-05,0.0012510249,0.001159707,0.0011561436,0.0012501046,1.0,1.0,24
206032211,205841729,-0.48602894,-0.014227147,-0.00039168494,0.87382686,0.1984538,-0.07566383,-0.21690811,0.04953456,-1.0408,-2.861256,-0.0046369713,-0.001067741,0.00088259706,-0.0041214474,-0.010527121,-0.03472805,0.14670877,0.026123965,0.49749196,0.0028037415,-0.005467267,-0.007588828,0.0,0.0,3.2719898e-05,3.2712258e-05,0.048606183,0.0065853116,0.0077146017,0.0042978697,0.030740501,0.030772792,0.054153457,1.8996528e-07,1.9015894e-07,4.0129527e-07,0.001918038,0.001970824,1.4050613e-05,0.0011920416,4.0483206e-05,0.0012325571,0.0011349268,0.001116071,0.0012316837,1.0,1.0,24
207032244,206841729,-0.51833063,0.01730017,-0.010423161,0.85494184,-0.021832174,0.029075706,-0.62562513,0.1938536,-1.0551243,-3.2929864,-0.0046441737,-0.0010705052,0.00085897045,-0.0041738856,-0.010509248,-0.034772515,0.14955851,0.026634121,0.49738047,0.0036446464,-0.0087303445,-0.0077405516,0.0,0.0,3.2382886e-05,3.2290063e-05,0.041708384,0.006485575,0.0069358726,0.0043032705,0.030837744,0.030871522,0.054399922,1.9040812e-07,1.9061865e-07,4.045271e-07,0.0019163161,0.0019688804,1.4028525e-05,0.0010993097,3.7542537e-05,0.0012300777,0.0010406137,0.0009743525,0.001229132,1.0,1.0,24
208032241,207841729,-0.49564302,0.0018257496,0.0042351205,0.8685141,-0.20593798,0.075749464,-0.9653284,0.08427151,-1.0362713,-4.127146,-0.0046765427,-0.0010654972,0.00084392994,-0.0046775853,-0.010247795,-0.034800276,0.15271506,0.027200317,0.4975344,0.004363817,-0.012580259,-0.008159059,0.0,0.0,3.2028733e-05,3.1772935e-05,0.03393473,0.006580154,0.0076900804,0.0043056123,0.030960793,0.030994324,0.054370444,1.9076764e-07,1.9138754e-07,4.091367e-07,0.0019107811,0.0019649167,1.39967005e-05,0.0010047349,3.454766e-05,0.0012277218,0.0009205553,0.0008333839,0.0012265419,1.0,1.0,24
209032501,208841729,-0.44806096,0.038459122,0.023265472,0.89287233,-0.1722579,-0.15985568,-1.1582876,-0.05233019,-1.0075033,-5.2608857,-0.004664875,-0.0010840202,0.00083699625,-0.004709731,-0.010405521,-0.034737855,0.14532305,0.02389618,0.49030375,0.0010968727,0.00086613104,-0.013631401,0.0,0.0,3.2260934e-05,3.14606e-05,0.063014895,0.008795688,0.006489406,0.0043177735,0.031112805,0.031136181,0.054565266,1.9176926e-07,1.936569e-07,4.1761638e-07,0.0019060979,0.0019604927,1.3957812e-05,0.0013156245,0.0016115208,0.0013042998,0.0014561493,0.0014691952,0.0013047063,1.0,1.0,24
210032424,209841729,-0.53514534,0.080868326,0.048149034,0.83950067,-0.7384799,-1.1750398,-1.3662943,-0.47696984,-1.6505921,-6.620924,-0.004683315,-0.0010780538,0.0008394466,-0.0048843534,-0.010188226,-0.034605574,0.14415981,0.026763663,0.48989284,-0.0020252778,-0.0016180065,-0.013867587,0.0,0.0,3.2625554e-05,3.335474e-05,0.020228077,0.01982345,0.01037528,0.0043336065,0.031407196,0.031259913,0.054476183,1.9816875e-07,1.9487821e-07,4.274932e-07,0.0019056825,0.0019588326,1.39157255e-05,0.0012053135,0.0013101427,0.0012300553,0.0012282802,0.0012629656,0.0012322644,1.0,1.0,24
212032602,211841729,-0.5617641,0.0068649054,0.0068892543,0.82724035,-1.1610287,-2.6308854,-1.6833714,-2.7847586,-6.008286,-9.758697,-0.00468188,-0.0010574204,0.00084094977,-0.0047708345,-0.009153862,-0.034368817,0.14380921,0.025708498,0.4898689,-0.0028587182,-0.0021402922,-0.014219696,0.0,0.0,3.20797e-05,3.997572e-05,0.0036659846,0.0065228064,0.0060353586,0.0042286078,0.030060116,0.029906271,0.05325993,2.1589156e-07,1.94426e-07,4.4731584e-07,0.001900023,0.001938918,1.3793016e-05,0.00096174434,0.00097381324,0.0011756173,0.0009341785,0.0009774851,0.0011758176,1.0,1.0,24
213032430,212841729,-0.5568875,-0.06314794,-0.043737292,0.8270283,-0.7938596,-2.0046074,-0.64162254,-3.851362,-8.469246,-10.771979,-0.004649485,-0.0010499728,0.00083623355,-0.003156646,-0.0063434346,-0.033842526,0.1432911,0.025490958,0.4900885,-0.0037537816,-0.0023733575,-0.014129369,0.0,0.0,3.2581753e-05,4.1278254e-05,0.0035363392,0.007857309,0.006989989,0.0043429937,0.03160156,0.031516634,0.054728583,2.1593618e-07,1.9659551e-07,4.569452e-07,0.0018860939,0.0019228773,1.3744437e-05,0.00092445454,0.0008861884,0.0010585894,0.00083545165,0.00094596634,0.00105855,1.0,1.0,24
214032367,213841729,-0.5672612,-0.027805211,-0.034182742,0.8223583,-0.109398834,-0.56785727,-0.5566687,-4.218313,-9.704791,-11.417265,-0.004712062,-0.0010156581,0.0008499801,-0.0044316147,-0.0045683966,-0.033550195,0.14242086,0.024929244,0.4915562,-0.0032174862,-0.0015428463,-0.015824685,0.0,0.0,3.2231153e-05,3.376555e-05,0.001901713,0.0119109675,0.007506149,0.004381659,0.031877454,0.031868752,0.055289224,1.9787262e-07,1.9671013e-07,4.6578478e-07,0.0018703418,0.0019096957,1.36964545e-05,0.0008977645,0.00075498555,0.00089685555,0.00071372895,0.0009205525,0.0008975156,1.0,1.0,24
215032653,214841729,-0.5754374,0.016732352,-0.00095691823,0.81767416,0.078592606,-0.016089268,-0.6210692,-4.218652,-9.875642,-12.006749,-0.004695651,-0.0010064825,0.0008489836,-0.00424567,-0.0044035437,-0.03356458,0.14172988,0.025682846,0.49192414,-0.0035305514,-0.0010298347,-0.016429285,0.0,0.0,3.1955864e-05,3.215659e-05,0.0011741113,0.008045943,0.0065032723,0.0043210005,0.031244444,0.031189064,0.054779485,1.9646879e-07,1.958583e-07,4.7531185e-07,0.0018654816,0.0019016006,1.3652449e-05,0.0008681422,0.0007077649,0.00087525556,0.0006786181,0.0008865196,0.00087672524,1.0,1.0,24
216032603,215841729,-0.5607256,0.033799186,0.0014181439,0.82731044,0.14317212,0.15300287,-0.5818703,-4.0607533,-9.774278,-12.591146,-0.0047221105,-0.0010371737,0.0008497823,-0.004755749,-0.005212668,-0.033659965,0.14151356,0.024980227,0.49180284,-0.003623217,-0.0009862586,-0.016348004,0.0,0.0,3.2205542e-05,3.2918724e-05,0.0010596431,0.0071436013,0.006692572,0.004448508,0.03287352,0.032719318,0.056687456,1.9944699e-07,1.9634756e-07,4.849988e-07,0.001863012,0.0018974611,1.3634963e-05,0.0008511186,0.0006930495,0.0008686377,0.0006682842,0.00086701044,0.00087094895,1.0,1.0,24
217032624,216841729,-0.55554354,0.04794343,0.020022191,0.82986253,-0.14348951,-0.24949832,-0.4613995,-4.0198026,-9.781713,-13.039678,-0.0047628703,-0.0010622209,0.0008451898,-0.0055343434,-0.0059591825,-0.03382713,0.14129618,0.024133665,0.49170664,-0.00414334,-0.0010638969,-0.016308745,0.0,0.0,3.1912557e-05,3.2983968e-05,0.001048465,0.0063549564,0.0063960575,0.004449038,0.033365615,0.033228215,0.058149274,1.9902953e-07,1.9526625e-07,4.94446e-07,0.001859859,0.0018955618,1.3610898e-05,0.0008368134,0.00067102956,0.00081819313,0.00063842494,0.00086023094,0.0008208347,1.0,1.0,24
218032604,217841729,-0.56188536,0.10477398,0.057810903,0.818514,-0.08062051,-0.096325986,-0.5307863,-4.12195,-9.891311,-13.460102,-0.0047339927,-0.0010128235,0.0008471441,-0.006754413,-0.006707612,-0.03405592,0.14080264,0.024234695,0.4911504,-0.004437603,-0.00047222516,-0.01604462,0.0,0.0,3.157217e-05,3.274246e-05,0.0010504182,0.0060755834,0.0060743927,0.004382032,0.03311731,0.033037644,0.058497187,1.9757746e-07,1.9434496e-07,5.0395107e-07,0.0018550509,0.0018944616,1.3587259e-05,0.0008272697,0.00065823545,0.00079867506,0.00062380655,0.00085250696,0.00080142217,1.0,1.0,24
219032432,218841729,-0.56002724,0.006599027,-0.0059186216,0.82842684,-0.55416137,-1.4688904,-0.6175895,-4.543867,-10.987378,-13.919281,-0.004762483,-0.0010237572,0.0008339629,-0.007987194,-0.0071623973,-0.034208596,0.14066653,0.023525627,0.491502,-0.0053633056,-0.0008154665,-0.016468387,0.0,0.0,3.1310312e-05,3.1944754e-05,0.00090737717,0.006980315,0.00616904,0.0043745534,0.032958914,0.032939892,0.058749802,1.9413257e-07,1.939776e-07,5.128036e-07,0.0018477986,0.0018934046,1.357327e-05,0.00079889724,0.000580913,0.00065216626,0.0005286422,0.0008406327,0.00065411907,1.0,1.0,24
220032435,219841729,-0.55583787,0.0456181,0.020900484,0.829775,-0.45284098,-1.1585952,-0.4096337,-5.1036687,-12.26793,-14.358522,-0.0047364123,-0.0009531043,0.0008363271,-0.008238426,-0.0077424413,-0.03424606,0.14037776,0.023752812,0.49115002,-0.005438532,-0.00035526042,-0.01616158,0.0,0.0,3.123657e-05,3.1921398e-05,0.0008802233,0.0060340073,0.005959159,0.0043741474,0.032965988,0.03296699,0.05861713,1.9363998e-07,1.9362218e-07,5.2212033e-07,0.0018382322,0.0018918964,1.3566104e-05,0.00079729315,0.00057803426,0.0006487555,0.000526011,0.00083865726,0.00065078126,1.0,1.0,24
221032275,220841729,-0.5542009,0.0041720695,-0.012767352,0.83227456,-0.33752432,-0.88847756,-0.3254738,-5.565388,-13.415028,-14.624791,-0.004737678,-0.0009087299,0.00084102864,-0.009445497,-0.008438688,-0.034368843,0.14013328,0.023790957,0.49085578,-0.005548289,-9.1951464e-05,-0.015965289,0.0,0.0,3.1506734e-05,3.2312964e-05,0.00088592025,0.006427506,0.0064171655,0.0045104697,0.034572486,0.03457519,0.060245633,1.9442037e-07,1.941658e-07,5.3092873e-07,0.001826737,0.0018902462,1.3573693e-05,0.00079406466,0.0005744791,0.0006436979,0.0005221146,0.00083557033,0.00064581214,1.0,1.0,24
222032203,221841729,-0.5750002,0.013794059,-0.01031828,0.817972,-0.021851689,-0.12528299,-0.31369978,-5.761351,-13.8742895,-14.855646,-0.0047107595,-0.0009033079,0.0008346494,-0.012236446,-0.008958689,-0.03457429,0.13998918,0.02415411,0.49092126,-0.0052751265,0.00015855851,-0.016175726,0.0,0.0,3.1167245e-05,3.2096592e-05,0.0008751558,0.0067150504,0.0064324634,0.0044917893,0.03449386,0.03449429,0.060174208,1.9415334e-07,1.9352157e-07,5.3761687e-07,0.0018120697,0.0018884877,1.3576921e-05,0.000789174,0.0005621203,0.0006311332,0.0005116894,0.00082865084,0.0006334639,1.0,1.0,24
223032226,222841729,-0.5613715,0.020238891,1.1001234e-05,0.8273165,-0.08213467,-0.14830598,-0.33105317,-5.757748,-13.947903,-15.096226,-0.004728771,-0.000934647,0.0008414035,-0.014388466,-0.009016482,-0.034763854,0.13981687,0.02395938,0.49095416,-0.005316181,0.00020128537,-0.016260345,0.0,0.0,3.0910076e-05,3.2035987e-05,0.00086474215,0.0063860584,0.0063500605,0.0044417037,0.03436553,0.03436255,0.059634656,1.9443613e-07,1.9309653e-07,5.445675e-07,0.0018000805,0.001887725,1.3582974e-05,0.00077651005,0.0005543389,0.0006290835,0.0005057843,0.00081429776,0.0006316177,1.0,1.0,24
224032189,223841729,-0.58082545,-0.014707418,0.011465229,0.8138146,-0.104383156,-0.08689279,-0.30078042,-5.9442525,-14.028607,-15.34122,-0.0047348626,-0.00095958816,0.0008444636,-0.016375644,-0.009195595,-0.034969993,0.13991308,0.02376768,0.49090034,-0.005289307,1.4486625e-06,-0.016234938,0.0,0.0,3.0768595e-05,3.1990563e-05,0.00087428413,0.006325007,0.0063288114,0.0044062682,0.034243375,0.03424069,0.0593237,1.9433256e-07,1.9271369e-07,5.527499e-07,0.0017913934,0.00188678,1.3584422e-05,0.0007698661,0.000550565,0.0006247046,0.00050201005,0.00080800726,0.00062706444,1.0,1.0,24
225032250,224841729,-0.5417135,0.015211916,-0.0015166448,0.8404243,0.075796716,0.042781323,-0.33969015,-5.9088798,-14.042002,-15.614186,-0.0047545223,-0.00096679083,0.0008496351,-0.0172281,-0.00937829,-0.03509401,0.13987677,0.023701042,0.49094218,-0.0053441403,-4.081451e-05,-0.016280755,0.0,0.0,3.069071e-05,3.1954263e-05,0.0008861482,0.006355929,0.006365358,0.0043886434,0.03417304,0.03417318,0.058783483,1.94242e-07,1.9249558e-07,5.6062987e-07,0.0017853398,0.0018858605,1.3580246e-05,0.0007621066,0.0005465192,0.0006195782,0.00049729133,0.00080113095,0.00062167627,1.0,1.0,24
226032445,225841732,-0.55481887,0.02817763,-0.008157675,0.8314539,0.0094714165,0.01674114,-0.29624927,-5.8441286,-13.988975,-15.876772,-0.004769763,-0.0009919567,0.00084853335,-0.01769507,-0.009346947,-0.035183944,0.13996728,0.023646748,0.4908714,-0.005324842,-0.00021295469,-0.016214512,0.0,0.0,3.0302705e-05,3.1531992e-05,0.0008990017,0.0059083765,0.0059045623,0.004266097,0.03265102,0.032652818,0.057163715,1.9285271e-07,1.912269e-07,5.683182e-07,0.0017794878,0.0018833197,1.3560599e-05,0.00075943023,0.0005453707,0.0006183564,0.0004960854,0.0007983116,0.0006204042,1.0,1.0,24
227032221,226841729,-0.55983293,0.01792351,0.039248098,0.8274814,-0.1028085,0.073147066,-0.2410113,-5.9503813,-13.887426,-16.135687,-0.0047748866,-0.0010081067,0.0008485315,-0.017836872,-0.009355481,-0.035232764,0.14006542,0.023637012,0.4906756,-0.005226914,-0.00033660576,-0.016028944,0.0,0.0,3.063208e-05,3.1819593e-05,0.0009111515,0.006337502,0.006341253,0.0043897936,0.034151144,0.034154814,0.058566887,1.9327744e-07,1.9187e-07,5.7606724e-07,0.0017756231,0.0018806455,1.3552168e-05,0.0007543161,0.0005432932,0.0006140809,0.0004942886,0.0007930832,0.0006158986,1.0,1.0,24
228032187,227841729,-0.5354094,0.017966451,0.03622489,0.8436242,-0.07166839,-0.017081512,-0.3234327,-6.02765,-13.867278,-16.36774,-0.0047830073,-0.001006276,0.0008459329,-0.017873775,-0.00971,-0.035290226,0.13991228,0.023758499,0.4906239,-0.0051705325,-0.00011903546,-0.015933732,0.0,0.0,3.063272e-05,3.1724783e-05,0.00092294085,0.006387268,0.006357832,0.0043920027,0.034119662,0.03412314,0.058177512,1.9269311e-07,1.9160346e-07,5.8322854e-07,0.0017722504,0.0018766876,1.3523209e-05,0.0007427713,0.0005408364,0.00060697505,0.0004921055,0.0007810885,0.00060863385,1.0,1.0,24
229032229,228841729,-0.5746073,0.02790701,0.005000448,0.8179381,0.19140005,-0.1672592,-0.28259808,-5.941619,-14.016768,-16.601202,-0.0047936197,-0.0009870939,0.0008505165,-0.01813904,-0.010640455,-0.03542326,0.13984588,0.024000326,0.4903798,-0.0050052153,4.7859052e-05,-0.015701877,0.0,0.0,3.0548363e-05,3.1575408e-05,0.00093160814,0.0063672075,0.006337152,0.004389618,0.034035247,0.034036662,0.057973627,1.9219804e-07,1.9137052e-07,5.899511e-07,0.0017692598,0.0018715478,1.348664e-05,0.0007253624,0.0005350297,0.00059872307,0.00048818928,0.0007619224,0.0005999927,1.0,1.0,24
230032217,229841728,-0.5698529,0.013405427,0.018136773,0.8214373,0.053476878,-0.041062646,-0.30769357,-5.9038367,-14.144251,-16.830317,-0.004806057,-0.00095347164,0.0008543756,-0.018202616,-0.011135831,-0.035479322,0.13993499,0.024126993,0.49024037,-0.0048882966,9.928475e-06,-0.015580613,0.0,0.0,3.0517007e-05,3.151967e-05,0.00094712124,0.0063221906,0.0063251616,0.0043833475,0.033913158,0.033914633,0.057450723,1.9195008e-07,1.9124204e-07,5.9670396e-07,0.0017676518,0.0018671268,1.3446921e-05,0.0007207997,0.0005318738,0.00059564353,0.00048522145,0.0007571673,0.0005967969,1.0,1.0,24
231032218,230841729,-0.55671275,0.013322279,0.0076940823,0.8305626,0.065645576,0.027438499,-0.40879157,-5.8734045,-14.18336,-17.110985,-0.004819197,-0.00092977955,0.0008584972,-0.018295798,-0.011633609,-0.035549358,0.13982171,0.024200544,0.49021438,-0.0049170544,0.000120850746,-0.015514001,0.0,0.0,3.0446836e-05,3.143681e-05,0.00096530095,0.0063465964,0.006348568,0.0043799654,0.03378156,0.03378413,0.057193227,1.917575e-07,1.9107677e-07,6.029948e-07,0.0017664052,0.0018624438,1.3405451e-05,0.0007188649,0.0005308,0.00059419574,0.0004840624,0.0007553809,0.000595225,1.0,1.0,24
232032198,231841729,-0.5572534,0.00951255,0.0075293668,0.83025396,0.08006915,-0.064652205,-0.308456,-5.8103423,-14.156984,-17.417759,-0.0048150495,-0.0009392758,0.0008629339,-0.01851851,-0.012167998,-0.035638027,0.1398161,0.024201209,0.49018845,-0.004910141,9.754534e-05,-0.015458425,0.0,0.0,3.0373085e-05,3.1359345e-05,0.0009841109,0.0062970375,0.0062958444,0.004368058,0.03363281,0.03363586,0.056926858,1.9158533e-07,1.9093183e-07,6.088306e-07,0.001765201,0.0018579817,1.3365432e-05,0.00071821286,0.0005303182,0.0005930662,0.00048334958,0.000754962,0.00059403654,1.0,1.0,24
233032427,232841729,-0.5639205,0.03033265,-0.009795957,0.82521373,0.004020886,0.044061106,-0.27174878,-5.759577,-14.159096,-17.703903,-0.004812021,-0.0009346848,0.00086851895,-0.018600002,-0.012367711,-0.035669107,0.13974664,0.024180153,0.49026167,-0.004989957,0.00011653293,-0.015515698,0.0,0.0,3.004114e-05,3.1021642e-05,0.0010037477,0.0058258655,0.005836042,0.004232142,0.03198076,0.0319839,0.05490277,1.9054326e-07,1.899383e-07,6.1456706e-07,0.0017641021,0.0018538526,1.3316473e-05,0.0007166359,0.00052869396,0.00059167214,0.000482242,0.0007527411,0.0005926802,1.0,1.0,24
235032280,234841729,-0.57195526,-0.0022490525,0.00951862,0.82022655,0.16426246,0.010270961,-0.14831142,-5.9795566,-14.005011,-18.160572,-0.0047692247,-0.0009545343,0.0008777637,-0.019048745,-0.012693346,-0.035740662,0.13991438,0.0242316,0.49027824,-0.004879025,3.9265928e-05,-0.015540133,0.0,0.0,3.0427798e-05,3.135499e-05,0.001039985,0.0062525445,0.0063133407,0.0043439646,0.033225868,0.03323102,0.055663057,1.9120621e-07,1.9070688e-07,6.2423885e-07,0.0017620315,0.0018461714,1.3254042e-05,0.00070279883,0.00052406715,0.0005839803,0.00047864407,0.0007377891,0.0005848278,1.0,1.0,24
237032233,236841729,-0.55943346,0.0006359683,0.001904371,0.82887286,0.026883505,-0.029104656,-0.21818775,-5.790429,-14.149879,-18.629963,-0.0047475547,-0.0009527419,0.0008811335,-0.018946486,-0.012422978,-0.03568853,0.1401368,0.024213355,0.4900958,-0.0047730077,-0.00021168549,-0.01543132,0.0,0.0,3.0356912e-05,3.1332595e-05,0.001076932,0.006269015,0.006276707,0.0043297475,0.032981593,0.032987785,0.055219106,1.909929e-07,1.9060872e-07,6.323303e-07,0.0017610138,0.0018405435,1.3189331e-05,0.0006937877,0.00051715405,0.0005796173,0.00047277697,0.00072728354,0.00058049336,1.0,1.0,24
238032201,237841729,-0.57743376,0.008582009,-0.007287226,0.81635994,0.025172431,-0.0986711,-0.27518913,-5.750988,-14.222952,-18.891348,-0.0047417204,-0.000964482,0.0008856235,-0.019006083,-0.012508505,-0.03571559,0.14020266,0.024172183,0.49010956,-0.0047726575,-0.00031121544,-0.01545705,0.0,0.0,3.033091e-05,3.1302203e-05,0.0010995885,0.006283378,0.0062928423,0.0043129195,0.032850277,0.03285728,0.05472546,1.9092572e-07,1.9056422e-07,6.36169e-07,0.0017607071,0.0018386465,1.3161712e-05,0.00069156877,0.0005152364,0.0005776306,0.0004713335,0.00072438037,0.00057857786,1.0,1.0,24
239032215,238841729,-0.5783675,-0.011352115,0.005018923,0.815682,-0.06940505,0.11159283,-0.21068563,-5.792748,-14.230393,-19.17015,-0.004730242,-0.0009734348,0.00089193915,-0.01909612,-0.012759252,-0.035789266,0.14013495,0.023897992,0.49022642,-0.0050507197,-0.00038098407,-0.015540934,0.0,0.0,3.0305244e-05,3.1247455e-05,0.0011220829,0.006273946,0.006258261,0.0043089013,0.032698967,0.032706782,0.054454304,1.9087067e-07,1.9051132e-07,6.4020514e-07,0.001760481,0.0018372845,1.3137957e-05,0.00068575225,0.0005092104,0.000575141,0.00046692477,0.0007165573,0.00057624275,1.0,1.0,24
240032216,239841729,-0.5488221,-0.06859296,0.07275982,0.82993704,1.1709499,-0.0019948168,0.535945,-5.522586,-14.1359825,-19.044088,-0.0047266413,-0.00096377626,0.0009120406,-0.019073887,-0.012123726,-0.035663437,0.1392126,0.024035905,0.48982978,-0.005305615,0.0004610672,-0.015081073,0.0,0.0,3.05727e-05,3.156913e-05,0.0011207663,0.0060662106,0.0073001785,0.004317761,0.03253672,0.03255262,0.053960465,1.9135882e-07,1.9090915e-07,6.386748e-07,0.0017598793,0.0018349349,1.3111297e-05,0.0005844306,0.00050500926,0.00050251756,0.00046079553,0.00061743107,0.0005028659,1.0,1.0,24
241032218,240841729,-0.5467606,0.021452356,-0.004630186,0.8370014,1.5542512,-0.092291415,0.14932264,-3.9247134,-14.188871,-18.663239,-0.0047317394,-0.0009788503,0.00090226746,-0.01918838,-0.012713661,-0.035806946,0.13932364,0.023973526,0.49035203,-0.0055068866,0.0003229753,-0.015593779,0.0,0.0,3.1031843e-05,3.165291e-05,0.0010054945,0.0062979152,0.0066653327,0.004323439,0.032373287,0.032427408,0.053719025,1.9156857e-07,1.9200021e-07,6.196984e-07,0.0017593045,0.0018324008,1.3079623e-05,0.00056292594,0.0005031255,0.00048796646,0.00045815777,0.0005971205,0.0004882764,1.0,1.0,24
242032187,241841729,-0.55909604,0.04813112,-0.021794407,0.8274178,0.62404394,-0.011713314,-0.06427563,-2.816217,-14.2342005,-18.540968,-0.0047250343,-0.0009971333,0.00090430287,-0.019396177,-0.014010837,-0.036087506,0.1392695,0.023939895,0.49038523,-0.0055000833,0.00043631883,-0.015650844,0.0,0.0,3.074902e-05,3.1307194e-05,0.0010093614,0.0063449545,0.0066701868,0.0043155337,0.032215018,0.032240637,0.053479243,1.9099495e-07,1.915758e-07,6.187308e-07,0.0017583941,0.0018279589,1.3041031e-05,0.00055206014,0.00050166796,0.0004798662,0.00045764647,0.000585269,0.00048018785,1.0,1.0,24
243032227,242841729,-0.56273824,0.028417252,-0.007631537,0.8261113,-0.10032251,-0.018084005,-0.07077835,-2.6370351,-14.215428,-18.557035,-0.0046884445,-0.0010090965,0.0009249849,-0.019642675,-0.014870447,-0.03625855,0.13938217,0.02373077,0.49049386,-0.005417314,0.0004356824,-0.015784541,0.0,0.0,3.026159e-05,3.0989166e-05,0.0009639946,0.006288248,0.0070239194,0.0043054875,0.032048266,0.03205721,0.052993655,1.90443e-07,1.904764e-07,6.135567e-07,0.0017580896,0.001823779,1.3004019e-05,0.0005423259,0.0005000121,0.00047264725,0.00045699603,0.0005746568,0.00047316187,1.0,1.0,24
244032198,243841729,-0.56134814,0.059786383,-0.03004708,0.8248703,-1.7539097,-0.03427401,-0.108430974,-3.4849513,-14.215067,-18.640503,-0.0046590054,-0.0010284346,0.0009508244,-0.019681854,-0.015503662,-0.036411345,0.13868092,0.02347773,0.4904067,-0.0054850182,0.0012991097,-0.015752055,0.0,0.0,3.0701016e-05,3.0746156e-05,0.00085639657,0.0062625376,0.008560714,0.00432856,0.03189199,0.031940095,0.052738138,1.9030483e-07,1.9114528e-07,6.0252734e-07,0.0017579176,0.0018203778,1.2971708e-05,0.00047784677,0.000497355,0.000423323,0.00045274405,0.00051227945,0.00042378932,1.0,1.0,24
245032261,244841729,-0.5652899,-0.021989731,0.028000055,0.8241237,-1.2935619,0.050301246,-0.06076355,-5.236262,-14.187301,-18.723923,-0.004611438,-0.0010274361,0.0009588216,-0.019840203,-0.01586825,-0.036497064,0.13867535,0.023358077,0.49025157,-0.005491886,0.0013459264,-0.015599792,0.0,0.0,3.1854917e-05,3.0614694e-05,0.00078902394,0.0062241144,0.0062568584,0.0042806054,0.03175115,0.031815324,0.052259788,1.9051501e-07,1.9330474e-07,5.987041e-07,0.0017576509,0.0018186274,1.2949279e-05,0.00047248867,0.00049587287,0.00041891247,0.00045161365,0.00050717127,0.00041932927,1.0,1.0,24
246032194,245841729,-0.55599886,-0.01632439,0.029362867,0.8305038,-0.17859375,-0.003230167,-0.023265725,-5.9449944,-14.133543,-18.71922,-0.0046029757,-0.0010540308,0.000941315,-0.020087272,-0.0161566,-0.03661014,0.1385774,0.02343627,0.4903133,-0.005548586,0.0014278627,-0.015654925,0.0,0.0,3.126473e-05,3.0646188e-05,0.0007844697,0.006213769,0.007081173,0.004274624,0.031603348,0.03162172,0.051992282,1.9049806e-07,1.9225202e-07,5.952597e-07,0.0017573268,0.001817875,1.2935238e-05,0.00046039405,0.00049515394,0.00040925154,0.00045025614,0.0004960188,0.00040939453,1.0,1.0,24
247032274,246841729,-0.5431955,-0.12926336,0.09193402,0.8244864,0.9962962,-0.11988262,-0.1169888,-5.7277994,-14.233748,-18.72047,-0.0046104556,-0.0010387845,0.0009707938,-0.02014654,-0.016386839,-0.036716375,0.1387585,0.023356514,0.4898319,-0.0054407157,0.0012901695,-0.015187616,0.0,0.0,3.0309886e-05,3.0686206e-05,0.00072314835,0.006258332,0.008199949,0.004289486,0.03147288,0.031504314,0.051753942,1.904575e-07,1.9085675e-07,5.801055e-07,0.0017566825,0.0018173304,1.2923915e-05,0.00043091903,0.0004947187,0.0003852804,0.00044658696,0.00047003385,0.00038529103,1.0,1.0,24
248032420,247841729,-0.547784,0.049765356,-0.036426313,0.83434355,1.2141466,-0.034325413,-0.40861526,-4.189228,-14.352606,-18.89552,-0.004649534,-0.0010344865,0.0009955054,-0.019967,-0.016660735,-0.036851,0.13891108,0.023079723,0.4904096,-0.005545254,0.0011915347,-0.015770547,0.0,0.0,2.9700812e-05,3.0116895e-05,0.0006160569,0.0058640116,0.0061641284,0.004152393,0.029879322,0.029933551,0.049877997,1.8952329e-07,1.9043063e-07,5.582725e-07,0.0017552939,0.0018163035,1.2898173e-05,0.00041112842,0.0004921796,0.00036897548,0.0004424803,0.00045219949,0.00036896646,1.0,1.0,24
249032215,248841729,-0.55872214,0.053762294,-0.032801166,0.82696027,-0.26004457,0.06672696,-0.56224346,-3.6776216,-14.332686,-19.373575,-0.004690503,-0.0010453867,0.0009874925,-0.019788124,-0.016714472,-0.036951534,0.1387082,0.023062583,0.49026498,-0.005575481,0.0013573127,-0.015617011,0.0,0.0,2.9709798e-05,3.0198351e-05,0.00062166265,0.0063019497,0.0067738527,0.004270772,0.031263832,0.031296425,0.051167015,1.9023366e-07,1.9090953e-07,5.5857066e-07,0.001754783,0.001814716,1.288722e-05,0.0003949553,0.0004886068,0.00035615958,0.00044186934,0.00043304748,0.00035606322,1.0,1.0,24
250032220,249841729,-0.56502205,0.023769042,-0.01293986,0.8246318,-1.0849031,0.10570035,-0.57541907,-4.417286,-14.289094,-19.95003,-0.0046917787,-0.001020255,0.00096661644,-0.019730188,-0.016899899,-0.036995456,0.13870513,0.023108127,0.49039495,-0.005652719,0.0012989433,-0.015752546,0.0,0.0,2.9671986e-05,3.0095232e-05,0.0005951488,0.0062382757,0.0068692933,0.0042703813,0.031178627,0.031190166,0.050797246,1.9003453e-07,1.9058425e-07,5.5539397e-07,0.00175469,0.0018134051,1.2864368e-05,0.00038873666,0.00048612937,0.00035119028,0.00044110353,0.0004250787,0.0003512575,1.0,1.0,24
251032231,250841729,-0.5675734,-0.01519925,0.03418779,0.82247233,-0.8100235,0.16160229,-0.26399967,-5.4780793,-14.148732,-20.442564,-0.0046699047,-0.0010004892,0.0009613345,-0.019772539,-0.016494326,-0.03689757,0.1385357,0.023147333,0.4903801,-0.0057657477,0.001401035,-0.015705857,0.0,0.0,3.01252e-05,3.0277271e-05,0.0005931442,0.0061265416,0.0061502885,0.004255099,0.031102406,0.031117788,0.050655257,1.9019295e-07,1.9128575e-07,5.5698973e-07,0.0017544423,0.0018122912,1.2843448e-05,0.00038664954,0.00048452383,0.00034954544,0.0004399877,0.0004226843,0.0003495419,1.0,1.0,24
252032187,251841729,-0.5620745,-0.0028906192,0.027612282,0.8266206,-0.06916171,0.050834622,-0.014992235,-5.8961263,-14.051485,-20.567036,-0.004643167,-0.0009913504,0.0009654875,-0.019708171,-0.015928151,-0.03679269,0.13834149,0.023266291,0.49039653,-0.0057689818,0.0016119407,-0.015697189,0.0,0.0,3.0390493e-05,3.072072e-05,0.0006050229,0.006124174,0.0063714674,0.004253604,0.031028884,0.031041851,0.050543156,1.9055939e-07,1.9145351e-07,5.575734e-07,0.0017538853,0.0018104272,1.2824187e-05,0.0003817046,0.00048349606,0.0003455986,0.00043944627,0.00041740184,0.00034543322,1.0,1.0,24
253032226,252841729,-0.5496686,0.012178503,0.01999201,0.8350549,0.104270495,-0.028636836,0.005161902,-5.823691,-14.055991,-20.540491,-0.0046437313,-0.00097047753,0.0009797591,-0.0199205,-0.016143478,-0.03689784,0.13829076,0.02330108,0.490428,-0.005715667,0.0017231281,-0.015698496,0.0,0.0,3.0430123e-05,3.1015996e-05,0.0006069309,0.006192453,0.006352697,0.004252077,0.030985733,0.031006964,0.050280172,1.9065047e-07,1.9125373e-07,5.546811e-07,0.0017536319,0.0018089574,1.280667e-05,0.00038071605,0.0004828149,0.00034470766,0.00043909842,0.00041609592,0.0003445214,1.0,1.0,24
254032376,253841729,-0.56645596,0.007466039,0.00961181,0.82400215,0.64192206,-0.10836274,0.69860643,-5.418187,-14.148534,-20.05412,-0.0046400325,-0.0009786023,0.0009818383,-0.019817645,-0.015829206,-0.036884505,0.13786899,0.023495646,0.49041024,-0.0057450766,0.002146816,-0.015611915,0.0,0.0,3.0486763e-05,3.1213567e-05,0.0006068089,0.0056507457,0.005883136,0.0041421466,0.029514577,0.029536795,0.048845183,1.9005599e-07,1.9070465e-07,5.511793e-07,0.001752734,0.0018062504,1.2777358e-05,0.00037355573,0.00048189724,0.00033883523,0.00043866763,0.00040843282,0.00033864306,1.0,1.0,24
255032419,254841729,-0.5597466,0.06141715,-0.022609815,0.8260754,0.006172321,0.057700958,0.67614233,-4.9655786,-14.191619,-19.283754,-0.004654073,-0.0009860367,0.0009841386,-0.019964676,-0.016396085,-0.037028845,0.13793218,0.023429742,0.49040008,-0.005732187,0.002094008,-0.01559777,0.0,0.0,3.0699128e-05,3.1476986e-05,0.00061767607,0.0057702344,0.005809173,0.004143039,0.029570311,0.029601362,0.048954353,1.9004908e-07,1.907307e-07,5.5104135e-07,0.0017522335,0.0018043198,1.2758781e-05,0.00036847702,0.00048076687,0.00033469836,0.00043794417,0.0004027921,0.00033461014,1.0,1.0,24
256032190,255841729,-0.54341006,0.028792886,0.010079047,0.8389129,-0.38170657,0.07634153,0.14317329,-5.182466,-14.089572,-18.761814,-0.004703443,-0.0010502887,0.0010075396,-0.02121512,-0.017545901,-0.037415184,0.13791107,0.023221126,0.4904813,-0.00566614,0.002132534,-0.015676247,0.0,0.0,3.0777217e-05,3.152673e-05,0.000625326,0.0064166384,0.0065348665,0.004267226,0.031197354,0.031212114,0.050415326,1.9042885e-07,1.9099308e-07,5.51145e-07,0.0017516159,0.0018027629,1.2752647e-05,0.00036528634,0.0004800567,0.00033219703,0.00043672518,0.00040014207,0.0003321038,1.0,1.0,24
258032202,257841729,-0.56803197,0.014480642,0.0092852535,0.82282674,-0.08814122,0.0071089766,-0.09600386,-5.668497,-14.153359,-18.598286,-0.004707829,-0.0010469089,0.0010005702,-0.023337256,-0.019661285,-0.038103804,0.13791417,0.023195677,0.490475,-0.0056592696,0.002145687,-0.01569646,0.0,0.0,3.0053283e-05,3.0747637e-05,0.0006567156,0.006491413,0.006532061,0.0043323347,0.03259048,0.032606333,0.05148418,1.8995904e-07,1.9051194e-07,5.5386886e-07,0.0017482791,0.0017994428,1.2738665e-05,0.0003644662,0.00047833813,0.00033176885,0.0004352452,0.00039910802,0.0003316687,1.0,1.0,24
259032219,258841731,-0.5597087,-0.0040769316,-0.008211125,0.82863873,0.27710906,0.45340812,-0.2842103,-5.5226297,-13.940073,-18.965853,-0.0046557756,-0.0010538689,0.0009734729,-0.024790114,-0.020938095,-0.03844278,0.13796714,0.02309828,0.49042827,-0.0057403143,0.0020839032,-0.015666649,0.0,0.0,2.940774e-05,3.0241514e-05,0.0006654013,0.006376078,0.006416698,0.0043090577,0.03256041,0.03257893,0.051714983,1.8975686e-07,1.9008198e-07,5.5132386e-07,0.0017457246,0.0017980015,1.2732373e-05,0.00036281816,0.0004764868,0.0003296963,0.00043296572,0.00039793112,0.00032953252,1.0,1.0,24
260032232,259841729,-0.5610621,0.029456288,-0.013886682,0.8271329,0.117861174,0.8452717,0.036356144,-5.25713,-13.203055,-19.078796,-0.004662074,-0.0010999946,0.00096989464,-0.0243929,-0.020800743,-0.038389586,0.13801777,0.022953762,0.4904686,-0.005819858,0.0019638003,-0.015679719,0.0,0.0,2.9511652e-05,3.0500749e-05,0.0006697436,0.0062449095,0.0061672917,0.0042912634,0.032490827,0.032505233,0.051882673,1.9054984e-07,1.9044676e-07,5.477732e-07,0.0017442012,0.0017973741,1.2727932e-05,0.00036199123,0.00047397378,0.0003282235,0.0004314195,0.00039613422,0.00032806868,1.0,1.0,24
261032254,260841729,-0.5413583,0.03375414,-0.01307645,0.84001255,-0.15308695,0.7863185,0.17883839,-5.276579,-12.339356,-18.944706,-0.0046503786,-0.0011099569,0.0009640004,-0.023927478,-0.020610787,-0.038299806,0.13809504,0.022929575,0.4905378,-0.005817783,0.001867987,-0.015732659,0.0,0.0,2.9848725e-05,3.093212e-05,0.0006821834,0.0061598923,0.006187874,0.0042688185,0.032394048,0.032405015,0.051726054,1.910918e-07,1.9079667e-07,5.4730145e-07,0.0017424872,0.0017966673,1.2725274e-05,0.00035977803,0.0004733255,0.000326689,0.00043100154,0.00039367875,0.00032654745,1.0,1.0,24
262032194,261841729,-0.5602696,0.0227866,0.025859058,0.827593,-0.3632898,0.6526866,0.061856065,-5.570447,-11.526501,-18.722736,-0.0046399054,-0.001156016,0.0009642309,-0.02393743,-0.020537023,-0.038377333,0.1380688,0.022880314,0.49054596,-0.0057587926,0.0019062163,-0.015735472,0.0,0.0,3.0122768e-05,3.111541e-05,0.0006963321,0.006296626,0.006291094,0.004261808,0.032309942,0.032322295,0.051720146,1.9090744e-07,1.9090669e-07,5.4800023e-07,0.0017413041,0.0017962174,1.2724963e-05,0.00035785045,0.00047140924,0.00032499194,0.00042979541,0.0003910364,0.00032481196,1.0,1.0,24
263032219,262841729,-0.5717457,0.03197713,0.029085128,0.81929153,-0.063325755,0.116478465,0.013393132,-5.786151,-11.149609,-18.6572,-0.004624719,-0.0011599082,0.0009651822,-0.024370551,-0.02067546,-0.03853098,0.13806698,0.022934323,0.49057016,-0.0056486623,0.0019683107,-0.015747963,0.0,0.0,3.0050085e-05,3.091513e-05,0.0007028773,0.006497149,0.0063274116,0.0042570815,0.032273483,0.032290082,0.05147778,1.9030874e-07,1.905633e-07,5.4603424e-07,0.0017406229,0.0017961647,1.272574e-05,0.00035743133,0.0004680768,0.00032320368,0.00042741382,0.00038966633,0.0003229932,1.0,1.0,24
264032180,263841729,-0.5789495,0.027467726,-0.014416307,0.8147731,0.085373424,-0.15402624,-0.055703018,-5.71443,-11.239799,-18.635857,-0.00463696,-0.0011597752,0.0009527104,-0.02460127,-0.020777186,-0.038582817,0.13814677,0.022839505,0.49063912,-0.005707403,0.0018337144,-0.015820969,0.0,0.0,2.9914094e-05,3.0866708e-05,0.0006982867,0.0064121913,0.006344452,0.0042607724,0.032270838,0.032285906,0.0514616,1.9010028e-07,1.9037034e-07,5.4114673e-07,0.0017395682,0.0017959871,1.2730312e-05,0.00035580032,0.00046449804,0.0003221816,0.00042449546,0.00038727277,0.00032200915,1.0,1.0,24
265032228,264841729,-0.54903257,0.051227216,0.04433199,0.8330508,0.08903394,-0.9261946,-0.10248079,-5.6096053,-11.72566,-18.734789,-0.0046460438,-0.0011517947,0.00094871916,-0.024897257,-0.02072013,-0.038664255,0.13805367,0.023124041,0.49063936,-0.005487572,0.0020265675,-0.015820513,0.0,0.0,2.973821e-05,3.092812e-05,0.0006966616,0.0066044093,0.00629075,0.004273128,0.032313198,0.032320645,0.051492207,1.9014993e-07,1.9036777e-07,5.3726984e-07,0.0017380111,0.0017954739,1.2736423e-05,0.000354792,0.0004493515,0.00031466168,0.00041212433,0.00038326782,0.00031448615,1.0,1.0,24
266032376,265841729,-0.55743295,0.027882643,0.0038715254,0.8297446,-0.08983501,-1.3197259,0.009183141,-5.60401,-12.959479,-18.686415,-0.004653086,-0.0011393913,0.00094259455,-0.025165739,-0.020749766,-0.0387387,0.13802698,0.023172276,0.49071014,-0.00544535,0.0020724926,-0.015882645,0.0,0.0,2.9460114e-05,3.1175638e-05,0.0006898106,0.005884928,0.0058028465,0.004153717,0.0308883,0.03088853,0.049915344,1.9003264e-07,1.8972734e-07,5.333372e-07,0.0017366671,0.0017954619,1.27341555e-05,0.0003544087,0.00044525365,0.0003124825,0.00040832686,0.00038262742,0.00031231897,1.0,1.0,24
267032422,266841729,-0.5540067,-0.0029801014,-0.032288242,0.83188045,-0.0712143,-0.6932052,-0.029177606,-5.713633,-14.051613,-18.650095,-0.004647783,-0.0011199755,0.00093609,-0.025548628,-0.02084846,-0.03883666,0.13797493,0.023196407,0.49057674,-0.005405381,0.0021135216,-0.015752766,0.0,0.0,2.9478151e-05,3.1125914e-05,0.00070060825,0.0060024993,0.0058252765,0.0041503743,0.030935168,0.030934615,0.050010093,1.9000942e-07,1.896101e-07,5.3211534e-07,0.0017353495,0.0017954559,1.2740076e-05,0.00035413392,0.00043989654,0.0003096218,0.00040425124,0.00038095802,0.00030945573,1.0,1.0,24
268032242,267841729,-0.5662804,-0.0047243233,-0.022830356,0.8238829,-0.054004878,-0.022456372,-0.036912378,-5.7931995,-14.376993,-18.643063,-0.004644627,-0.0011134614,0.0009382359,-0.025920542,-0.020935109,-0.03893703,0.1379525,0.023211244,0.49055365,-0.0053684623,0.0021228148,-0.015733073,0.0,0.0,2.9791445e-05,3.1019954e-05,0.0006850497,0.0068784193,0.006294578,0.004269062,0.03248396,0.032502368,0.051386606,1.9047128e-07,1.9035403e-07,5.236035e-07,0.0017340503,0.0017954058,1.2753431e-05,0.00035387746,0.00043227643,0.00030599043,0.00039821296,0.0003790577,0.00030582544,1.0,1.0,24
269032434,268841729,-0.55992013,0.003922111,-0.008219465,0.8284966,0.015690228,0.22295846,-0.032913897,-5.8017454,-14.238409,-18.642433,-0.0046530906,-0.0011215655,0.0009508386,-0.026174065,-0.020989986,-0.039036322,0.13797605,0.023094213,0.49054205,-0.0053890217,0.0020739706,-0.015714614,0.0,0.0,2.9426319e-05,3.0546496e-05,0.0006635564,0.006097335,0.0058425236,0.0041484265,0.031040577,0.031051813,0.050045468,1.8979945e-07,1.8935842e-07,5.145891e-07,0.0017331421,0.0017954195,1.274902e-05,0.0003537418,0.00042965973,0.00030495174,0.00039612633,0.00037849956,0.00030478864,1.0,1.0,24
270032377,269841729,-0.79546547,0.00984402,-0.0010702196,0.605918,0.112834364,0.8362102,-0.011931191,-5.7867174,-13.546229,-18.674791,-0.004612599,-0.0011112362,0.0009119551,-0.025982259,-0.020734074,-0.03909317,0.13755749,0.023754181,0.4904889,-0.0051035997,0.0026248582,-0.015649948,0.0,0.0,2.925877e-05,3.065324e-05,0.0006488706,0.006121332,0.0059169726,0.0041529294,0.031107526,0.031104071,0.050158314,1.9089474e-07,1.8949508e-07,5.1004514e-07,0.0017301952,0.00179218,1.2746176e-05,0.0002929329,0.0003316837,0.00029886974,0.00030866143,0.00030608982,0.00029881424,1.0,1.0,24
271032226,270841729,-0.98889035,0.024107456,-0.008818199,0.14641386,0.10649857,0.4016194,-0.040105622,-5.700098,-12.91157,-18.667019,-0.004591225,-0.001089579,0.00091491477,-0.023413219,-0.018836351,-0.0391566,0.13946933,0.02627524,0.4905248,-0.0022004365,0.0017233772,-0.015767025,0.0,0.0,2.7169734e-05,2.849703e-05,0.0006655495,0.0075751245,0.0075731855,0.004262308,0.032632153,0.032630306,0.05147308,1.9330952e-07,1.9154625e-07,5.172437e-07,0.0016481841,0.0017046003,1.2672085e-05,0.000105284045,0.000110712805,0.00029759455,0.000100626814,0.00010318311,0.0002975805,1.0,1.0,24
272032214,271841729,-0.9394082,0.011295398,-0.011654073,-0.3424162,0.07554382,0.05728925,-0.043762486,-5.6426463,-12.758788,-18.695171,-0.0045945547,-0.0010459931,0.00093167345,-0.02059204,-0.0085235415,-0.039032616,0.14050174,0.027622627,0.49068317,-0.00072483724,0.0007515054,-0.015870789,0.0,0.0,1.9883697e-05,2.040776e-05,0.0006796949,0.009604824,0.009399322,0.0042807586,0.032744788,0.032753777,0.051540263,1.9777842e-07,1.9644231e-07,5.228373e-07,0.0013080752,0.001345225,1.2330103e-05,4.17467e-05,4.7479873e-05,0.00029715465,3.8147107e-05,3.9987117e-05,0.00029729877,1.0,1.0,24
273032263,272841729,-0.6760179,0.00035409554,-0.01688037,-0.73669183,0.066896796,-0.011815572,-0.029789085,-5.589207,-12.818801,-18.72391,-0.004593786,-0.0010172296,0.0009478403,-0.007030186,0.0010730386,-0.03910142,0.14077365,0.029202461,0.4907162,0.00019488699,0.0006107147,-0.015922718,0.0,0.0,1.35085775e-05,1.3589611e-05,0.00069494295,0.009433468,0.009301811,0.004274662,0.03288283,0.03288753,0.051425345,2.064173e-07,2.0521911e-07,5.274365e-07,0.0009190246,0.0009357966,1.1941092e-05,2.349532e-05,3.0754705e-05,0.00029703957,2.1996915e-05,2.2830563e-05,0.00029724344,1.0,1.0,24
274032248,273841729,-0.2740549,-0.00048130352,-0.02121159,-0.96147996,-0.006186717,0.09109372,0.026652923,-5.5788484,-12.799386,-18.728445,-0.004596349,-0.0010136077,0.0009596409,-0.0009923396,0.002503626,-0.039150093,0.14110415,0.029945197,0.4906989,0.0006912702,0.00046957663,-0.015964247,0.0,0.0,1.0885051e-05,1.0884791e-05,0.00071191497,0.008511134,0.008472205,0.0043346994,0.033679426,0.03367706,0.052038185,2.1602017e-07,2.148792e-07,5.306344e-07,0.0006898519,0.000698638,1.1716918e-05,1.7255586e-05,2.5207302e-05,0.0002969701,1.6884547e-05,1.6989912e-05,0.0002971731,1.0,1.0,24
275032181,274841729,0.2182493,-0.0029514218,-0.016347626,-0.9757517,0.014216151,0.006075301,0.0093001705,-5.5975895,-12.748252,-18.709915,-0.004591126,-0.0010153479,0.000988251,-0.0008069893,0.0033414157,-0.039116707,0.14139605,0.03001262,0.49062973,0.0008278641,0.00015401997,-0.015902309,0.0,0.0,1.0108081e-05,1.0092437e-05,0.0007255131,0.0073981993,0.0073938086,0.0043846243,0.034295984,0.034294613,0.052796952,2.2536189e-07,2.2432299e-07,5.308696e-07,0.0005752267,0.0005805292,1.1601453e-05,1.5272028e-05,2.3535436e-05,0.00029682595,1.5444248e-05,1.5121241e-05,0.0002970332,1.0,1.0,24
276032423,275841729,0.6629448,-0.011100724,0.0019153969,-0.74858356,0.009681806,-0.06842748,-0.0069396156,-5.6258645,-12.838833,-18.701374,-0.0045933523,-0.0010016763,0.0010618874,-0.0020776982,0.00011786356,-0.0392073,0.14173701,0.029890973,0.49060303,0.00083326723,-6.472777e-05,-0.015905242,0.0,0.0,9.78035e-06,9.765347e-06,0.0007350399,0.0061401315,0.0061485227,0.004296482,0.033144765,0.03314745,0.05203853,2.3451548e-07,2.33561e-07,5.2810884e-07,0.0005272277,0.00053073367,1.1537791e-05,1.49714415e-05,2.323715e-05,0.00029669708,1.5221989e-05,1.4845704e-05,0.00029689056,1.0,1.0,24
277032373,276841729,0.93916297,-0.010714463,0.003573816,-0.34328622,0.046226136,-0.0085640075,-0.0008260204,-5.6277957,-12.911692,-18.674232,-0.004595657,-0.0009937666,0.0011334602,-0.002874382,-0.0007721114,-0.039305102,0.14142026,0.029850934,0.4907316,0.0006228682,0.00023321997,-0.016002301,0.0,0.0,9.800939e-06,9.788451e-06,0.0007478114,0.005899057,0.00592458,0.0043048295,0.033472795,0.033479515,0.05285917,2.43911e-07,2.4300064e-07,5.273672e-07,0.000512974,0.00051556807,1.1512876e-05,1.44221785e-05,2.2503995e-05,0.00029652062,1.4413057e-05,1.4281352e-05,0.00029668337,1.0,1.0,24
278032451,277841729,0.9992835,-0.0011873938,0.017674685,-0.033447552,0.14069119,-0.023821164,-0.057509266,-5.55266,-12.970922,-18.670725,-0.0045959638,-0.0009879752,0.0011700273,-0.003683886,-0.00012263628,-0.039348807,0.14098921,0.029999074,0.4908039,0.0005987874,0.00066577527,-0.016035475,0.0,0.0,9.77705e-06,9.766711e-06,0.0007671222,0.005847384,0.0058801235,0.00423686,0.033180915,0.033189505,0.052746877,2.535289e-07,2.5264103e-07,5.317014e-07,0.00049852236,0.0005011505,1.1482989e-05,1.2850585e-05,2.0736517e-05,0.00029625662,1.2597029e-05,1.2737435e-05,0.00029637394,1.0,1.0,24
279032211,278841729,0.9973364,0.007343961,0.01754736,-0.0704161,0.00875473,0.061062865,-0.0063576526,-5.486517,-12.971242,-18.726936,-0.0045951246,-0.0009895191,0.0011835491,-0.0035268448,0.0002505238,-0.0393286,0.14071892,0.030078566,0.4910492,0.00054231734,0.00093595526,-0.016242728,0.0,0.0,1.0432802e-05,1.0406084e-05,0.0007898539,0.006530907,0.006520897,0.004337173,0.034587733,0.034598507,0.054269835,2.6288703e-07,2.6201704e-07,5.380993e-07,0.00047511054,0.00047788685,1.1458917e-05,1.1516625e-05,1.921096e-05,0.00029541232,1.1089052e-05,1.1440823e-05,0.00029553837,1.0,1.0,24
281032583,280841729,0.9948392,-0.022612188,0.02821885,-0.094802156,0.0013498593,0.039519116,0.034432027,-5.5489283,-12.71941,-18.636013,-0.004618805,-0.0010363377,0.0011921809,-8.88056e-05,-0.0014053126,-0.03954409,0.14051215,0.030288082,0.4911127,0.0004690273,0.0012907446,-0.016311716,0.0,0.0,1.2414542e-05,1.2339193e-05,0.00083718606,0.006077766,0.0060920566,0.0041813343,0.032991566,0.032997116,0.052377388,2.7449545e-07,2.7368748e-07,5.509499e-07,0.0004118135,0.00041519394,1.1372348e-05,9.772065e-06,1.7171351e-05,0.0002946844,9.172014e-06,9.878154e-06,0.00029486962,1.0,1.0,24
282032613,281841729,0.99429846,-0.023378069,0.024981227,-0.10099496,0.010614303,-0.044416245,-0.015659863,-5.561984,-12.743965,-18.6271,-0.0046353852,-0.0010582823,0.0011980557,0.0010998998,-0.00184812,-0.03972292,0.14045814,0.03033547,0.4910832,0.00043698767,0.0013840672,-0.016278112,0.0,0.0,1.379509e-05,1.3686684e-05,0.0008621134,0.006223063,0.0062386133,0.0042260587,0.03354717,0.033553533,0.052679054,2.7523726e-07,2.7454487e-07,5.5783414e-07,0.00039414823,0.0003976769,1.1350765e-05,9.176824e-06,1.6546654e-05,0.00029415602,8.5285965e-06,9.3645795e-06,0.0002943819,1.0,1.0,24
283032387,282841729,0.995339,-0.013578774,0.02773339,-0.091361135,-0.030065598,-0.1386114,-0.0700476,-5.5983515,-12.823013,-18.640392,-0.0046313754,-0.0011051252,0.0012048698,0.0025511277,-0.0015305266,-0.039855108,0.1404364,0.030401612,0.49104944,0.00043558452,0.0014270399,-0.016240379,0.0,0.0,1.5438216e-05,1.5293643e-05,0.0008884525,0.0070362673,0.0070489193,0.0044180886,0.036158297,0.036169637,0.054553457,2.7439623e-07,2.7379662e-07,5.6487033e-07,0.0003845219,0.00038843337,1.1347498e-05,8.705467e-06,1.6041044e-05,0.00029371819,8.0066275e-06,8.959222e-06,0.00029397564,1.0,1.0,24
284032611,283841729,0.9279343,-0.018208578,0.013680206,-0.37204754,0.24162373,0.03704714,0.15270758,-5.605812,-12.868115,-18.63175,-0.004631075,-0.0011750726,0.001189036,0.0040471395,-0.0011495943,-0.03994286,0.14046039,0.030493047,0.49103206,0.0004407334,0.0014024097,-0.0162388,0.0,0.0,1.6280124e-05,1.6117589e-05,0.00091119413,0.0068139373,0.0069254558,0.004404401,0.03590022,0.035913438,0.05408241,2.6838697e-07,2.679777e-07,5.698185e-07,0.00037740762,0.0003820887,1.1330752e-05,8.362821e-06,1.5603635e-05,0.00029357683,7.5916237e-06,8.670201e-06,0.00029383803,1.0,1.0,24
285032365,284841729,0.5559658,-0.042454652,-0.014675454,-0.8299905,0.45338166,0.018493846,0.05648622,-5.2904143,-12.745613,-18.666065,-0.0046530203,-0.001207943,0.0012090004,0.0047734845,-0.00046073316,-0.039943058,0.14051154,0.03049346,0.490897,0.00036912647,0.001300694,-0.016108721,0.0,0.0,1.728502e-05,1.7067363e-05,0.0009114737,0.009900388,0.010205061,0.004967585,0.045485664,0.045611214,0.06091387,2.6795092e-07,2.6754938e-07,5.620827e-07,0.00037176884,0.0003772849,1.1360713e-05,8.337784e-06,1.5500622e-05,0.0002926197,7.4822624e-06,8.533048e-06,0.00029288404,1.0,1.0,24
286032454,285841729,0.5519445,-0.041915674,-0.023590213,-0.83249265,0.59687465,-0.3038141,-0.04067015,-4.779546,-12.839418,-18.689034,-0.0046652546,-0.0012141024,0.0012517879,0.005173641,-4.2983578e-05,-0.03992518,0.14059554,0.030409114,0.49036777,0.0002734172,0.001168904,-0.01558555,0.0,0.0,1.9816302e-05,1.9439767e-05,0.00091288344,0.019164294,0.01997787,0.006044455,0.08749622,0.08883178,0.08128677,2.7635681e-07,2.7579364e-07,5.546857e-07,0.00036802702,0.0003743729,1.143072e-05,8.291629e-06,1.5453725e-05,0.00029039406,7.398331e-06,8.332555e-06,0.00029063708,1.0,1.0,24
287032414,286841729,0.5921434,-0.049122207,0.020877369,-0.804063,0.66072065,-0.55745107,-0.013932706,-4.107742,-13.312466,-18.639107,-0.0046713813,-0.0012223596,0.0012840724,0.0054150005,0.00031054302,-0.03995944,0.14064178,0.030353894,0.4901727,0.00021137402,0.0010740996,-0.015415039,0.0,0.0,2.2985027e-05,2.2359387e-05,0.0009177574,0.03253074,0.034174822,0.0069847633,0.1790092,0.18506697,0.106497884,2.845984e-07,2.840514e-07,5.498353e-07,0.00036472408,0.00037202245,1.1489619e-05,8.262409e-06,1.542244e-05,0.00028805048,7.3316055e-06,8.181356e-06,0.00028829896,1.0,1.0,24
288032441,287841729,0.5789739,-0.042036485,0.030590009,-0.81368697,0.49222752,-0.36937454,0.0037800835,-3.5315573,-13.779958,-18.604038,-0.0046718894,-0.0012329064,0.001311823,0.0054710726,0.0006601594,-0.04000119,0.14067759,0.0303241,0.49045306,0.00017683794,0.0009898782,-0.015726391,0.0,0.0,2.6691292e-05,2.5706244e-05,0.0009254373,0.050061688,0.052822605,0.0076763667,0.35586548,0.3732737,0.13248757,2.9240675e-07,2.9210204e-07,5.470166e-07,0.0003617555,0.0003700631,1.1530641e-05,8.230303e-06,1.5410877e-05,0.0002851883,7.2794005e-06,8.05332e-06,0.0002854621,1.0,1.0,24
289032369,288841729,0.5646882,-0.03852361,0.016616222,-0.8242373,0.28172934,-0.15706298,-0.11841221,-3.140749,-14.034029,-18.641754,-0.004672854,-0.0012449684,0.0013387983,0.0055266167,0.0009744139,-0.039991245,0.14071862,0.030293282,0.49062824,0.00014265222,0.00090949086,-0.015929755,0.0,0.0,3.0751602e-05,2.9287457e-05,0.000934542,0.0728418,0.07715841,0.008204683,0.66460913,0.70529115,0.15866575,2.9958173e-07,2.997871e-07,5.453552e-07,0.000358957,0.000368359,1.155986e-05,8.196881e-06,1.5401632e-05,0.00028358525,7.2325947e-06,7.935502e-06,0.00028386334,1.0,1.0,24
290032392,289841729,0.54685205,-0.03478261,0.012064899,-0.8364194,0.19351879,0.06335864,0.12086059,-2.9611912,-14.075397,-18.734125,-0.004673723,-0.0012573496,0.0013626921,0.0055796704,0.0012222596,-0.039937213,0.14076585,0.03026131,0.490675,0.000109943874,0.0008361874,-0.015974669,0.0,0.0,3.513742e-05,3.3044664e-05,0.0009448889,0.10005573,0.107059985,0.008557624,1.1634881,1.2473977,0.18172768,3.0603317e-07,3.0701463e-07,5.4463777e-07,0.00035634087,0.00036686825,1.15774255e-05,8.163484e-06,1.5392327e-05,0.00028250556,7.188703e-06,7.825206e-06,0.0002827729,1.0,1.0,24
291032200,290841729,0.53201795,-0.006855614,-0.0027759904,-0.8467008,0.71193856,0.3183571,-0.28499475,-2.4870608,-13.814056,-18.964828,-0.0046772333,-0.0012704558,0.0013844994,0.005733248,0.0014620838,-0.039954327,0.14081633,0.030234965,0.4907647,7.661398e-05,0.00076704874,-0.016079115,0.0,0.0,3.975879e-05,3.696077e-05,0.00095789105,0.13491201,0.1493417,0.00868574,1.9249719,2.0948174,0.19718282,3.1182063e-07,3.1399136e-07,5.4534775e-07,0.00035395785,0.00036564944,1.1581704e-05,8.125378e-06,1.5387259e-05,0.000281971,7.1535032e-06,7.729303e-06,0.00028221222,1.0,1.0,24
292032234,291841730,0.5216281,-0.0095069865,-0.0043350393,-0.85310894,0.8425559,0.37229988,-0.29491022,-1.6639239,-13.408205,-19.14143,-0.0046875305,-0.0012829918,0.00140012,0.006034267,0.0016697056,-0.040057644,0.1408687,0.03021265,0.49089655,3.139197e-05,0.0007168708,-0.016212378,0.0,0.0,4.4573844e-05,4.0841853e-05,0.00097073877,0.17370927,0.1968493,0.008799207,3.0252953,3.3551981,0.21076354,3.165052e-07,3.2022993e-07,5.459951e-07,0.00035160469,0.00036451477,1.1586802e-05,8.083466e-06,1.5383343e-05,0.00028160703,7.117491e-06,7.632387e-06,0.00028182758,1.0,1.0,24
293032222,292841729,0.5485661,-0.004837014,-0.0024343093,-0.83608973,1.1352148,0.12747917,-0.26483712,-0.6409292,-13.050171,-19.312723,-0.004696769,-0.0012988147,0.0014172024,0.0062891054,0.0018831885,-0.040132333,0.14091979,0.030188644,0.4909921,-1.0612649e-05,0.00066516735,-0.016306678,0.0,0.0,4.9678027e-05,4.481747e-05,0.0009850869,0.21697828,0.25443566,0.008781789,4.5544477,5.157397,0.21653543,3.2034364e-07,3.2588125e-07,5.473351e-07,0.0003495216,0.00036358213,1.15845505e-05,8.05113e-06,1.5378819e-05,0.00028093986,7.0875326e-06,7.552979e-06,0.00028114405,1.0,1.0,24
294032232,293841729,0.53349113,0.006070873,0.007239562,-0.84575295,1.3217663,-0.11080623,-0.27458277,0.6236158,-13.020079,-19.519978,-0.0047076377,-0.0013096103,0.0014249912,0.0065133977,0.001974011,-0.0401715,0.14094856,0.030179335,0.4910838,-3.945469e-05,0.00064658315,-0.016399521,0.0,0.0,5.5105098e-05,4.8874637e-05,0.0010013352,0.26578212,0.32096013,0.008847491,6.608776,7.6553283,0.22291993,3.2334327e-07,3.3087852e-07,5.494874e-07,0.00034774773,0.0003628632,1.1587769e-05,8.030649e-06,1.537597e-05,0.00028055414,7.0649885e-06,7.49394e-06,0.0002807481,1.0,1.0,24
295032197,294841732,0.5505366,0.005576024,0.0030679798,-0.8347869,1.5455055,0.12710422,-0.2905647,2.116546,-12.946694,-19.601957,-0.004718951,-0.0013207586,0.0014312539,0.006699539,0.0021487635,-0.040344138,0.14097102,0.030174633,0.49122205,-6.0684608e-05,0.00062776654,-0.016542811,0.0,0.0,6.0714294e-05,5.286773e-05,0.0010193869,0.32132754,0.39884177,0.008920413,9.296082,11.027146,0.22731015,3.2549886e-07,3.3522474e-07,5.5233807e-07,0.0003462001,0.00036230104,1.1591345e-05,8.0108675e-06,1.537644e-05,0.00027986898,7.046777e-06,7.444185e-06,0.00028006415,1.0,1.0,24
296032228,295841729,0.546863,-0.0051676305,0.0075410325,-0.83717227,1.6816413,0.22241983,-0.29573408,3.8280568,-12.692251,-19.690865,-0.0047312207,-0.0013322711,0.001436535,0.0068662213,0.0023321297,-0.040558487,0.14098646,0.030170832,0.49131137,-7.724177e-05,0.0006118388,-0.016639804,0.0,0.0,6.6490604e-05,5.676993e-05,0.0010389902,0.3819817,0.48675773,0.008911736,12.736895,15.4797125,0.22629826,3.26864e-07,3.3884012e-07,5.5572616e-07,0.0003448855,0.00036186716,1.1589876e-05,7.999176e-06,1.537627e-05,0.00027944476,7.0322617e-06,7.405317e-06,0.00027964526,1.0,1.0,24
297032186,296841729,0.56425613,-0.0945675,0.17400798,-0.8014945,-0.72451866,1.2316844,-0.40004036,4.588595,-12.153289,-19.894884,-0.004732251,-0.0013211638,0.0014248625,0.0068166708,0.0022888465,-0.040697135,0.14092927,0.030211413,0.49149865,-4.7027283e-05,0.00067116815,-0.016881179,0.0,0.0,7.3151845e-05,6.080736e-05,0.0010602972,0.45648262,0.5439194,0.009228241,17.15413,21.123213,0.22858275,3.2837775e-07,3.4170176e-07,5.6096485e-07,0.00034397302,0.00036159734,1.1594664e-05,7.949773e-06,1.5357626e-05,0.0002507219,7.0164842e-06,7.357026e-06,0.0002507924,1.0,1.0,24
299032224,298841729,0.55864185,-0.09518022,-0.0018330398,-0.82392764,-2.89936,0.20602407,0.13511838,0.25693214,-10.485038,-20.572065,-0.0047312295,-0.001314825,0.0014425125,0.0066631697,0.002003243,-0.04036736,0.14099528,0.029913113,0.49214306,-0.00014521256,0.0005981708,-0.017566515,0.0,0.0,8.601481e-05,6.877361e-05,0.0010767634,0.6000479,0.71410733,0.0098536415,29.307327,36.163483,0.2293426,3.2967083e-07,3.438049e-07,5.704258e-07,0.00034239743,0.0003608327,1.1602993e-05,7.87823e-06,1.4350243e-05,0.00022912804,6.8758404e-06,7.247883e-06,0.00022893923,1.0,1.0,24
300032276,299841729,0.5449656,-0.10872157,-0.0092959525,-0.8313277,-3.395239,-0.59131587,0.3271055,-2.8567128,-10.671816,-20.253666,-0.004735268,-0.0013103962,0.0014446633,0.006584048,0.002015966,-0.040435735,0.1410212,0.029739669,0.49214077,-0.00020758215,0.0005693846,-0.017586853,0.0,0.0,9.245914e-05,7.243679e-05,0.0010856648,0.6783274,0.8234018,0.010094797,37.205864,46.220715,0.23240335,3.2904006e-07,3.4426958e-07,5.758869e-07,0.00034174047,0.0003604816,1.16122e-05,7.851931e-06,1.38053e-05,0.00022294144,6.8037375e-06,7.2028083e-06,0.0002226309,1.0,1.0,24
301032217,300841729,0.5171013,-0.0025403495,-0.0009655312,-0.85592,-3.282688,-0.34713805,0.41883036,-6.4672384,-11.287689,-19.816507,-0.004721839,-0.0013041293,0.0014471149,0.0063533667,0.0020603135,-0.040537715,0.14105214,0.02957977,0.49207467,-0.00025593129,0.0005408281,-0.017528191,0.0,0.0,9.8479824e-05,7.510233e-05,0.0010990963,0.76322603,0.9586073,0.009840131,46.38601,58.350838,0.23112518,3.271349e-07,3.4415774e-07,5.823234e-07,0.00034102553,0.0003601892,1.1617536e-05,7.823306e-06,1.3313003e-05,0.00022152162,6.740198e-06,7.1599443e-06,0.0002211465,1.0,1.0,24
302032337,301841729,0.5164664,-0.00088479865,0.00062225986,-0.85630685,-2.661624,-0.11033589,0.8207582,-9.498564,-11.506533,-19.28579,-0.0047107995,-0.0013115196,0.0014600339,0.0063293385,0.0019108264,-0.040463768,0.14110407,0.029421771,0.4919966,-0.00031469684,0.00049520214,-0.017442442,0.0,0.0,0.0001034971,7.656589e-05,0.001114337,0.84046423,1.1123917,0.009550891,56.824066,72.84861,0.23335874,3.236543e-07,3.4284852e-07,5.8852186e-07,0.000340275,0.0003598579,1.1629424e-05,7.792893e-06,1.2857129e-05,0.00021944604,6.681111e-06,7.119272e-06,0.00021906802,1.0,1.0,24
303032214,302841729,0.52663875,0.0020149364,-5.6605768e-05,-0.85008687,-2.1672382,0.00059986115,1.3089833,-11.967388,-11.479203,-18.26026,-0.0047040335,-0.001319346,0.001469141,0.0062637995,0.0018624021,-0.04045828,0.14115037,0.029277015,0.49194625,-0.00036858593,0.00045719786,-0.017387357,0.0,0.0,0.000108584056,7.803376e-05,0.0011316737,0.9190275,1.2792076,0.009345378,68.90052,90.294495,0.23048376,3.205819e-07,3.4155124e-07,5.9495846e-07,0.00033964636,0.00035957675,1.163689e-05,7.7676295e-06,1.2433218e-05,0.00021783425,6.626903e-06,7.08388e-06,0.00021745966,1.0,1.0,24
304032227,303841729,0.51477313,0.011980071,0.018509798,-0.85704297,-1.7447735,0.30509895,1.4029623,-13.792409,-11.334985,-16.922112,-0.004709476,-0.001323551,0.0014755325,0.0062994417,0.0017802408,-0.04041184,0.14118502,0.029146686,0.49196428,-0.000415662,0.00042337266,-0.017406683,0.0,0.0,0.000113966424,7.961866e-05,0.0011518567,1.009489,1.4713696,0.009339421,82.87844,111.2511,0.2316746,3.1810504e-07,3.406016e-07,6.0195623e-07,0.0003391618,0.00035939302,1.1649438e-05,7.746006e-06,1.203771e-05,0.00021605527,6.5769846e-06,7.05422e-06,0.00021569726,1.0,1.0,24
305032174,304841729,0.5285071,-0.001698351,0.0048035807,-0.8489136,-0.9997075,0.30093843,1.449112,-15.052555,-10.956834,-15.533286,-0.004714217,-0.0013321703,0.0014831768,0.00629555,0.0017474717,-0.04040634,0.14122623,0.02902355,0.49202663,-0.00046281156,0.0003887695,-0.017469544,0.0,0.0,0.00011886218,8.09155e-05,0.0011736224,1.0984529,1.6973724,0.009397325,98.732864,136.1652,0.23280045,3.154343e-07,3.39409e-07,6.088261e-07,0.00033874353,0.00035920838,1.1661298e-05,7.725907e-06,1.1665945e-05,0.00021234078,6.530523e-06,7.025029e-06,0.00021203977,1.0,1.0,24
306032329,305841729,0.5334563,0.0010986293,-0.01399781,-0.84571105,-0.59535885,0.29167446,1.3827478,-15.795186,-10.584153,-14.151243,-0.0047169756,-0.0013414447,0.0014890233,0.0062604714,0.0017394486,-0.040406935,0.14125757,0.028908627,0.49202573,-0.0005026823,0.00036040353,-0.017472096,0.0,0.0,0.00012391589,8.2366874e-05,0.0011970975,1.1950284,1.9316958,0.009398262,116.966576,165.60426,0.22979303,3.1315957e-07,3.3796655e-07,6.158535e-07,0.0003384584,0.00035905367,1.16667115e-05,7.713628e-06,1.1318768e-05,0.00021117873,6.488296e-06,7.0024803e-06,0.00021090721,1.0,1.0,24
307032183,306841729,0.5226445,-0.000109937195,-0.0021077576,-0.85254806,-0.2535184,0.3576569,1.3107194,-16.095512,-10.103724,-12.791798,-0.0047248024,-0.0013512286,0.0014920096,0.0062342803,0.0017526286,-0.04040791,0.14128374,0.028802764,0.49205148,-0.00053847424,0.00033625343,-0.01749795,0.0,0.0,0.00012890116,8.368771e-05,0.0012221183,1.2970062,2.1823568,0.0094887335,137.72505,200.07245,0.23142013,3.1098367e-07,3.3634026e-07,6.2298164e-07,0.00033825907,0.00035892575,1.1675851e-05,7.702629e-06,1.0993566e-05,0.00021052227,6.4482597e-06,6.9820753e-06,0.00021027414,1.0,1.0,24
309032373,308841729,0.55209965,0.030886302,-0.13929044,-0.82148045,1.8243567,-0.5443423,-0.310885,-9.345049,-10.066171,-7.727,-0.004616251,-0.0013114681,0.0014911657,0.0055040075,0.0015701664,-0.040456966,0.14151111,0.028675806,0.49239522,-0.00066425087,0.00037743396,-0.017954493,0.0,0.0,8.311835e-05,6.51109e-05,0.0010495412,0.012988766,0.019025195,0.013435578,0.18647707,0.18682687,0.20958585,2.74618e-07,2.8083338e-07,5.565373e-07,0.0003372984,0.00035192736,1.1819451e-05,7.5446346e-06,1.0739864e-05,0.0002014811,6.3898633e-06,6.8450927e-06,0.00020138374,1.0,1.0,24
