timestamp,timestamp_sample,gyro_device_id,gyro_bias[0],gyro_bias[1],gyro_bias[2],gyro_bias_limit,gyro_bias_variance[0],gyro_bias_variance[1],gyro_bias_variance[2],accel_device_id,accel_bias[0],accel_bias[1],accel_bias[2],accel_bias_limit,accel_bias_variance[0],accel_bias_variance[1],accel_bias_variance[2],mag_device_id,mag_bias[0],mag_bias[1],mag_bias[2],mag_bias_limit,mag_bias_variance[0],mag_bias_variance[1],mag_bias_variance[2],gyro_bias_valid,gyro_bias_stable,accel_bias_valid,accel_bias_stable,mag_bias_valid,mag_bias_stable
199316360,199125671,3407882,-0.003062553,-0.0014562433,-0.0005355996,0.15,1.8837319e-07,1.8856292e-07,3.9281127e-07,3407882,-0.0048362766,-0.0107907355,0.026984518,0.4,0.0019263542,0.0019746695,1.5238836e-05,466953,0.00049695006,0.00032701791,-0.007529606,0.5,0.0011695619,0.0011654875,0.0012500875,1,1,1,0,1,0
200325960,200135682,3407882,-0.0030681589,-0.0014663368,-0.0005389833,0.15,1.8847045e-07,1.8865869e-07,3.929061e-07,3407882,-0.0048325006,-0.010793401,0.026965665,0.4,0.0019264483,0.0019747636,1.5223609e-05,466953,0.000534339,0.00035758285,-0.007521305,0.5,0.0011695032,0.0011654403,0.001250083,1,1,1,0,1,0
201336209,201145671,3407882,-0.003070578,-0.0014601386,-0.00055634166,0.15,1.8773504e-07,1.879249e-07,3.9294807e-07,3407882,-0.0048331018,-0.01079362,0.026947603,0.4,0.0019265424,0.0019748576,1.5198402e-05,466953,0.0005388672,0.00032156278,-0.0075151753,0.5,0.0011693148,0.0011652517,0.0012500752,1,1,1,0,1,0
202345965,202155677,3407882,-0.0030735717,-0.0014529497,-0.0005717947,0.15,1.8786152e-07,1.8803539e-07,3.930206e-07,3407882,-0.0048359567,-0.010791445,0.026969729,0.4,0.0019266364,0.0019749515,1.5183714e-05,466953,0.0005264813,0.00024092375,-0.0075128553,0.5,0.0011688242,0.0011647118,0.0012500678,1,1,1,0,1,0
203356073,203165671,3407882,-0.0030783697,-0.0014270559,-0.000584303,0.15,1.8799321e-07,1.8814282e-07,3.9308006e-07,3407882,-0.004842195,-0.010783093,0.026961204,0.4,0.0019267305,0.0019750432,1.51687855e-05,466953,0.00048590588,0.00010564436,-0.00751655,0.5,0.0011684095,0.0011641871,0.0012500632,1,1,1,0,1,0
204365964,204175691,3407882,-0.0030787005,-0.0014323476,-0.0006027049,0.15,1.88266e-07,1.8841112e-07,3.9383673e-07,3407882,-0.0048456024,-0.010793961,0.026913404,0.4,0.0019268218,0.001975134,1.5154649e-05,466953,0.000521697,8.589931e-06,-0.0075153452,0.5,0.0011682287,0.0011638704,0.0012500613,1,0,1,0,1,0
205376247,205185671,3407882,-0.0031083187,-0.0014173659,-0.00062126975,0.15,1.8906807e-07,1.8922005e-07,3.9683212e-07,3407882,-0.0048755603,-0.010775043,0.026914334,0.4,0.0019269086,0.0019752206,1.5140125e-05,466953,0.0006061303,-0.0001919297,-0.007543713,0.5,0.0011680167,0.0011634225,0.0012500457,1,0,1,0,1,0
205736453,205545699,3407882,-0.0031127457,-0.0014182307,-0.0006298825,0.15,1.8895233e-07,1.8908419e-07,3.9793034e-07,3407882,-0.004892128,-0.010728399,0.026913308,0.4,0.0019269132,0.0019752146,1.5131018e-05,466953,0.0008469978,-0.0012367937,-0.007785323,0.5,0.0011619633,0.0011532621,0.0012459654,1,0,1,0,1,0
205886250,205695673,3407882,-0.0031079696,-0.0014193237,-0.00063372054,0.15,1.8948069e-07,1.8961106e-07,3.984321e-07,3407882,-0.0049043866,-0.01070254,0.02690702,0.4,0.0019268923,0.001975182,1.5133723e-05,466953,0.0012577629,-0.0024880946,-0.00799849,0.5,0.001155589,0.0011399036,0.0012375679,1,0,1,0,1,0
205956256,205765671,3407882,-0.0031086416,-0.0014253585,-0.0006371215,0.15,1.8925402e-07,1.894006e-07,3.9857142e-07,3407882,-0.00496421,-0.010721529,0.026891565,0.4,0.0019268384,0.0019751238,1.5129625e-05,466953,0.001060443,-0.003608448,-0.008105689,0.5,0.0011463431,0.0011275035,0.001233881,1,0,1,0,1,0
206146215,205955671,3407882,-0.0031208515,-0.0014341628,-0.00064045034,0.15,1.8929354e-07,1.895087e-07,3.9935009e-07,3407882,-0.0051003327,-0.010704662,0.026861925,0.4,0.0019266808,0.0019749352,1.5124792e-05,466953,0.0012957653,-0.004724067,-0.008230846,0.5,0.0011276777,0.0011040171,0.0012309132,1,0,1,0,1,0
206936188,206745687,3407882,-0.0031229772,-0.0014165957,-0.00065431796,0.15,1.8966674e-07,1.8969385e-07,4.019831e-07,3407882,-0.0049331146,-0.010685036,0.026700562,0.4,0.0019251959,0.0019732155,1.5103442e-05,466953,0.0022890163,-0.006365128,-0.00831441,0.5,0.0010672614,0.0010071755,0.0012293936,1,0,1,0,1,0
207236460,207045684,3407882,-0.0031424665,-0.0014167167,-0.0006579737,0.15,1.8965888e-07,1.8963725e-07,4.0299815e-07,3407882,-0.005233149,-0.010635036,0.026644165,0.4,0.0019239914,0.0019722267,1.5093232e-05,466953,0.0020217244,-0.0075313803,-0.0083866585,0.5,0.0010238155,0.00095062784,0.001228738,1,0,1,0,1,0
207436188,207245681,3407882,-0.0031375233,-0.0014269965,-0.00066160166,0.15,1.8969514e-07,1.8978936e-07,4.0424374e-07,3407882,-0.0051497496,-0.01093504,0.026590757,0.4,0.001922918,0.001971454,1.50861115e-05,466953,0.003286011,-0.0071237804,-0.008401028,0.5,0.0009991331,0.00092344126,0.0012286074,1,0,1,0,1,0
207536183,207345680,3407882,-0.0031389645,-0.001412366,-0.000662346,0.15,1.8968966e-07,1.8986556e-07,4.045119e-07,3407882,-0.005032512,-0.0106673185,0.026580574,0.4,0.0019223129,0.0019710371,1.5082639e-05,466953,0.0024695997,-0.008373806,-0.008475763,0.5,0.0009828083,0.00090323895,0.0012284779,1,0,1,0,1,0
207816270,207625671,3407882,-0.0031574725,-0.0014142145,-0.0006652526,0.15,1.904983e-07,1.9091436e-07,4.058382e-07,3407882,-0.0054291524,-0.010661789,0.026546976,0.4,0.0019210635,0.0019702176,1.5081014e-05,466953,0.0025422578,-0.009421836,-0.008534524,0.5,0.0009540745,0.0008692959,0.0012281612,1,0,1,0,1,0
208096265,207905671,3407882,-0.003161652,-0.0014152307,-0.0006691328,0.15,1.9042169e-07,1.9136604e-07,4.0701465e-07,3407882,-0.0053980066,-0.010767853,0.026488576,0.4,0.0019192676,0.001969077,1.5067319e-05,466953,0.0029259226,-0.010358053,-0.008847712,0.5,0.00092618103,0.00084206695,0.0012252178,1,0,1,0,1,0
208236262,208045674,3407882,-0.00317633,-0.0014259173,-0.0006695619,0.15,1.8997852e-07,1.9127438e-07,4.0793662e-07,3407882,-0.0057517765,-0.010949928,0.026464414,0.4,0.0019182601,0.0019683673,1.5053939e-05,466953,0.0,0.0,0.0,0.5,0.0025000002,0.0025000002,0.0025000002,1,0,1,0,1,0
208316132,208125671,3407882,-0.0031768456,-0.0014261313,-0.0006695396,0.15,1.9076558e-07,1.920605e-07,4.087363e-07,3407882,-0.0058079693,-0.010787654,0.026474398,0.4,0.0019171108,0.0019671393,1.5058199e-05,466953,0.00030937314,0.0016971878,-0.0097082555,0.5,0.0017509421,0.0017565324,0.0016668962,1,0,1,0,1,0
208386131,208195671,3407882,-0.0031794542,-0.0014242316,-0.0006690125,0.15,1.9057005e-07,1.9201757e-07,4.0941293e-07,3407882,-0.0058445674,-0.010796064,0.026454855,0.4,0.001916549,0.0019666373,1.5051088e-05,466953,0.00030418162,0.0018847462,-0.011670008,0.5,0.0016184596,0.0016236507,0.0015003084,1,0,1,0,1,0
208526128,208335671,3407882,-0.003172134,-0.0014274158,-0.00067021855,0.15,1.9107594e-07,1.9266774e-07,4.1079025e-07,3407882,-0.0057311943,-0.010915883,0.02643877,0.4,0.0019161457,0.0019662564,1.5049881e-05,466953,9.781354e-05,0.0020086193,-0.013065508,0.5,0.0015310451,0.0015383344,0.0013891372,1,0,1,0,1,0
208746154,208555671,3407882,-0.003173761,-0.0014331877,-0.00067060255,0.15,1.9059675e-07,1.9259684e-07,4.1292708e-07,3407882,-0.00573482,-0.01096106,0.026439402,0.4,0.0019156002,0.0019656215,1.5030107e-05,466953,-0.00056178204,0.0014581704,-0.013795287,0.5,0.0014840886,0.0014951382,0.0013331885,1,0,1,0,1,0
209026133,208835671,3407882,-0.0031583991,-0.0014282601,-0.00067177863,0.15,1.916256e-07,1.938769e-07,4.1568836e-07,3407882,-0.005582203,-0.011004508,0.026439557,0.4,0.001915438,0.0019653237,1.5028032e-05,466953,-0.00027361725,0.0023481236,-0.014218874,0.5,0.0014513921,0.0014691324,0.0012986402,1,0,1,0,1,0
209146218,208955671,3407882,-0.0031758389,-0.001423525,-0.00066960044,0.15,1.9119426e-07,1.9350837e-07,4.1685325e-07,3407882,-0.0056536766,-0.011029397,0.026441423,0.4,0.0019153599,0.001965054,1.5012407e-05,466953,-0.0015592595,0.0010198663,-0.0141406795,0.5,0.0014354028,0.0014542118,0.0012914701,1,0,1,0,1,0
209336188,209145671,3407882,-0.0031860545,-0.0014150252,-0.0006679513,0.15,1.9192069e-07,1.9375507e-07,4.187231e-07,3407882,-0.0056808856,-0.011087728,0.026444292,0.4,0.0019153055,0.0019647516,1.5002212e-05,466953,-0.0030255076,-0.00049090374,-0.014134667,0.5,0.0013959015,0.0014198294,0.001272855,1,0,1,0,1,0
209436245,209245671,3407882,-0.0031810128,-0.0014133671,-0.00066820486,0.15,1.9257183e-07,1.9389077e-07,4.197108e-07,3407882,-0.0056353356,-0.011083625,0.026444476,0.4,0.0019152813,0.001964587,1.4997735e-05,466953,-0.001926848,0.00065949274,-0.014275168,0.5,0.0013741537,0.0013982024,0.0012674978,1,0,1,0,1,0
209636237,209445671,3407882,-0.0031820254,-0.0014229937,-0.0006688619,0.15,1.9420727e-07,1.9408974e-07,4.2168978e-07,3407882,-0.0056726057,-0.011201813,0.026427547,0.4,0.001915237,0.0019642233,1.4987402e-05,466953,-0.0027135287,-0.00013396607,-0.014318157,0.5,0.001330497,0.0013549714,0.0012560311,1,0,1,0,1,0
209956216,209765671,3407882,-0.0031821905,-0.0014196925,-0.00066845847,0.15,1.9724357e-07,1.9446858e-07,4.2486295e-07,3407882,-0.005689955,-0.011301851,0.026420357,0.4,0.001915095,0.001963593,1.4974499e-05,466953,-0.0036782334,-0.0003805567,-0.014217528,0.5,0.0012352924,0.0012712551,0.0012323624,1,0,1,0,1,0
210236175,210045671,3407882,-0.0031804766,-0.00142095,-0.00066869496,0.15,1.9992021e-07,1.9434604e-07,4.2764106e-07,3407882,-0.0057746456,-0.011379673,0.026434645,0.4,0.0019148419,0.0019626834,1.495691e-05,466953,-0.0043378794,-0.0012320938,-0.014282364,0.5,0.0011624212,0.0012085078,0.0012180511,1,0,1,0,1,0
211246165,211055672,3407882,-0.003183956,-0.0014049129,-0.00066686946,0.15,2.0945089e-07,1.9453564e-07,4.3766698e-07,3407882,-0.0056305844,-0.011493939,0.02637977,0.4,0.0019131494,0.0019548286,1.4896743e-05,466953,-0.0041455473,-0.00092063413,-0.014471575,0.5,0.0009975653,0.0010381707,0.001199334,1,0,1,0,1,0
212036278,211845671,3407882,-0.003190412,-0.001353019,-0.00066368835,0.15,2.1566282e-07,1.9459173e-07,4.4546292e-07,3407882,-0.0059195175,-0.010115294,0.026395196,0.4,0.0019085079,0.001942734,1.4836695e-05,466953,-0.00486853,-0.0006659225,-0.014751463,0.5,0.0009115876,0.0009554486,0.0011719834,1,0,1,0,1,0
212436258,212245671,3407882,-0.0031916497,-0.00136582,-0.00066290784,0.15,2.1699545e-07,1.9504448e-07,4.4935487e-07,3407882,-0.005618037,-0.010137946,0.026510939,0.4,0.001903142,0.0019353337,1.4805163e-05,466953,-0.005866013,-0.00066016335,-0.014866827,0.5,0.0008911036,0.0009406375,0.0011572732,1,0,1,0,1,0
212636190,212445670,3407882,-0.003182427,-0.0013617077,-0.0006642816,0.15,2.1689242e-07,1.9533054e-07,4.5127376e-07,3407882,-0.005119829,-0.009249159,0.026642034,0.4,0.0018995809,0.0019313366,1.478936e-05,466953,-0.005882025,-0.0006447364,-0.014967965,0.5,0.000879407,0.0009342449,0.0011460965,1,0,1,0,1,0
212836163,212645671,3407882,-0.0031595486,-0.0013425093,-0.00066798757,0.15,2.1575096e-07,1.9560298e-07,4.5315528e-07,3407882,-0.0045216014,-0.0077701076,0.026771575,0.4,0.0018957944,0.0019276685,1.4775117e-05,466953,-0.006136457,-0.00064364047,-0.015053923,0.5,0.00085836265,0.00092776644,0.0011191571,1,0,1,0,1,0
213146201,212955673,3407882,-0.0031761762,-0.0013190119,-0.00066406344,0.15,2.1083038e-07,1.9594891e-07,4.5593958e-07,3407882,-0.0051781638,-0.0067138826,0.026891118,0.4,0.0018892594,0.0019224919,1.4755973e-05,466953,-0.0058103716,-0.0004640654,-0.015443191,0.5,0.0008033061,0.0009194857,0.0010383374,1,0,1,0,1,0
213456178,213265671,3407882,-0.0031893952,-0.001302438,-0.00066020066,0.15,2.0424767e-07,1.961579e-07,4.586204e-07,3407882,-0.005550021,-0.0059633953,0.026978647,0.4,0.0018833543,0.0019179666,1.4740182e-05,466953,-0.0055636684,-9.756234e-05,-0.016497856,0.5,0.0007469199,0.0009108882,0.00095705455,1,0,1,0,1,0
213886164,213695671,3407882,-0.0031848347,-0.0012910889,-0.0006599354,0.15,1.9820536e-07,1.9630977e-07,4.6245225e-07,3407882,-0.005466846,-0.005416684,0.02703439,0.4,0.0018781059,0.0019129801,1.4720978e-05,466953,-0.0055627837,0.0002591953,-0.017434303,0.5,0.0007101622,0.00089711865,0.0009127622,1,0,1,0,1,0
214816131,214625671,3407882,-0.0031680379,-0.0012978561,-0.0006594446,0.15,1.965591e-07,1.9647969e-07,4.7125812e-07,3407882,-0.005385732,-0.0059243944,0.02694586,0.4,0.0018729434,0.0019050669,1.4686516e-05,466953,-0.0058850436,0.00083692704,-0.01825362,0.5,0.00066898146,0.00086253224,0.0008844306,1,1,1,0,1,0
215336177,215145671,3407882,-0.0031842887,-0.0013148165,-0.00065728044,0.15,1.97547e-07,1.9605332e-07,4.7630323e-07,3407882,-0.0061259824,-0.0067395386,0.026788216,0.4,0.0018709315,0.0019012647,1.4664757e-05,466953,-0.006005236,0.0010413774,-0.018221725,0.5,0.0006594151,0.00084584305,0.0008830129,1,1,1,0,1,0
216036383,215845671,3407882,-0.0031916578,-0.0013419546,-0.0006565437,0.15,1.9959934e-07,1.9635385e-07,4.830747e-07,3407882,-0.006680582,-0.007692711,0.026626764,0.4,0.0018689757,0.001898345,1.4652349e-05,466953,-0.006190061,0.0009843596,-0.01817704,0.5,0.000652187,0.00083271146,0.00087818777,1,1,1,0,1,0
216585988,216395671,3407882,-0.0032155442,-0.0013621919,-0.0006572941,0.15,2.0065781e-07,1.9658575e-07,4.8834545e-07,3407882,-0.007429763,-0.008352826,0.026479084,0.4,0.0018673853,0.001897041,1.4646548e-05,466953,-0.00633838,0.0009664379,-0.017857373,0.5,0.000639795,0.0008286427,0.0008558734,1,1,1,0,1,0
217036368,216845671,3407882,-0.0032235752,-0.0013940369,-0.00066010974,0.15,1.9906938e-07,1.9531606e-07,4.9254004e-07,3407882,-0.008227529,-0.009133687,0.026295492,0.4,0.0018652695,0.0018961349,1.4630002e-05,466953,-0.0064528473,0.0006904268,-0.018060034,0.5,0.00062293577,0.00082473207,0.0008268977,1,1,1,0,1,0
217436256,217245670,3407882,-0.0032019704,-0.0013928397,-0.00065927894,0.15,1.982159e-07,1.9487531e-07,4.963536e-07,3407882,-0.009166906,-0.009664391,0.026120957,0.4,0.0018634164,0.0018956481,1.4620827e-05,466953,-0.006299831,0.0006964882,-0.018081343,0.5,0.0006213284,0.0008227203,0.00082617084,1,1,1,0,1,0
217836184,217645671,3407882,-0.0031868562,-0.0014109042,-0.0006592741,0.15,1.9774592e-07,1.9456337e-07,5.001636e-07,3407882,-0.010238295,-0.010144958,0.025953015,0.4,0.0018613809,0.0018952298,1.4614189e-05,466953,-0.0061672824,0.00069666,-0.018039718,0.5,0.0006188957,0.00081899605,0.00082504324,1,1,1,0,1,0
218246191,218055671,3407882,-0.0031668448,-0.0014167147,-0.0006584657,0.15,1.9688105e-07,1.9442668e-07,5.039887e-07,3407882,-0.010638047,-0.010339088,0.025875608,0.4,0.0018589974,0.0018947962,1.4609488e-05,466953,-0.006740637,0.0011097279,-0.017296398,0.5,0.0005706081,0.0008114885,0.00074343523,1,1,1,0,1,0
218466175,218275672,3407882,-0.003178288,-0.0014395834,-0.0006636064,0.15,1.9621919e-07,1.945683e-07,5.0594707e-07,3407882,-0.011007029,-0.010445515,0.025833322,0.4,0.001857554,0.0018945591,1.46084485e-05,466953,-0.0068146447,0.00071101,-0.018406365,0.5,0.0005347859,0.000808155,0.00068499014,1,1,1,0,1,0
218736165,218545675,3407882,-0.0031988618,-0.0014750112,-0.0006726942,0.15,1.9483774e-07,1.9425586e-07,5.0826304e-07,3407882,-0.012185598,-0.010699302,0.025731092,0.4,0.0018552734,0.0018942246,1.4603998e-05,466953,-0.006932801,0.00021660066,-0.019126026,0.5,0.0005211417,0.0008059267,0.00066414167,1,1,1,0,1,0
219036369,218845671,3407882,-0.0032218096,-0.001444118,-0.0006800328,0.15,1.9409173e-07,1.9403555e-07,5.109408e-07,3407882,-0.013365774,-0.0112481965,0.025596665,0.4,0.0018527777,0.0018938832,1.4602463e-05,466953,-0.007098015,-8.441793e-06,-0.019193007,0.5,0.0005184019,0.0008036473,0.00066111784,1,1,1,0,1,0
219336191,219145671,3407882,-0.0032392677,-0.0014243735,-0.0006793531,0.15,1.937861e-07,1.9384396e-07,5.1377066e-07,3407882,-0.014309901,-0.011607415,0.02549057,0.4,0.0018501119,0.0018934972,1.4601146e-05,466953,-0.007269851,-4.5642682e-06,-0.019124813,0.5,0.0005174499,0.0008026959,0.0006599341,1,1,1,0,1,0
219636241,219445671,3407882,-0.0032444338,-0.0013916179,-0.0006775213,0.15,1.9374319e-07,1.9378072e-07,5.1658736e-07,3407882,-0.01518318,-0.012135825,0.025388185,0.4,0.0018472794,0.0018930247,1.4600853e-05,466953,-0.007339627,0.00016033098,-0.019014113,0.5,0.0005171129,0.00080213323,0.00065959024,1,1,1,0,1,0
220146186,219955671,3407882,-0.003224284,-0.0013608594,-0.0006779159,0.15,1.9385534e-07,1.937759e-07,5.2127274e-07,3407882,-0.016353084,-0.012657914,0.025282133,0.4,0.0018419768,0.0018921528,1.4603541e-05,466953,-0.0072988635,0.0004042935,-0.01885518,0.5,0.00051540724,0.0008006958,0.0006577505,1,1,1,0,1,0
221036359,220845671,3407882,-0.0032334733,-0.0013170746,-0.0006733119,0.15,1.9359575e-07,1.9323889e-07,5.2882865e-07,3407882,-0.020070061,-0.013908174,0.024951657,0.4,0.0018302595,0.0018905316,1.4609249e-05,466953,-0.0073450254,0.0005124641,-0.01872904,0.5,0.00051111914,0.0007967644,0.00065253477,1,1,1,0,1,0
221236173,221045671,3407882,-0.0032321028,-0.0013184354,-0.0006733769,0.15,1.9352149e-07,1.9311346e-07,5.303029e-07,3407882,-0.021115279,-0.014080749,0.024874708,0.4,0.0018272708,0.0018901291,1.4611232e-05,466953,-0.007307286,0.0005042988,-0.018715978,0.5,0.0005095248,0.00079642294,0.00064998533,1,1,1,0,1,0
221436189,221245671,3407882,-0.0032323308,-0.0012949512,-0.00066993997,0.15,1.9345315e-07,1.9298649e-07,5.316255e-07,3407882,-0.022170238,-0.014554491,0.024779238,0.4,0.001824262,0.0018897355,1.46134325e-05,466953,-0.007278569,0.00065895566,-0.018710338,0.5,0.00050734234,0.00079549156,0.00064682734,1,1,1,0,1,0
221736184,221545671,3407882,-0.0032383625,-0.001308731,-0.00066615804,0.15,1.9344525e-07,1.9284944e-07,5.3348754e-07,3407882,-0.023631578,-0.014643979,0.024661962,0.4,0.00181979,0.0018892545,1.461704e-05,466953,-0.007150446,0.0006054584,-0.018766345,0.5,0.0005037584,0.0007925514,0.0006429954,1,1,1,0,1,0
221936187,221745671,3407882,-0.003242244,-0.001293757,-0.0006611184,0.15,1.934651e-07,1.9273614e-07,5.346284e-07,3407882,-0.024793042,-0.014963524,0.024561122,0.4,0.0018168604,0.0018889604,1.4619786e-05,466953,-0.00710559,0.0007342255,-0.018787742,0.5,0.0005013604,0.0007897676,0.0006409333,1,1,1,0,1,0
222146189,221955671,3407882,-0.0032429118,-0.0012772194,-0.0006575899,0.15,1.9361804e-07,1.9271515e-07,5.3586353e-07,3407882,-0.025924152,-0.015289574,0.02446382,0.4,0.0018140035,0.0018887034,1.4623546e-05,466953,-0.0071139154,0.0008707395,-0.0188089,0.5,0.0004994536,0.00078659144,0.0006399065,1,1,1,0,1,0
222336171,222145671,3407882,-0.00324549,-0.0012662128,-0.00065263297,0.15,1.9361201e-07,1.9251699e-07,5.369839e-07,3407882,-0.027216349,-0.015553783,0.024353977,0.4,0.0018113276,0.0018884917,1.4625656e-05,466953,-0.007169546,0.0010193563,-0.018816005,0.5,0.000497631,0.0007825347,0.0006396754,1,1,1,0,1,0
222636173,222445671,3407882,-0.003267073,-0.0012654505,-0.00064113014,0.15,1.9377904e-07,1.924163e-07,5.390774e-07,3407882,-0.028429274,-0.015667254,0.024238724,0.4,0.001807633,0.0018882799,1.4630216e-05,466953,-0.0071947724,0.0010798064,-0.01882218,0.5,0.0004954814,0.0007770983,0.00063904305,1,1,1,0,1,0
222836167,222645670,3407882,-0.0032709378,-0.0012710155,-0.00063972786,0.15,1.9384841e-07,1.9234503e-07,5.4058097e-07,3407882,-0.029429354,-0.015772874,0.024155136,0.4,0.0018053822,0.0018881627,1.4633329e-05,466953,-0.0071967416,0.0010353437,-0.018841898,0.5,0.0004946894,0.0007748799,0.00063877937,1,1,1,0,1,0
223146205,222955671,3407882,-0.003288714,-0.0012679974,-0.0006333968,0.15,1.9399609e-07,1.923289e-07,5.430662e-07,3407882,-0.030799577,-0.015976507,0.024024267,0.4,0.0018022476,0.0018879451,1.4638003e-05,466953,-0.007231823,0.0010278441,-0.018859932,0.5,0.0004941792,0.00077397283,0.0006384287,1,1,1,0,1,0
223436203,223245671,3407882,-0.003282682,-0.0012799762,-0.00063462794,0.15,1.9390455e-07,1.9212439e-07,5.4541624e-07,3407882,-0.032106902,-0.016159726,0.023907552,0.4,0.0017994362,0.0018876434,1.46403545e-05,466953,-0.007178755,0.000979286,-0.018867452,0.5,0.0004936724,0.0007734264,0.0006376659,1,1,1,0,1,1
223636188,223445673,3407882,-0.0032856774,-0.001263307,-0.00063281687,0.15,1.9387201e-07,1.9203767e-07,5.470333e-07,3407882,-0.033047527,-0.016512139,0.023804836,0.4,0.0017976692,0.001887386,1.4641783e-05,466953,-0.0072111306,0.0010744415,-0.018891234,0.5,0.00049320573,0.00077304145,0.0006370734,1,1,1,0,1,1
223936189,223745671,3407882,-0.0032827132,-0.0012798108,-0.00063233305,0.15,1.9384544e-07,1.919492e-07,5.495362e-07,3407882,-0.034346,-0.016707126,0.02367438,0.4,0.0017952234,0.0018870274,1.4643185e-05,466953,-0.0072017387,0.0009497842,-0.018846016,0.5,0.0004914459,0.00076956983,0.00063506624,1,1,1,0,1,1
224236183,224045671,3407882,-0.0032880513,-0.0012723091,-0.0006289857,0.15,1.9382584e-07,1.9187075e-07,5.5200434e-07,3407882,-0.035310224,-0.017022526,0.023559637,0.4,0.0017931481,0.0018867489,1.4644393e-05,466953,-0.0072100325,0.0009993138,-0.018882629,0.5,0.0004883997,0.00076406245,0.0006316831,1,1,1,0,1,1
224636168,224445671,3407882,-0.0032769907,-0.0012747536,-0.0006292115,0.15,1.9377255e-07,1.9174256e-07,5.5508605e-07,3407882,-0.03670087,-0.017440662,0.023398688,0.4,0.0017906249,0.0018863637,1.4645108e-05,466953,-0.007181626,0.0010475708,-0.01891533,0.5,0.00048662972,0.0007616958,0.0006296492,1,1,1,0,1,1
225036215,224845671,3407882,-0.0032895692,-0.0012826517,-0.0006267137,0.15,1.9384797e-07,1.9176883e-07,5.582029e-07,3407882,-0.037844148,-0.017728882,0.023237735,0.4,0.0017882456,0.0018858264,1.4645375e-05,466953,-0.0072030784,0.000986418,-0.018935248,0.5,0.00048587087,0.00076117227,0.00062854856,1,1,1,0,1,1
225336165,225145671,3407882,-0.0032805915,-0.0012632352,-0.00062403455,0.15,1.9364931e-07,1.9156226e-07,5.6034287e-07,3407882,-0.03888322,-0.018346675,0.02309524,0.4,0.0017863953,0.0018851098,1.4643812e-05,466953,-0.007166429,0.0010384426,-0.018997708,0.5,0.00048518268,0.0007598953,0.00062808424,1,1,1,0,1,1
225736186,225545671,3407882,-0.0032790264,-0.0012690405,-0.000622803,0.15,1.9343693e-07,1.9140737e-07,5.634922e-07,3407882,-0.040040944,-0.018765915,0.022924298,0.4,0.0017840061,0.0018840091,1.4640584e-05,466953,-0.007136594,0.0009772235,-0.018984355,0.5,0.00048496135,0.0007593635,0.0006277129,1,1,1,0,1,1
226146192,225955671,3407882,-0.003273252,-0.001267544,-0.00062243897,0.15,1.9322668e-07,1.9132136e-07,5.666309e-07,3407882,-0.041149873,-0.019318685,0.022748422,0.4,0.0017818284,0.0018828395,1.4636688e-05,466953,-0.0071047703,0.0010163384,-0.018996391,0.5,0.00048474435,0.0007584281,0.0006270446,1,1,1,0,1,1
226636171,226445671,3407882,-0.0032739209,-0.0012808125,-0.0006189376,0.15,1.9282136e-07,1.9106429e-07,5.7041433e-07,3407882,-0.042104553,-0.019810446,0.022562627,0.4,0.0017794871,0.0018812456,1.4628213e-05,466953,-0.0070813596,0.0010173769,-0.01893843,0.5,0.00048370167,0.0007563577,0.00062482845,1,1,1,0,1,1
227336403,227145671,3407882,-0.003267455,-0.0013278303,-0.00061925984,0.15,1.9239968e-07,1.9092339e-07,5.756222e-07,3407882,-0.04315365,-0.020158025,0.022351585,0.4,0.0017768457,0.0018789257,1.4612518e-05,466953,-0.0068963724,0.0009818046,-0.018627554,0.5,0.00048241785,0.0007494907,0.00061909587,1,1,1,0,1,1
227736193,227545671,3407882,-0.0032535421,-0.0013318219,-0.00061715284,0.15,1.9216144e-07,1.9084129e-07,5.785376e-07,3407882,-0.04391412,-0.020807326,0.022199446,0.4,0.0017754848,0.001877275,1.4600732e-05,466953,-0.0068624136,0.0010016039,-0.018697951,0.5,0.0004819885,0.00074634363,0.00061719166,1,1,1,0,1,1
228036213,227845671,3407882,-0.003239238,-0.0013189396,-0.000614841,0.15,1.9195024e-07,1.9074005e-07,5.806162e-07,3407882,-0.04452884,-0.021639321,0.02206959,0.4,0.0017743944,0.001875672,1.4589739e-05,466953,-0.006826088,0.0009976074,-0.018758755,0.5,0.0004811119,0.0007429865,0.00061556837,1,1,1,0,1,1
228736198,228545671,3407882,-0.0032215684,-0.001330595,-0.00060766947,0.15,1.9155124e-07,1.9057444e-07,5.851847e-07,3407882,-0.045885425,-0.023158718,0.02175578,0.4,0.0017720583,0.0018718347,1.4562284e-05,466953,-0.0067465277,0.001258536,-0.018480005,0.5,0.00047920845,0.0007285759,0.00060730975,1,1,1,0,1,1
229146166,228955671,3407882,-0.0032094931,-0.0013205361,-0.00060612825,0.15,1.9146276e-07,1.9061608e-07,5.8782933e-07,3407882,-0.046493564,-0.024047801,0.021593958,0.4,0.0017712364,0.0018702407,1.4548154e-05,466953,-0.0066005206,0.0012793328,-0.018505407,0.5,0.00047695404,0.00072433613,0.00060651335,1,1,1,0,1,1
229636181,229445671,3407882,-0.0032005783,-0.0013236022,-0.0006037416,0.15,1.9124147e-07,1.9045693e-07,5.9108345e-07,3407882,-0.04716869,-0.025121681,0.02139554,0.4,0.0017703961,0.0018680926,1.4527229e-05,466953,-0.006520077,0.0013151002,-0.018463152,0.5,0.0004758207,0.0007229556,0.0006048425,1,1,1,0,1,1
230036239,229845671,3407882,-0.0031890909,-0.0013172191,-0.00060318003,0.15,1.9119322e-07,1.9042582e-07,5.939e-07,3407882,-0.047667954,-0.026010424,0.021241698,0.4,0.0017698052,0.0018663445,1.450976e-05,466953,-0.0064153713,0.0013169172,-0.01847784,0.5,0.00047442463,0.0007210242,0.00060347625,1,1,1,0,1,1
230536186,230345671,3407882,-0.0031730956,-0.0013232543,-0.0006027949,0.15,1.9111518e-07,1.9035473e-07,5.970921e-07,3407882,-0.048271287,-0.027094712,0.021047842,0.4,0.0017691681,0.001864162,1.4488337e-05,466953,-0.006318876,0.001385993,-0.018485183,0.5,0.00047356254,0.00071989134,0.0006024842,1,1,1,0,1,1
230936165,230745671,3407882,-0.0031693212,-0.0013274204,-0.00060125114,0.15,1.910075e-07,1.9024827e-07,5.994029e-07,3407882,-0.04870946,-0.028008234,0.02088793,0.4,0.0017686659,0.0018623722,1.4470785e-05,466953,-0.00632869,0.0014151847,-0.018488975,0.5,0.0004733342,0.0007195455,0.00060199725,1,1,1,0,1,1
231336362,231145671,3407882,-0.003161163,-0.001339631,-0.00059771637,0.15,1.909205e-07,1.9014759e-07,6.016092e-07,3407882,-0.0491806,-0.028895319,0.02072873,0.4,0.0017681252,0.0018605719,1.4452823e-05,466953,-0.0063090315,0.0014093824,-0.018521082,0.5,0.00047279807,0.00071934605,0.0006011069,1,1,1,0,1,1
231836374,231645671,3407882,-0.0031612883,-0.001353791,-0.00059720216,0.15,1.9084104e-07,1.9007656e-07,6.0445905e-07,3407882,-0.049678456,-0.029862398,0.020539744,0.4,0.0017675124,0.0018584782,1.4432138e-05,466953,-0.006289484,0.0014071973,-0.018484673,0.5,0.00047270814,0.00071922946,0.0006009216,1,1,1,0,1,1
232436211,232245671,3407882,-0.0031510436,-0.001368703,-0.0005968881,0.15,1.907503e-07,1.9001739e-07,6.079958e-07,3407882,-0.05016632,-0.030751117,0.02035365,0.4,0.001766851,0.0018561356,1.4407078e-05,466953,-0.0062679457,0.0014097204,-0.01848876,0.5,0.00047220392,0.00071878324,0.00059992896,1,1,1,0,1,1
233336361,233145672,3407882,-0.0031485741,-0.0013961003,-0.0005922943,0.15,1.9065638e-07,1.8992657e-07,6.128714e-07,3407882,-0.050697185,-0.031770248,0.020117775,0.4,0.0017660155,0.0018531894,1.437365e-05,466953,-0.0062389225,0.0014482352,-0.01846751,0.5,0.00047134815,0.0007153838,0.0005980773,1,1,1,0,1,1
235336354,235145671,3407882,-0.0031369391,-0.0014433226,-0.00058749603,0.15,1.9039305e-07,1.8972362e-07,6.217097e-07,3407882,-0.052080672,-0.03471382,0.01947627,0.4,0.0017639234,0.001845709,1.4293704e-05,466953,-0.005988481,0.0013474447,-0.01836641,0.5,0.00046673615,0.00070259045,0.0005904273,1,1,1,0,1,1
236146192,235955671,3407882,-0.0031204647,-0.0014429839,-0.0005866913,0.15,1.9039497e-07,1.8978433e-07,6.2508525e-07,3407882,-0.052525885,-0.03564949,0.019272966,0.4,0.0017635614,0.0018436123,1.4266007e-05,466953,-0.0059734373,0.001288507,-0.01830975,0.5,0.0004649573,0.0006999711,0.00058882905,1,1,1,0,1,1
237155964,236965671,3407882,-0.0031149085,-0.0014548436,-0.0005852121,0.15,1.9042349e-07,1.898673e-07,6.293699e-07,3407882,-0.052821442,-0.036432166,0.019098466,0.4,0.0017632262,0.0018414692,1.42345e-05,466953,-0.005858013,0.0012645008,-0.018219499,0.5,0.0004617799,0.0006943215,0.0005859106,1,1,1,0,1,1
238165980,237975671,3407882,-0.0031036094,-0.0014848427,-0.0005852869,0.15,1.904293e-07,1.899053e-07,6.3329253e-07,3407882,-0.0531851,-0.03724026,0.018869221,0.4,0.0017630435,0.0018400023,1.4207073e-05,466953,-0.0059038578,0.001197782,-0.018255472,0.5,0.00046016023,0.0006904897,0.0005841667,1,1,1,0,1,1
239175960,238985671,3407882,-0.0031027067,-0.0015177862,-0.0005815022,0.15,1.9054204e-07,1.9000534e-07,6.3726e-07,3407882,-0.053399563,-0.0378992,0.018686095,0.4,0.0017628855,0.0018388885,1.4182914e-05,466953,-0.006079994,0.0009213609,-0.0182074,0.5,0.00045554718,0.00068325835,0.00058075524,1,1,1,0,1,1
239626161,239435671,3407882,-0.0031222242,-0.0015123865,-0.00056573,0.15,1.9107415e-07,1.9052817e-07,6.379092e-07,3407882,-0.0535404,-0.038182504,0.018647693,0.4,0.0017627587,0.0018382587,1.417624e-05,466953,-0.006316604,0.0014943756,-0.017330842,0.5,0.00045366256,0.00065549405,0.0005580833,1,1,1,0,1,1
240126139,239935671,3407882,-0.0031151625,-0.0015189726,-0.0005586346,0.15,1.9152282e-07,1.9092097e-07,6.326945e-07,3407882,-0.05347219,-0.037802227,0.018722486,0.4,0.0017623625,0.0018367727,1.4159726e-05,466953,-0.006255943,0.0010906991,-0.018245483,0.5,0.0004494519,0.000587921,0.00050184864,1,1,1,0,1,1
240936171,240745671,3407882,-0.003135454,-0.0015286127,-0.0005634147,0.15,1.9084925e-07,1.9109167e-07,6.162382e-07,3407882,-0.05350545,-0.03889228,0.01842817,0.4,0.001761822,0.0018347669,1.4119435e-05,466953,-0.0064592957,0.0011027817,-0.018506905,0.5,0.00044736496,0.0005780575,0.00049425266,1,1,1,0,1,1
241436165,241245671,3407882,-0.003154599,-0.0015250532,-0.0005653278,0.15,1.9062813e-07,1.9117621e-07,6.153534e-07,3407882,-0.05334886,-0.03988149,0.018202437,0.4,0.0017612901,0.0018328751,1.4096839e-05,466953,-0.0065245596,0.0012139091,-0.018355412,0.5,0.00044692573,0.00057370466,0.00049134076,1,1,1,0,1,1
242036192,241845671,3407882,-0.0031480684,-0.001524637,-0.0005689627,0.15,1.9026119e-07,1.905099e-07,6.151473e-07,3407882,-0.053435944,-0.040918343,0.01798947,0.4,0.0017608013,0.0018301314,1.4069291e-05,466953,-0.0065162666,0.0013234145,-0.018375909,0.5,0.00044674825,0.0005657303,0.00048538478,1,1,1,0,1,1
243045957,242855671,3407882,-0.0031342206,-0.0015422612,-0.000553882,0.15,1.8981034e-07,1.8964005e-07,6.10032e-07,3407882,-0.053503077,-0.041660756,0.017794464,0.4,0.0017605308,0.0018264037,1.4027287e-05,466953,-0.006425464,0.0012917831,-0.018388622,0.5,0.00044621466,0.0005552252,0.0004779489,1,1,1,0,1,1
244055987,243865671,3407882,-0.0031142542,-0.0015547312,-0.00053880597,0.15,1.8971122e-07,1.906397e-07,5.982514e-07,3407882,-0.053470656,-0.04238256,0.017603103,0.4,0.0017602996,0.0018233069,1.3990864e-05,466953,-0.00640066,0.001907319,-0.018666424,0.5,0.0004424236,0.00049652864,0.00042817646,1,1,1,0,1,1
245066136,244875671,3407882,-0.0030914494,-0.0015428225,-0.00054816186,0.15,1.8989473e-07,1.9268447e-07,5.964349e-07,3407882,-0.053707525,-0.042946864,0.017457662,0.4,0.0017601005,0.0018218455,1.3967012e-05,466953,-0.00652955,0.0019018218,-0.018575922,0.5,0.00044108072,0.00049111823,0.00042294525,1,1,1,0,1,1
246076015,245885671,3407882,-0.0030730027,-0.0015648545,-0.000568013,0.15,1.9001384e-07,1.9148372e-07,5.9080566e-07,3407882,-0.053994622,-0.043329366,0.017302057,0.4,0.0017598427,0.001821232,1.3952781e-05,466953,-0.0066111544,0.0019927267,-0.018501371,0.5,0.00043965477,0.0004809499,0.0004130159,1,1,1,0,1,1
247085955,246895671,3407882,-0.0031053198,-0.0015633208,-0.0005436688,0.15,1.9011377e-07,1.903652e-07,5.7426735e-07,3407882,-0.05411161,-0.043686662,0.017107246,0.4,0.001759192,0.0018207554,1.3941215e-05,466953,-0.0065078307,0.0017171609,-0.018326199,0.5,0.00043503722,0.00045186337,0.00038354532,1,1,1,0,1,1
248095978,247905671,3407882,-0.0031274704,-0.0015517393,-0.000522538,0.15,1.9023612e-07,1.9110706e-07,5.5518757e-07,3407882,-0.053998187,-0.04417234,0.0168835,0.4,0.001757939,0.0018199072,1.392315e-05,466953,-0.006527065,0.0016304154,-0.01854113,0.5,0.00043178626,0.00043953775,0.00037183193,1,1,1,0,1,1
249105962,248915671,3407882,-0.0031515968,-0.0015634114,-0.00053742947,0.15,1.900932e-07,1.9066772e-07,5.5521565e-07,3407882,-0.053934127,-0.04447881,0.016706452,0.4,0.001757452,0.0018183413,1.3898324e-05,466953,-0.006548708,0.001741821,-0.018432261,0.5,0.00043126213,0.00042134704,0.00035888434,1,1,1,0,1,1
250115986,249925671,3407882,-0.003147709,-0.0015433492,-0.0005578817,0.15,1.8999008e-07,1.9045129e-07,5.5256635e-07,3407882,-0.053835645,-0.04488223,0.01656911,0.4,0.0017573679,0.0018172624,1.3871777e-05,466953,-0.006611366,0.0015953016,-0.018541858,0.5,0.00043036303,0.000414179,0.00035447287,1,1,1,0,1,1
251125961,250935671,3407882,-0.0031061603,-0.0015087348,-0.0005688916,0.15,1.9027648e-07,1.9119886e-07,5.546873e-07,3407882,-0.053948812,-0.04450412,0.016611518,0.4,0.0017570597,0.0018162129,1.3847507e-05,466953,-0.006731388,0.0016904463,-0.018441632,0.5,0.00042911124,0.0004116955,0.0003524025,1,1,1,0,1,1
252135978,251945671,3407882,-0.0030988075,-0.0014837409,-0.00055798044,0.15,1.9075112e-07,1.9146063e-07,5.5457207e-07,3407882,-0.05405853,-0.044209257,0.016655697,0.4,0.0017565228,0.0018144053,1.3824736e-05,466953,-0.0067190914,0.0018198346,-0.018427255,0.5,0.00042850763,0.00040718864,0.00034849523,1,1,1,0,1,1
253146370,252955671,3407882,-0.0031278387,-0.0014832447,-0.0005675258,0.15,1.8993141e-07,1.9045017e-07,5.5098644e-07,3407882,-0.054104403,-0.044864114,0.016493909,0.4,0.0017563362,0.0018128874,1.3794009e-05,466953,-0.0067300857,0.0019685812,-0.018434616,0.5,0.00042821252,0.00040616078,0.0003477531,1,1,1,0,1,1
254155984,253965671,3407882,-0.003155725,-0.001438614,-0.0005306996,0.15,1.9037874e-07,1.9098789e-07,5.4769424e-07,3407882,-0.054355778,-0.045233835,0.016446356,0.4,0.0017555727,0.0018103416,1.3770037e-05,466953,-0.006715815,0.0023704104,-0.01829044,0.5,0.00042768577,0.00039925028,0.0003419303,1,1,1,0,1,1
254936201,254745671,3407882,-0.0031847076,-0.0013995921,-0.00052545936,0.15,1.901554e-07,1.9075559e-07,5.474579e-07,3407882,-0.05475337,-0.04615315,0.016215896,0.4,0.001755301,0.001808924,1.3750138e-05,466953,-0.006701925,0.0022663388,-0.018286651,0.5,0.00042720465,0.0003944155,0.0003384092,1,1,1,0,1,1
255436164,255245671,3407882,-0.003203497,-0.0013868335,-0.00053057267,0.15,1.8991244e-07,1.9038319e-07,5.4748864e-07,3407882,-0.05524688,-0.047116697,0.015946727,0.4,0.0017551197,0.0018082181,1.3740347e-05,466953,-0.0067364066,0.0023194149,-0.018339468,0.5,0.00042676335,0.00039176326,0.00033576164,1,1,1,0,1,1
255836202,255645671,3407882,-0.0032113588,-0.0014334113,-0.0005156923,0.15,1.896489e-07,1.9008142e-07,5.478588e-07,3407882,-0.056036044,-0.04780429,0.01570974,0.4,0.0017548415,0.0018075515,1.3733641e-05,466953,-0.0066628647,0.0023260848,-0.01835587,0.5,0.00042640138,0.00039138074,0.00033539545,1,1,1,0,1,1
256336238,256145671,3407882,-0.003218808,-0.0014174201,-0.00051761215,0.15,1.8936731e-07,1.898159e-07,5.4826813e-07,3407882,-0.056734085,-0.048872102,0.01537681,0.4,0.0017541869,0.0018065574,1.3726807e-05,466953,-0.0066423137,0.0023529402,-0.01836916,0.5,0.00042554716,0.0003907978,0.00033516396,1,1,1,0,1,1
257536200,257345670,3407882,-0.003221055,-0.001416714,-0.0005200776,0.15,1.8934269e-07,1.8980911e-07,5.4978887e-07,3407882,-0.058212634,-0.050296266,0.014857834,0.4,0.0017523135,0.0018046692,1.3721322e-05,466953,-0.0066210604,0.002375124,-0.018389352,0.5,0.00042512553,0.00039043164,0.00033493756,1,1,1,0,1,1
258236179,258045671,3407882,-0.00319565,-0.0014100635,-0.00052631844,0.15,1.8898082e-07,1.8937408e-07,5.497212e-07,3407882,-0.059017677,-0.051072247,0.014604508,0.4,0.0017510987,0.0018039796,1.371597e-05,466953,-0.0065953843,0.002281015,-0.018356312,0.5,0.00042438865,0.00038961056,0.0003343159,1,1,1,0,1,1
258836241,258645671,3407882,-0.0031812289,-0.0014097216,-0.0005325619,0.15,1.8894795e-07,1.8917626e-07,5.478892e-07,3407882,-0.059784584,-0.05170311,0.014375908,0.4,0.001749622,0.0018031598,1.3712999e-05,466953,-0.006662292,0.0023031647,-0.018359946,0.5,0.00042292898,0.00038906676,0.00033300387,1,1,1,0,1,1
259845986,259655671,3407882,-0.0032041213,-0.0014089455,-0.0005088897,0.15,1.8986991e-07,1.8962032e-07,5.4419354e-07,3407882,-0.059530675,-0.05174439,0.014367812,0.4,0.0017482177,0.0018026364,1.3710599e-05,466953,-0.006721761,0.0021810676,-0.018366612,0.5,0.00042097713,0.0003876905,0.0003315594,1,1,1,0,1,1
260855982,260665671,3407882,-0.0031802624,-0.0014341599,-0.0005223031,0.15,1.906019e-07,1.900877e-07,5.4352347e-07,3407882,-0.05909196,-0.051552333,0.0144281285,0.4,0.0017466038,0.0018019759,1.3711206e-05,466953,-0.0067348834,0.0020936,-0.01842037,0.5,0.0004207988,0.0003853459,0.00032994687,1,1,1,0,1,1
261866132,261675671,3407882,-0.0031479846,-0.0014856866,-0.0005202389,0.15,1.9049651e-07,1.902727e-07,5.4343013e-07,3407882,-0.058920708,-0.051299497,0.014406426,0.4,0.001745421,0.001801483,1.3713458e-05,466953,-0.0066455095,0.0020950458,-0.018417913,0.5,0.00041955023,0.00038229054,0.00032811798,1,1,1,0,1,1
262875984,262685671,3407882,-0.0031351626,-0.001496699,-0.00051943044,0.15,1.89938e-07,1.9007845e-07,5.415566e-07,3407882,-0.059280626,-0.051436946,0.014275089,0.4,0.001744855,0.001801434,1.37176185e-05,466953,-0.0065605044,0.0021597375,-0.018377816,0.5,0.00041774352,0.00038119467,0.000326368,1,1,1,0,1,1
263885956,263695671,3407882,-0.0031233793,-0.0015086496,-0.00052952004,0.15,1.8973736e-07,1.9000684e-07,5.3612655e-07,3407882,-0.05941964,-0.051539015,0.0142043,0.4,0.0017439709,0.0018012911,1.3724891e-05,466953,-0.0066279974,0.002065855,-0.01842403,0.5,0.00041485627,0.00037926616,0.0003252142,1,1,1,0,1,1
264895978,264705671,3407882,-0.003118838,-0.0014971475,-0.00052297104,0.15,1.8982274e-07,1.9013083e-07,5.322571e-07,3407882,-0.05969305,-0.051422413,0.014082521,0.4,0.0017424952,0.0018007004,1.3735057e-05,466953,-0.0064452435,0.0022240505,-0.018360619,0.5,0.00040425328,0.00037509843,0.0003181291,1,1,1,0,1,1
265905987,265715671,3407882,-0.0030850202,-0.0014890464,-0.0005053312,0.15,1.9058825e-07,1.9056105e-07,5.275557e-07,3407882,-0.05983772,-0.051421758,0.013999031,0.4,0.0017413656,0.0018006726,1.3744928e-05,466953,-0.0062133316,0.0022834335,-0.018369947,0.5,0.00039932493,0.00037428903,0.00031515866,1,1,1,0,1,1
266915980,266725671,3407882,-0.0030473166,-0.0014784223,-0.00051670097,0.15,1.908866e-07,1.9056922e-07,5.2699727e-07,3407882,-0.060678095,-0.05151945,0.013796821,0.4,0.0017402294,0.0018007028,1.3754999e-05,466953,-0.0061701695,0.0023147026,-0.018326063,0.5,0.00039629653,0.0003730179,0.00031289164,1,1,1,0,1,1
267925962,267735671,3407882,-0.0030308347,-0.0014730791,-0.000523891,0.15,1.9045666e-07,1.9036155e-07,5.188086e-07,3407882,-0.06155062,-0.051624697,0.0135832615,0.4,0.0017388314,0.0018006234,1.3764716e-05,466953,-0.006125132,0.0023394113,-0.018371277,0.5,0.0003903477,0.00037101284,0.00030906274,1,1,1,0,1,1
268936252,268745671,3407882,-0.003017102,-0.0014946492,-0.00052830845,0.15,1.898375e-07,1.8937564e-07,5.0948705e-07,3407882,-0.06221134,-0.0516524,0.013366443,0.4,0.0017378974,0.0018006224,1.3763906e-05,466953,-0.0061687096,0.002312046,-0.018372219,0.5,0.00038775924,0.00037037575,0.00030771628,1,1,1,0,1,1
269946135,269755671,3407882,-0.0029777554,-0.001481885,-0.0005590321,0.15,1.9090308e-07,1.8949994e-07,5.041575e-07,3407882,-0.062270045,-0.051625032,0.013205143,0.4,0.0017361714,0.0017988281,1.3764284e-05,466953,-0.0060856445,0.003112423,-0.018501462,0.5,0.00031839346,0.00031485,0.0003018845,1,1,1,0,1,1
270236422,270045671,3407882,-0.002970503,-0.0014835033,-0.00056364236,0.15,1.9125694e-07,1.8955816e-07,5.0511693e-07,3407882,-0.06212762,-0.051819395,0.013156009,0.4,0.001729744,0.0017915744,1.3752823e-05,466953,-0.005202535,0.0036048647,-0.018484503,0.5,0.00025248667,0.00025152107,0.00030160375,1,1,1,0,1,1
270436187,270245670,3407882,-0.0029654088,-0.0014695354,-0.00056258217,0.15,1.9156964e-07,1.8973795e-07,5.065779e-07,3407882,-0.061481617,-0.050759956,0.013136589,0.4,0.0017194827,0.0017803572,1.3736437e-05,466953,-0.0045985435,0.0038193,-0.018501079,0.5,0.00021699391,0.00021717661,0.00030135544,1,1,1,0,1,1
270536240,270345671,3407882,-0.0029712948,-0.0014784223,-0.000562454,0.15,1.9171972e-07,1.8984974e-07,5.0735684e-07,3407882,-0.062346652,-0.051330872,0.013130959,0.4,0.0017115154,0.0017717661,1.3723943e-05,466953,-0.00421503,0.0036312898,-0.018501814,0.5,0.0001838616,0.00018496961,0.00030110206,1,1,1,0,1,1
270736374,270545672,3407882,-0.0029608887,-0.0014710075,-0.0005612318,0.15,1.9204403e-07,1.9014512e-07,5.090643e-07,3407882,-0.061029516,-0.050952375,0.013068278,0.4,0.001688272,0.0017469635,1.3686841e-05,466953,-0.0034561774,0.0034859767,-0.018525524,0.5,0.00014146387,0.00014350671,0.00030078832,1,1,1,0,1,1
270836178,270645671,3407882,-0.002963327,-0.0014635563,-0.0005593579,0.15,1.9223052e-07,1.9033715e-07,5.0994396e-07,3407882,-0.0609725,-0.049756154,0.013083096,0.4,0.0016724294,0.0017301587,1.3661298e-05,466953,-0.0032634214,0.003416432,-0.018542914,0.5,0.00012945491,0.00013169952,0.0003007218,1,1,1,0,1,1
270936177,270745671,3407882,-0.0029684762,-0.0014573034,-0.0005579344,0.15,1.9244294e-07,1.9056512e-07,5.1080985e-07,3407882,-0.0613567,-0.048401378,0.01312307,0.4,0.0016534831,0.001710097,1.3631138e-05,466953,-0.0030586324,0.0033791729,-0.018555416,0.5,0.000118546006,0.0001209415,0.00030066344,1,1,1,0,1,1
271036142,270845671,3407882,-0.0029686817,-0.0014458772,-0.00055448076,0.15,1.9267813e-07,1.9083133e-07,5.115491e-07,3407882,-0.060550056,-0.0464944,0.01314231,0.4,0.0016312068,0.0016865514,1.3595147e-05,466953,-0.0026613283,0.003155331,-0.018586159,0.5,9.9800935e-05,0.000102364815,0.0003005719,1,1,1,0,1,1
271146189,270955671,3407882,-0.0029742024,-0.0014337214,-0.0005528697,0.15,1.9304488e-07,1.9123425e-07,5.124537e-07,3407882,-0.060380254,-0.0437385,0.013200441,0.4,0.0016049227,0.0016587871,1.355349e-05,466953,-0.0025133102,0.0031248364,-0.018606747,0.5,9.179009e-05,9.439127e-05,0.0003005323,1,1,1,0,1,1
271236354,271045671,3407882,-0.0029842,-0.0014293422,-0.0005534165,0.15,1.9325987e-07,1.9149364e-07,5.1298e-07,3407882,-0.06176504,-0.041614294,0.01327998,0.4,0.0015762068,0.0016284748,1.3506566e-05,466953,-0.0022196725,0.0030044753,-0.018619953,0.5,7.8077406e-05,8.067119e-05,0.0003004524,1,1,1,0,1,1
271736351,271545671,3407882,-0.0029995916,-0.0014005116,-0.0005511566,0.15,1.9559447e-07,1.9406708e-07,5.1590035e-07,3407882,-0.060916223,-0.031806603,0.0134461755,0.4,0.0013928254,0.001434811,1.3210621e-05,466953,-0.0013031494,0.0025585818,-0.01868322,0.5,4.7675996e-05,4.9848364e-05,0.00030030336,1,1,1,0,1,1
271836210,271645671,3407882,-0.0030105917,-0.0014030007,-0.0005576857,0.15,1.962248e-07,1.9473568e-07,5.165085e-07,3407882,-0.064354226,-0.029489553,0.013584563,0.4,0.0013509411,0.0013905722,1.3143395e-05,466953,-0.0011816041,0.002546752,-0.018684523,0.5,4.4870216e-05,4.6962876e-05,0.00030029716,1,1,1,0,1,1
271936166,271745671,3407882,-0.0030175706,-0.0014023527,-0.0005616406,0.15,1.9693039e-07,1.9547049e-07,5.171432e-07,3407882,-0.06603928,-0.027135393,0.013681855,0.4,0.0013115676,0.0013490062,1.3080421e-05,466953,-0.0011354525,0.002495317,-0.018687757,0.5,4.2334006e-05,4.4346325e-05,0.0003002927,1,1,1,0,1,1
272036163,271845671,3407882,-0.003020644,-0.001398794,-0.0005622095,0.15,1.976615e-07,1.9623276e-07,5.175238e-07,3407882,-0.06576214,-0.024856707,0.013714741,0.4,0.0012701073,0.0013053102,1.3014433e-05,466953,-0.0009919124,0.0024126589,-0.018699892,0.5,3.7954447e-05,3.9808376e-05,0.00030027892,1,1,1,0,1,1
272146194,271955671,3407882,-0.003024797,-0.0013923935,-0.0005640003,0.15,1.9852997e-07,1.9712354e-07,5.1825117e-07,3407882,-0.06468672,-0.021151822,0.013781319,0.4,0.0012258245,0.0012586638,1.2944171e-05,466953,-0.00087785453,0.0024185982,-0.018714178,0.5,3.6054047e-05,3.7829133e-05,0.00030027056,1,1,1,0,1,1
272236402,272045671,3407882,-0.0030294342,-0.0013881214,-0.00056569756,0.15,1.9923245e-07,1.9784773e-07,5.1852356e-07,3407882,-0.06444624,-0.017583525,0.013863687,0.4,0.0011829907,0.0012136332,1.2875055e-05,466953,-0.0006725341,0.0024423685,-0.018729147,0.5,3.2737677e-05,3.43586e-05,0.00030025584,1,1,1,0,1,1
272336179,272145671,3407882,-0.0030319286,-0.0013842783,-0.00056646654,0.15,2.0007474e-07,1.9870434e-07,5.1915345e-07,3407882,-0.06341347,-0.014931765,0.013894172,0.4,0.0011411175,0.001169668,1.2808072e-05,466953,-0.00057619036,0.0024184973,-0.018737854,0.5,3.128772e-05,3.283206e-05,0.00030025168,1,1,1,0,1,1
272436184,272245671,3407882,-0.0030363796,-0.0013781413,-0.0005688476,0.15,2.0094625e-07,1.9958688e-07,5.1978765e-07,3407882,-0.061495136,-0.010280053,0.013963963,0.4,0.001100387,0.0011269726,1.2743456e-05,466953,-0.0004740609,0.0024334595,-0.018744836,0.5,2.9959956e-05,3.142822e-05,0.0003002501,1,1,1,0,1,1
272536207,272345671,3407882,-0.0030373204,-0.0013793961,-0.0005679672,0.15,2.0183546e-07,2.0048853e-07,5.201276e-07,3407882,-0.062681034,-0.009704195,0.01400236,0.4,0.0010609003,0.0010856738,1.26804935e-05,466953,-0.00033763924,0.0023681887,-0.018737905,0.5,2.7627459e-05,2.8948607e-05,0.00030024705,1,1,1,0,1,1
272636211,272445671,3407882,-0.0030405517,-0.0013764179,-0.0005700929,0.15,2.0275071e-07,2.0141061e-07,5.207528e-07,3407882,-0.061430465,-0.006249663,0.01405828,0.4,0.0010229624,0.0010460668,1.2620077e-05,466953,-0.0002692258,0.0023624445,-0.018736849,0.5,2.6599466e-05,2.7848448e-05,0.00030024495,1,1,1,0,1,1
272836254,272645671,3407882,-0.0030433307,-0.0013751881,-0.00057039905,0.15,2.0461896e-07,2.0329236e-07,5.2165785e-07,3407882,-0.06087827,-0.002572696,0.014144508,0.4,0.0009519261,0.0009721471,1.2507543e-05,466953,-5.6556204e-05,0.0023134747,-0.018730933,0.5,2.3982075e-05,2.502412e-05,0.00030023776,1,1,1,0,1,1
272936194,272745671,3407882,-0.0030439305,-0.0013736144,-0.0005701335,0.15,2.0557232e-07,2.0424906e-07,5.222682e-07,3407882,-0.059323873,-0.0014606757,0.0141372075,0.4,0.0009190602,0.00093804055,1.245576e-05,466953,2.0848225e-05,0.0023014026,-0.018734911,0.5,2.32415e-05,2.4217317e-05,0.00030023407,1,1,1,0,1,1
273036179,272845671,3407882,-0.0030446448,-0.0013740741,-0.000569149,0.15,2.0652524e-07,2.0520893e-07,5.225104e-07,3407882,-0.059718937,0.00028460717,0.014209484,0.4,0.00088787236,0.0009057323,1.2406197e-05,466953,0.00012975921,0.002252674,-0.01873251,0.5,2.1929987e-05,2.2779826e-05,0.00030022545,1,1,1,0,1,1
273146171,272955671,3407882,-0.003046464,-0.0013733179,-0.0005710102,0.15,2.0758922e-07,2.0627591e-07,5.231945e-07,3407882,-0.058075204,0.002708568,0.01424934,0.4,0.0008581605,0.0008749895,1.2360269e-05,466953,0.0001908922,0.002282857,-0.018737653,0.5,2.1349155e-05,2.213739e-05,0.00030021954,1,1,1,0,1,1
273236362,273045671,3407882,-0.0030468558,-0.001374281,-0.0005692916,0.15,2.0845182e-07,2.071457e-07,5.2327806e-07,3407882,-0.058490008,0.004680935,0.014321871,0.4,0.0008362299,0.0008523155,1.232575e-05,466953,0.00031143363,0.0022370806,-0.018738516,0.5,2.0321666e-05,2.0992795e-05,0.00030020654,1,1,1,0,1,1
273336143,273145671,3407882,-0.0030464719,-0.0013753423,-0.00056799507,0.15,2.0942215e-07,2.0811936e-07,5.23843e-07,3407882,-0.059499245,0.0057368153,0.014375125,0.4,0.00081503025,0.00083040236,1.2293713e-05,466953,0.000357574,0.0022049411,-0.018733539,0.5,1.9865713e-05,2.0480178e-05,0.00030020127,1,1,1,0,1,1
273636175,273445670,3407882,-0.0030458295,-0.0013776339,-0.000562898,0.15,2.1231315e-07,2.1102775e-07,5.250074e-07,3407882,-0.060123812,0.0088050915,0.014474881,0.4,0.0007516901,0.00076492125,1.2195475e-05,466953,0.0005356923,0.0021196993,-0.018737067,0.5,1.8374447e-05,1.877914e-05,0.00030018127,1,1,1,0,1,1
273736358,273545671,3407882,-0.0030463315,-0.0013783375,-0.0005595968,0.15,2.1326284e-07,2.1198784e-07,5.2502503e-07,3407882,-0.05907872,0.009710022,0.014466786,0.4,0.0007292574,0.0007417185,1.2159661e-05,466953,0.0006428734,0.002075312,-0.018739857,0.5,1.779175e-05,1.8100402e-05,0.00030017708,1,1,1,0,1,1
273836184,273645672,3407882,-0.0030471932,-0.0013789018,-0.0005594626,0.15,2.1421894e-07,2.1294956e-07,5.2551474e-07,3407882,-0.0581626,0.010319085,0.014457668,0.4,0.000708817,0.0007205822,1.2126541e-05,466953,0.00067155366,0.0020862934,-0.018737854,0.5,1.7531416e-05,1.7793824e-05,0.0003001741,1,1,1,0,1,1
274036166,273845670,3407882,-0.0030454486,-0.0013774135,-0.0005521851,0.15,2.1611297e-07,2.148607e-07,5.259303e-07,3407882,-0.05888173,0.009314685,0.014437669,0.4,0.0006727676,0.00068328367,1.20682325e-05,466953,0.0007929997,0.0019809112,-0.01872989,0.5,1.6869439e-05,1.7002769e-05,0.0003001568,1,1,1,0,1,1
274236371,274045671,3407882,-0.0030443913,-0.0013792494,-0.00054633257,0.15,2.1799846e-07,2.1676591e-07,5.261985e-07,3407882,-0.058580935,0.010444571,0.014430022,0.4,0.0006454209,0.0006549779,1.2024994e-05,466953,0.0008636268,0.0019028856,-0.018697727,0.5,1.6364034e-05,1.6380718e-05,0.00030012053,1,1,1,0,1,1
274336178,274145671,3407882,-0.003041827,-0.0013806116,-0.0005435523,0.15,2.1893513e-07,2.1771145e-07,5.265789e-07,3407882,-0.05943868,0.011593107,0.014473575,0.4,0.000631669,0.00064077834,1.2002109e-05,466953,0.0008714092,0.0018573853,-0.01867505,0.5,1.6223428e-05,1.6203625e-05,0.00030010418,1,1,1,0,1,1
274636183,274445671,3407882,-0.0030402467,-0.0013828889,-0.00053329195,0.15,2.2172759e-07,2.2053541e-07,5.269662e-07,3407882,-0.05889409,0.012648503,0.014480815,0.4,0.00059922045,0.0006072201,1.1949516e-05,466953,0.0009471306,0.001742037,-0.018644812,0.5,1.5793988e-05,1.5646741e-05,0.0003000604,1,1,1,0,1,1
274736376,274545671,3407882,-0.003037825,-0.0013854579,-0.00052670046,0.15,2.2265559e-07,2.2147718e-07,5.2656003e-07,3407882,-0.058848053,0.013890702,0.014513481,0.4,0.0005915178,0.00059920765,1.1937568e-05,466953,0.00096747023,0.001669125,-0.01862134,0.5,1.564964e-05,1.5449872e-05,0.00030003896,1,1,1,0,1,1
275745961,275555671,3407882,-0.0030321516,-0.0013796688,-0.00044569542,0.15,2.3194798e-07,2.3085545e-07,5.2474934e-07,3407882,-0.05904694,0.012979715,0.014431221,0.4,0.00053527235,0.00054081035,1.1839118e-05,466953,0.0009996685,0.0012704683,-0.018491462,0.5,1.5307965e-05,1.495361e-05,0.00029976526,1,1,1,0,1,1
276036143,275845671,3407882,-0.0030368133,-0.0013759031,-0.0004136776,0.15,2.3464396e-07,2.3357207e-07,5.240843e-07,3407882,-0.0589281,0.0115028275,0.014363145,0.4,0.00052854454,0.0005336745,1.18259495e-05,466953,0.00097397936,0.0012824496,-0.018535662,0.5,1.5246695e-05,1.4917598e-05,0.00029972964,1,1,1,0,1,1
277045973,276855671,3407882,-0.003038325,-0.0013699931,-0.0003162787,0.15,2.4414138e-07,2.4311228e-07,5.2371206e-07,3407882,-0.05941715,0.010717289,0.014266306,0.4,0.00051451393,0.00051878014,1.1789788e-05,466953,0.0005872981,0.0017113177,-0.018611869,0.5,1.4402625e-05,1.4319627e-05,0.00029938208,1,1,1,0,1,1
277636194,277445671,3407882,-0.0030391398,-0.0013634077,-0.0002726596,0.15,2.4979943e-07,2.48783e-07,5.260286e-07,3407882,-0.06043453,0.011369271,0.014236325,0.4,0.0005068171,0.0005110135,1.176398e-05,466953,0.00049746654,0.0021588195,-0.018564817,0.5,1.33713465e-05,1.3456048e-05,0.00029910015,1,1,1,0,1,1
278236405,278045671,3407882,-0.003035154,-0.0013622137,-0.0002491195,0.15,2.5556974e-07,2.545776e-07,5.292032e-07,3407882,-0.060351558,0.01265469,0.01423289,0.4,0.00049562514,0.0004996894,1.173684e-05,466953,0.00046036817,0.0025104675,-0.01869826,0.5,1.217402e-05,1.2399869e-05,0.00029878787,1,1,1,0,1,1
279245963,279055671,3407882,-0.0030341162,-0.0013704381,-0.0002299227,0.15,2.6464957e-07,2.636973e-07,5.356915e-07,3407882,-0.059641965,0.013229178,0.014240609,0.4,0.0004664477,0.00047039907,1.1680487e-05,466953,0.0003509265,0.0029810022,-0.0190379,0.5,1.0762551e-05,1.1185615e-05,0.00029800946,1,1,1,0,1,1
279636208,279445671,3407882,-0.003029062,-0.001376447,-0.00022381388,0.15,2.676405e-07,2.6671424e-07,5.38233e-07,3407882,-0.058980286,0.014026385,0.014226754,0.4,0.00045317828,0.00045708963,1.1655222e-05,466953,0.00034174192,0.0031022343,-0.019102877,0.5,1.0358456e-05,1.0848048e-05,0.00029792555,1,1,1,0,1,1
280336178,280145671,3407882,-0.0030398725,-0.0013934401,-0.00021765535,0.15,2.7191817e-07,2.7103735e-07,5.4278973e-07,3407882,-0.057654392,0.0133113675,0.014084134,0.4,0.00043098268,0.00043485814,1.1614233e-05,466953,0.0003161573,0.003334943,-0.019162694,0.5,9.663795e-06,1.0277361e-05,0.00029778338,1,1,1,0,1,1
280836179,280645671,3407882,-0.0030304962,-0.001404116,-0.00020772484,0.15,2.7394375e-07,2.7311575e-07,5.462165e-07,3407882,-0.056849718,0.014153893,0.013988671,0.4,0.0004174326,0.0004212905,1.1588711e-05,466953,0.00032712377,0.0034337381,-0.019123508,0.5,9.254077e-06,9.944695e-06,0.0002976086,1,1,1,0,1,1
281036182,280845671,3407882,-0.0030365256,-0.0014252942,-0.0002081885,0.15,2.7447382e-07,2.736764e-07,5.475235e-07,3407882,-0.055564392,0.013803344,0.013903799,0.4,0.0004126444,0.00041650215,1.1579558e-05,466953,0.00032811958,0.0034506093,-0.019091306,0.5,9.095505e-06,9.816715e-06,0.00029751487,1,1,1,0,1,1
281436163,281245671,3407882,-0.0030323137,-0.001442694,-0.00020132452,0.15,2.7550178e-07,2.7475903e-07,5.5037924e-07,3407882,-0.054532863,0.014128676,0.013813756,0.4,0.00040519607,0.0004090881,1.1567909e-05,466953,0.000335752,0.0034903379,-0.019045869,0.5,8.847092e-06,9.614598e-06,0.00029725794,1,1,1,0,1,1
282446003,282255671,3407882,-0.0030490141,-0.0014419677,-0.00019324577,0.15,2.747466e-07,2.7411699e-07,5.575975e-07,3407882,-0.05422776,0.013767696,0.013547952,0.4,0.0003897767,0.00039401033,1.1536267e-05,466953,0.00030100232,0.003642147,-0.019031545,0.5,8.248492e-06,9.141093e-06,0.00029695657,1,1,1,0,1,1
282836255,282645671,3407882,-0.0030297658,-0.0014667695,-0.0001854199,0.15,2.740087e-07,2.7340255e-07,5.603725e-07,3407882,-0.05341603,0.014502174,0.013466378,0.4,0.0003861127,0.00039053313,1.1530278e-05,466953,0.0003273713,0.0036810853,-0.018997384,0.5,8.0268e-06,8.968527e-06,0.0002967765,1,1,1,0,1,1
283536212,283345671,3407882,-0.0030070022,-0.0014842273,-0.0001755293,0.15,2.711828e-07,2.7065266e-07,5.6542837e-07,3407882,-0.05277013,0.0152563425,0.013312766,0.4,0.00038092321,0.00038574898,1.1519842e-05,466953,0.00034713652,0.0037446672,-0.018995756,0.5,7.689043e-06,8.710199e-06,0.00029662682,1,1,1,1,1,1
284456205,284265671,3407882,-0.0029876353,-0.001528707,-0.0001733584,0.15,2.667391e-07,2.6636806e-07,5.6504933e-07,3407882,-0.052041847,0.015994309,0.013219412,0.4,0.00037555618,0.00038110022,1.1514342e-05,466953,0.00033585593,0.0036919862,-0.019072562,0.5,7.450415e-06,8.560247e-06,0.00029626372,1,1,1,1,1,1
285465955,285275671,3407882,-0.0030041616,-0.0015240866,-0.000111493,0.15,2.7147598e-07,2.7093697e-07,5.5676617e-07,3407882,-0.051485438,0.016498689,0.013186454,0.4,0.00037057677,0.00037687592,1.156822e-05,466953,0.00019544322,0.0035322846,-0.018631065,0.5,7.362643e-06,8.37068e-06,0.00029513927,1,1,1,1,1,1
286476013,286285671,3407882,-0.0030180714,-0.0015348591,-5.6530793e-05,0.15,2.7995966e-07,2.7927504e-07,5.5072707e-07,3407882,-0.05094375,0.017077604,0.0131610455,0.4,0.00036686414,0.0003740973,1.1631423e-05,466953,8.015459e-05,0.0033653944,-0.017911827,0.5,7.2877397e-06,8.192597e-06,0.0002925021,1,1,1,1,1,1
287485956,287295671,3407882,-0.0030227287,-0.0015473394,-1.7276448e-05,0.15,2.881643e-07,2.8754044e-07,5.4736853e-07,3407882,-0.05068028,0.017546913,0.0130846,0.4,0.00036364334,0.0003718545,1.168243e-05,466953,1.3120101e-05,0.0032509498,-0.018045196,0.5,7.2314515e-06,8.060723e-06,0.00029008798,1,1,1,1,1,1
288495978,288305670,3407882,-0.0030246412,-0.0015604876,1.635252e-05,0.15,2.9583464e-07,2.955111e-07,5.454916e-07,3407882,-0.050477512,0.017960519,0.0129888095,0.4,0.00036065478,0.00036992467,1.17146865e-05,466953,-3.603556e-05,0.0031522952,-0.018357504,0.5,7.1832133e-06,7.941647e-06,0.00028770266,1,1,1,1,1,1
289505962,289315694,3407882,-0.0030256025,-0.0015728418,4.352293e-05,0.15,3.0281325e-07,3.0306774e-07,5.445974e-07,3407882,-0.050311968,0.018301373,0.012899273,0.4,0.0003578525,0.00036824436,1.1736789e-05,466953,-7.531807e-05,0.0030701233,-0.018492509,0.5,7.139355e-06,7.8312e-06,0.00028661056,1,1,1,1,1,1
290515972,290325671,3407882,-0.00302506,-0.0015851107,6.602552e-05,0.15,3.0892983e-07,3.1014014e-07,5.445753e-07,3407882,-0.050223198,0.018599201,0.01283598,0.4,0.00035519683,0.0003667754,1.1744129e-05,466953,-0.0001003781,0.0029956754,-0.018588461,0.5,7.0996102e-06,7.727128e-06,0.00028575378,1,1,1,1,1,1
291525951,291335671,3407882,-0.003025204,-0.0015998184,8.87169e-05,0.15,3.1412273e-07,3.1669302e-07,5.45134e-07,3407882,-0.050055422,0.018972175,0.01263953,0.4,0.00035270234,0.0003654997,1.1750765e-05,466953,-0.00013488755,0.002920663,-0.018657362,0.5,7.063249e-06,7.6288525e-06,0.000285121,1,1,1,1,1,1
292536172,292345671,3407882,-0.0030281793,-0.0016157265,0.000107719046,0.15,3.180449e-07,3.2238924e-07,5.4578214e-07,3407882,-0.049860217,0.019330215,0.012420857,0.4,0.0003502976,0.00036434975,1.1749061e-05,466953,-0.00016678227,0.0028557982,-0.018764151,0.5,7.027958e-06,7.5338785e-06,0.00028427094,1,1,1,1,1,1
293545959,293355671,3407882,-0.0030278687,-0.001632104,0.00012573691,0.15,3.2152414e-07,3.27697e-07,5.477632e-07,3407882,-0.049755495,0.019652838,0.012244269,0.4,0.00034841974,0.00036352588,1.1752639e-05,466953,-0.00019276697,0.0028019743,-0.018742641,0.5,7.0036363e-06,7.470693e-06,0.0002838242,1,1,1,1,1,1
294555979,294365671,3407882,-0.003031794,-0.0016428418,0.00013382944,0.15,3.2413928e-07,3.3238535e-07,5.5053135e-07,3407882,-0.04964482,0.019903935,0.012008166,0.4,0.00034677176,0.00036286702,1.1750666e-05,466953,-0.00020753274,0.0027743543,-0.01883722,0.5,6.9832995e-06,7.415898e-06,0.00028298612,1,1,1,1,1,1
295565981,295375671,3407882,-0.0030335374,-0.0016524413,0.00014112875,0.15,3.2594662e-07,3.3635408e-07,5.5385203e-07,3407882,-0.049585108,0.02017438,0.011701343,0.4,0.0003453828,0.00036236673,1.1749197e-05,466953,-0.00021515247,0.0027486107,-0.018863296,0.5,6.967691e-06,7.373967e-06,0.00028233338,1,1,1,1,1,1
296575973,296385671,3407882,-0.0030397836,-0.0016501205,0.00013561698,0.15,3.2709002e-07,3.3961535e-07,5.581698e-07,3407882,-0.049537838,0.020281224,0.0114312135,0.4,0.0003442307,0.0003620039,1.1754035e-05,466953,-0.0002058522,0.0027649752,-0.01871038,0.5,6.9534017e-06,7.3355864e-06,0.00027331786,1,1,1,1,1,1
297256208,297065671,3407882,-0.0030180172,-0.0016298275,0.00012706997,0.15,3.280768e-07,3.410189e-07,5.624559e-07,3407882,-0.04982502,0.020231118,0.011323541,0.4,0.00034366196,0.00036184245,1.1752934e-05,466953,-0.00016066471,0.0027962553,-0.019791774,0.5,6.9441726e-06,7.304041e-06,0.00024491386,1,1,1,1,1,1
298266062,298075671,3407882,-0.0030135429,-0.0016134359,0.00013441507,0.15,3.2910012e-07,3.422731e-07,5.6688367e-07,3407882,-0.049985982,0.020008687,0.011432076,0.4,0.00034286838,0.00036146553,1.1760418e-05,466953,-0.00023484712,0.0027489099,-0.020134233,0.5,6.867139e-06,7.243368e-06,0.0002349426,1,1,1,1,1,1
299275959,299085671,3407882,-0.0030108902,-0.0016017882,0.00014024695,0.15,3.2866063e-07,3.4270732e-07,5.718129e-07,3407882,-0.050132867,0.019911174,0.011466932,0.4,0.00034215735,0.00036106675,1.176432e-05,466953,-0.00030859455,0.0026946452,-0.020397108,0.5,6.7951137e-06,7.191806e-06,0.00023033639,1,1,1,1,1,1
300286060,300095671,3407882,-0.0029970629,-0.0015822863,0.00014008024,0.15,3.279593e-07,3.432004e-07,5.776702e-07,3407882,-0.050380494,0.019942367,0.011280034,0.4,0.00034158188,0.00036075563,1.177527e-05,466953,-0.0003777549,0.0026600491,-0.020620218,0.5,6.728725e-06,7.146678e-06,0.00022461552,1,1,1,1,1,1
301295959,301105671,3407882,-0.0029744396,-0.0015732927,0.00015050237,0.15,3.2546535e-07,3.4271594e-07,5.842204e-07,3407882,-0.050635558,0.019922765,0.011199845,0.4,0.00034091918,0.00036045967,1.1782542e-05,466953,-0.000444956,0.0026095144,-0.020372123,0.5,6.6690686e-06,7.103387e-06,0.0002234558,1,1,1,1,1,1
302305959,302115671,3407882,-0.0029589466,-0.0015662438,0.00016105616,0.15,3.2231344e-07,3.4160053e-07,5.906794e-07,3407882,-0.050757058,0.01976688,0.011230866,0.4,0.00034031185,0.0003601702,1.1796211e-05,466953,-0.0005149968,0.0025643543,-0.020125026,0.5,6.6133352e-06,7.0640735e-06,0.00022132095,1,1,1,1,1,1
303315960,303125671,3407882,-0.002947167,-0.0015647365,0.00016474952,0.15,3.1937194e-07,3.4023822e-07,5.9720605e-07,3407882,-0.050892018,0.019707583,0.011233649,0.4,0.00033981737,0.00035990184,1.1805545e-05,466953,-0.0005751421,0.0025292998,-0.019938324,0.5,6.562276e-06,7.0300625e-06,0.00021966315,1,1,1,1,1,1
304325939,304135671,3407882,-0.0029535394,-0.001551709,0.00016994245,0.15,3.1709686e-07,3.393837e-07,6.043531e-07,3407882,-0.050919324,0.019616319,0.011231103,0.4,0.0003394471,0.00035973213,1.1820012e-05,466953,-0.00063688133,0.0024925454,-0.019810708,0.5,6.5145364e-06,7.0006404e-06,0.00021773539,1,1,1,1,1,1
305336255,305145672,3407882,-0.0029608817,-0.0015484359,0.0001754617,0.15,3.1379483e-07,3.3741483e-07,6.1107323e-07,3407882,-0.05093301,0.019546377,0.011228267,0.4,0.00033912744,0.0003595448,1.1828513e-05,466953,-0.0007005999,0.00245204,-0.01985414,0.5,6.4680526e-06,6.970736e-06,0.00021420875,1,1,1,1,1,1
