timestamp,x,y,z,vx,vy,vz,acceleration[0],acceleration[1],acceleration[2],thrust[0],thrust[1],thrust[2],yaw,yawspeed
200062335,nan,nan,nan,nan,nan,nan,0.0,0.0,100.0,-0.0,-0.0,-0.001,-2.1898737,0.0
200072392,nan,nan,nan,nan,nan,nan,0.0,0.0,100.0,-0.0,-0.0,-0.001,-2.1898775,0.0
200262336,nan,nan,nan,nan,nan,nan,0.0,0.0,100.0,-0.0,-0.0,-0.001,-2.1898527,0.0
200462298,nan,nan,nan,nan,nan,nan,0.0,0.0,100.0,-0.0,-0.0,-0.001,-2.1899707,0.0
200562339,nan,nan,nan,nan,nan,nan,0.0,0.0,100.0,-0.0,-0.0,-0.001,-2.189744,0.0
200662599,nan,nan,nan,nan,nan,nan,0.0,0.0,100.0,-0.0,-0.0,-0.001,-2.1897638,0.0
200762293,nan,nan,nan,nan,nan,nan,0.0,0.0,100.0,-0.0,-0.0,-0.001,-2.1897647,0.0
200862327,nan,nan,nan,nan,nan,nan,0.0,0.0,100.0,-0.0,-0.0,-0.001,-2.1895204,0.0
200962337,nan,nan,nan,nan,nan,nan,0.0,0.0,100.0,-0.0,-0.0,-0.001,-2.1895194,0.0
201062310,nan,nan,nan,nan,nan,nan,0.0,0.0,100.0,-0.0,-0.0,-0.001,-2.1895223,0.0
201162534,nan,nan,nan,nan,nan,nan,0.0,0.0,100.0,-0.0,-0.0,-0.001,-2.1893747,0.0
201262310,nan,nan,nan,nan,nan,nan,0.0,0.0,100.0,-0.0,-0.0,-0.001,-2.1894007,0.0
201362301,nan,nan,nan,nan,nan,nan,0.0,0.0,100.0,-0.0,-0.0,-0.001,-2.1892998,0.0
201462242,nan,nan,nan,nan,nan,nan,0.0,0.0,100.0,-0.0,-0.0,-0.001,-2.1891398,0.0
201562271,nan,nan,nan,nan,nan,nan,0.0,0.0,100.0,-0.0,-0.0,-0.001,-2.189135,0.0
201662571,nan,nan,nan,nan,nan,nan,0.0,0.0,100.0,-0.0,-0.0,-0.001,-2.1890385,0.0
201762271,nan,nan,nan,nan,nan,nan,0.0,0.0,100.0,-0.0,-0.0,-0.001,-2.1889389,0.0
201862271,nan,nan,nan,nan,nan,nan,0.0,0.0,100.0,-0.0,-0.0,-0.001,-2.1888769,0.0
201962252,nan,nan,nan,nan,nan,nan,0.0,0.0,100.0,-0.0,-0.0,-0.001,-2.188822,0.0
202062280,nan,nan,nan,nan,nan,nan,0.0,0.0,100.0,-0.0,-0.0,-0.001,-2.1888056,0.0
202162562,nan,nan,nan,nan,nan,nan,0.0,0.0,100.0,-0.0,-0.0,-0.001,-2.188765,0.0
202262317,nan,nan,nan,nan,nan,nan,0.0,0.0,100.0,-0.0,-0.0,-0.001,-2.1887054,0.0
202362346,nan,nan,nan,nan,nan,nan,0.0,0.0,100.0,-0.0,-0.0,-0.001,-2.1886692,0.0
202462284,nan,nan,nan,nan,nan,nan,0.0,0.0,100.0,-0.0,-0.0,-0.001,-2.1885953,0.0
202562357,nan,nan,nan,nan,nan,nan,0.0,0.0,100.0,-0.0,-0.0,-0.001,-2.1885686,0.0
202662603,nan,nan,nan,nan,nan,nan,0.0,0.0,100.0,-0.0,-0.0,-0.001,-2.1884634,0.0
202762285,nan,nan,nan,nan,nan,nan,0.0,0.0,100.0,-0.0,-0.0,-0.001,-2.1883512,0.0
202862313,nan,nan,nan,nan,nan,nan,0.0,0.0,100.0,-0.0,-0.0,-0.001,-2.1883178,0.0
202962321,nan,nan,nan,nan,nan,nan,0.0,0.0,100.0,-0.0,-0.0,-0.001,-2.1882322,0.0
203062247,nan,nan,nan,nan,nan,nan,0.0,0.0,100.0,-0.0,-0.0,-0.001,-2.1881359,0.0
203162545,nan,nan,nan,nan,nan,nan,0.0,0.0,100.0,-0.0,-0.0,-0.001,-2.1880028,0.0
203262291,nan,nan,nan,nan,nan,nan,0.0,0.0,100.0,-0.0,-0.0,-0.001,-2.1878488,0.0
203362278,nan,nan,nan,-0.004489049,-0.00031721563,2.3244498,0.20640355,0.025352648,9.304013,0.00053939706,6.6254404e-05,-0.025627354,-2.1878273,6.174839e-13
203462262,0.0061271894,-1.0153669,nan,0.0015673124,0.0009856045,2.142735,0.0280443,0.01413263,9.004743,0.00011690649,5.8913796e-05,-0.04088591,-2.1878273,2.241847e-13
203562283,0.0061271894,-1.0153669,nan,0.004768824,0.0018081308,1.961013,0.035412524,0.013916162,8.665164,0.00020909762,8.2169696e-05,-0.0581996,-2.1878273,6.763455e-14
203662576,0.0061271894,-1.0153669,nan,0.007563317,0.0019932925,1.779291,0.04256586,0.019324005,8.291274,0.00033570212,0.0001524017,-0.07726268,-2.1878273,2.2307973e-14
203762277,0.0061271894,-1.0153669,nan,0.00925396,0.0026747107,1.5975691,0.047647074,0.0074920384,7.877638,0.00047677718,7.4968564e-05,-0.09835226,-2.1878273,7.400154e-15
203862325,0.0061271894,-1.0153669,nan,0.010699915,0.0037442327,1.415849,0.036945034,0.0049830214,7.433315,0.00045356722,6.117561e-05,-0.12100643,-2.1878273,2.4471824e-15
203962276,0.0061271894,-1.0153669,nan,0.013183699,0.0038148998,1.2341251,0.048737414,0.0050745592,6.968312,0.0007184628,7.480664e-05,-0.14471498,-2.1878273,8.887922e-16
204062270,0.0061271894,-1.0153669,nan,0.016199604,0.0035318912,1.0524032,0.06462992,0.036063887,6.4619036,0.0011241599,0.00062728795,-0.17053461,-2.1878273,2.6549695e-16
204162567,0.0061271894,-1.0153669,nan,0.01926445,0.00277856,0.8706813,0.08317739,-0.0007011313,5.8946986,0.0016910358,-1.4254332e-05,-0.19945402,-2.1878273,8.845605e-17
204262354,0.0061271894,-1.0153669,nan,0.020704456,0.00068877934,0.6889576,0.08321497,0.00590765,5.3103285,0.0019452537,0.00013809868,-0.2292486,-2.1878273,2.9325277e-17
204362312,0.0061271894,-1.0153669,nan,0.021568656,-0.0021859289,0.50723743,0.07143609,-0.014380098,4.6731567,0.0019063001,-0.00038373852,-0.26173532,-2.1878273,9.706172e-18
204462278,0.0061271894,-1.0153669,nan,0.021475498,-0.0043153465,0.32551554,0.009270459,-0.011312469,4.068921,0.000279064,-0.00034053362,-0.29254276,-2.1878273,3.55763e-18
204562315,0.0061271894,-1.0153669,nan,0.021597289,-0.0047123968,0.14379361,0.052912604,0.0005154256,3.3509023,0.0017787633,1.7327062e-05,-0.32915154,-2.1878273,1.0732857e-18
204662548,0.0061271894,-1.0153669,nan,0.02182321,-0.004499376,-0.03792846,0.024690332,-0.03228139,2.6201015,0.00092549226,-0.0012100355,-0.366412,-2.1878273,3.9445945e-19
204762344,0.0061271894,-1.0153669,nan,0.021144284,-0.003731209,-0.21965037,0.042748317,-0.010078015,1.8921638,0.001757679,-0.00041437693,-0.40352648,-2.1878273,1.1753222e-19
204962312,0.0061271894,-1.0153669,nan,0.020058557,-0.0027910173,-0.58309436,0.052096296,-0.023304766,0.2882793,0.002573088,-0.0011510456,-0.48530185,-2.1878273,1.4398702e-20
205062311,0.0061271894,-1.0153669,nan,0.020421864,-0.0028108358,-0.7648163,0.07442166,-0.016568363,-0.59118676,0.0040270286,-0.0008965303,-0.5301421,-2.1878273,4.346033e-21
205162565,0.0061271894,-1.0153669,nan,0.021367332,-0.002769047,-0.94653815,0.057608336,0.0017108629,-1.4819963,0.003370984,0.0001001121,-0.5755608,-2.1878273,1.4340306e-21
205262298,0.0061271894,-1.0153669,nan,0.021252675,-0.002124548,-1.1282601,0.016860433,0.025549488,-2.4054475,0.001065678,0.001614877,-0.6226437,-2.1878273,4.757346e-22
205362269,0.0061271894,-1.0153669,nan,0.018917311,0.00037213563,-1.309984,-0.02027113,0.08468983,-3.2582715,-0.0013764928,0.005750787,-0.6661256,-2.1878273,1.574502e-22
205462247,0.0061271894,-1.0153669,nan,0.013612794,0.005264598,-1.4917039,-0.19444752,0.15003791,-4.156745,-0.014116156,0.010892185,-0.711935,-2.1878273,5.7143014e-23
205562321,0.0061271894,-1.0153669,nan,0.0048908098,0.011461007,-1.5,-0.3036793,0.16758762,-4.3206387,-0.022305978,0.012309716,-0.72029126,-2.1878273,1.7059502e-23
205662546,0.0061271894,-1.0153669,nan,-0.008281669,0.018586056,-1.5,-0.32040974,0.23747809,-4.317824,-0.023529245,0.017439172,-0.7201477,-2.1878273,5.6306276e-24
205762276,0.0061271894,-1.0153669,nan,-0.025402794,0.027831351,-1.5,-0.47889733,0.19781084,-4.261766,-0.035027366,0.014468222,-0.71728957,-2.1878273,1.8500981e-24
205862286,0.0061271894,-1.0153669,nan,-0.043569952,0.036165785,-1.5,-0.4777532,0.21662953,-4.28686,-0.035007235,0.01587347,-0.71856904,-2.1878273,6.120461e-25
205962246,0.0061271894,-1.0153669,nan,-0.062346138,0.042630706,-1.5,-0.5364676,0.17172806,-4.373378,-0.039549794,0.012660241,-0.7229802,-2.1878273,2.2210223e-25
206062307,0.0061271894,-1.0153669,nan,-0.08335939,0.046101782,-1.5,-0.58745885,0.14259413,-4.480198,-0.043636043,0.010591795,-0.7284265,-2.1878273,6.633849e-26
206162305,0.0061271894,-1.0153669,nan,-0.10575892,0.047566883,-1.5,-0.6094494,0.13285507,-4.580185,-0.04558643,0.009937475,-0.73352444,-2.1878273,2.1946788e-26
206262341,0.0061271894,-1.0153669,nan,-0.128988,0.047296558,-1.5,-0.6103628,0.19945116,-4.729264,-0.046127204,0.015073205,-0.74112535,-2.1878273,7.2566136e-27
206662280,0.0061271894,-1.0153669,nan,-0.1787397,0.03926914,-1.5,-0.43870202,0.022405725,-4.749214,-0.033199787,0.0016956051,-0.74214256,-2.0716343,9.569873e-29
206762312,0.0061271894,-1.0153669,nan,-0.1857344,0.034780864,-1.5,-0.39800984,0.035703056,-4.718557,-0.030057391,0.0026962669,-0.7405794,-2.0716343,2.8801226e-29
206862360,0.0061271894,-1.0153669,nan,-0.18701774,0.030907076,-1.5,-0.40391785,0.066775,-4.7209563,-0.030508323,0.005043583,-0.7407018,-2.0716343,9.5251545e-30
206962285,0.0061271894,-1.0153669,nan,-0.18347515,0.02777552,-1.5,-0.34776905,0.022973804,-4.762541,-0.02634179,0.0017401522,-0.742822,-2.0716343,3.4580885e-30
207062313,0.0061271894,-1.0153669,nan,-0.17554861,0.025440555,-1.5,-0.30151463,0.016559476,-4.8114386,-0.022915233,0.0012585267,-0.7453151,-2.0716343,1.0336667e-30
207162268,0.0061271894,-1.0153669,nan,-0.16608398,0.022718733,-1.5,-0.26463062,0.035070356,-4.803898,-0.020103032,0.0026641684,-0.7449306,-2.0716343,3.420871e-31
207262284,0.0061271894,-1.0153669,nan,-0.15744683,0.023122013,-1.5,-0.19700003,0.021183155,-4.7525034,-0.0149134295,0.0016036218,-0.7423102,-2.0716343,1.1421846e-31
207362306,0.0061271894,-1.0153669,nan,-0.14768419,0.02301703,-1.5,-0.14612687,0.043960042,-4.8181057,-0.01111154,0.0033427372,-0.745655,-2.0716343,3.7786348e-32
207462247,0.0061271894,-1.0153669,nan,-0.13599442,0.02017256,-1.5,-0.09689806,0.01047624,-4.814345,-0.0073680263,0.0007966022,-0.74546325,-2.0716343,1.3721866e-32
207562302,0.0061271894,-1.0153669,nan,-0.1209159,0.015912252,-1.5,-0.02622569,-0.08758277,-4.825824,-0.0019950878,-0.006662754,-0.7460485,-2.0716343,4.0969982e-33
207662280,0.0061271894,-1.0153669,nan,-0.10310722,0.0121733425,-1.5,0.054510135,-0.10912935,-4.8239956,0.0041450574,-0.008298409,-0.74595535,-2.0716343,1.3428322e-33
207762274,0.0061271894,-1.0153669,nan,-0.08687019,0.006750083,-1.5,0.092696935,-0.15086812,-4.752508,0.00701637,-0.011419434,-0.74231046,-2.0716343,4.4419613e-34
207862298,nan,nan,nan,-0.07226242,0.0030852773,-1.5,0.23520228,-0.19510865,-4.731016,0.01777842,-0.014747834,-0.7412147,-2.0716343,1.4693302e-34
207962247,nan,nan,nan,-0.042459022,-0.004992962,-1.5,0.37345886,-0.2078024,-4.74492,0.02825448,-0.015721539,-0.7419236,-2.0716343,5.3321285e-35
208062296,nan,nan,nan,-0.023422072,-0.016391868,-1.5,0.17918578,-0.19940856,-4.722275,0.013536773,-0.015064524,-0.740769,-2.0716343,1.5927475e-35
208162342,nan,nan,nan,-0.021374952,-0.028346721,-1.5,0.06601016,-0.24440941,-4.7178416,0.0049843392,-0.018455029,-0.74054295,-2.0716343,5.216726e-36
208262303,nan,nan,nan,-0.026800241,-0.043752253,-1.5,-0.07117145,-0.31997997,-4.739051,-0.005382065,-0.024197247,-0.74162436,-2.0716343,1.7428305e-36
208362307,nan,nan,nan,-0.03641578,-0.06172105,-1.5,-0.14006016,-0.34300834,-4.7971897,-0.01063437,-0.026043652,-0.7445886,-2.0980768,5.767673e-37
208462285,nan,nan,nan,-0.048237063,-0.082283586,-1.5,-0.20679438,-0.37853786,-4.848496,-0.015756708,-0.028842712,-0.7472045,-2.0980768,2.0935303e-37
208562290,nan,nan,nan,-0.07130499,-0.12205167,-1.5,-0.34372643,-0.49535507,-4.86632,-0.026221886,-0.037789196,-0.7481133,-2.0980768,6.9447595e-38
208662343,nan,nan,nan,-0.10689073,-0.18325754,-1.5,-0.46078938,-0.7951082,-4.8764515,-0.035175897,-0.060697243,-0.7486298,-2.0980768,2.0695137e-38
208762308,nan,nan,nan,-0.15060626,-0.25838545,-1.5,-0.5479456,-0.9234551,-4.8250303,-0.04168293,-0.07024842,-0.7460081,-2.0980768,6.915788e-39
208862336,nan,nan,nan,-0.19983979,-0.34297454,-1.5,-0.53299046,-1.0137168,-4.724532,-0.040266827,-0.076585166,-0.74088407,-2.0980768,2.310036e-39
208962300,nan,nan,nan,-0.24632603,-0.4228343,-1.5,-0.5381727,-1.0815467,-4.6686664,-0.040502124,-0.081395686,-0.73803574,-2.0980768,8.39193e-40
209062317,nan,nan,nan,-0.30799118,-0.52876174,-1.5,-0.5665842,-1.1847727,-4.61572,-0.042484388,-0.088838235,-0.7353362,-2.0980768,2.52918e-40
209162300,nan,nan,nan,-0.36248976,-0.6223753,-1.5,-0.5307319,-1.1875143,-4.535346,-0.039574377,-0.088547796,-0.7312383,-2.0980768,8.3728e-41
209262275,nan,nan,nan,-0.41513017,-0.712795,-1.5,-0.5364645,-1.1249676,-4.465769,-0.039807655,-0.08347677,-0.7276908,-2.0980768,2.771e-41
209362299,nan,nan,nan,-0.4712307,-0.8096502,-1.5,-0.613735,-1.24477,-4.3931236,-0.045309722,-0.09189663,-0.723987,-2.0938957,9.167e-42
209462287,nan,nan,nan,-0.52805775,-0.9111649,-1.5,-0.7211339,-1.4213077,-4.3245163,-0.052981347,-0.10442276,-0.72048897,-2.0835147,3.332e-42
209562297,nan,nan,nan,-0.60973144,-1.0600582,-1.5,-0.80618596,-1.6772355,-0.22411864,-0.058847643,-0.122430004,-0.71583825,-2.0786088,1.005e-42
209662282,nan,nan,nan,-0.68632376,-1.200617,-1.5,-0.86207354,-1.6992261,-0.19986741,-0.06265085,-0.12349059,-0.7126936,-2.077346,3.34e-43
209762276,nan,nan,nan,-0.76087177,-1.3381797,-1.5,-0.8198253,-1.6800324,-0.17892085,-0.059540465,-0.122013696,-0.7122159,-2.0754366,1.11e-43
209862281,nan,nan,nan,-0.82880074,-1.4643589,-1.5,-0.7274479,-1.5764029,-0.17289744,-0.052791722,-0.11440135,-0.71167856,-2.0735064,3.6e-44
209962279,nan,nan,nan,-0.8825579,-1.5653573,-1.5,-0.6287932,-1.4119143,-0.17497289,-0.04568421,-0.102580935,-0.7124896,-2.071392,1.4e-44
210062278,nan,nan,nan,-0.94413716,-1.6824969,-1.5,-0.61885,-1.3336873,-0.16613607,-0.044796586,-0.09654138,-0.70987207,-2.068272,4e-45
210162332,nan,nan,nan,-0.9975597,-1.7848324,-1.5,-0.60436845,-1.2857444,-0.11748283,-0.04364532,-0.09285185,-0.7082017,-2.0675178,3e-45
210262324,nan,nan,nan,-1.0508484,-1.8869998,-1.5,-0.5430316,-1.3734661,-0.037665226,-0.038867824,-0.09830669,-0.7019188,-2.0659244,1e-45
210362322,nan,nan,nan,-1.1028817,-1.9885926,-1.5,-0.52155197,-1.3364837,-0.05401638,-0.037383184,-0.095794894,-0.7029092,-2.0616584,1e-45
210462544,nan,nan,nan,-1.1514099,-2.0850606,-1.5,-0.50800717,-1.2355006,-0.108315945,-0.03666223,-0.08916449,-0.7077316,-2.0591512,1e-45
210562300,nan,nan,nan,-1.1814479,-2.1840947,-1.5,-0.36769584,-1.281698,-0.1049771,-0.026519982,-0.09244218,-0.7073016,-1.985984,0.021016793
210662302,nan,nan,nan,-1.212069,-2.2875793,-1.5,-0.41175568,-1.3284941,-0.13306683,-0.029785644,-0.09610081,-0.7093967,-1.9773178,0.03714335
210762351,nan,nan,nan,-1.2376182,-2.3845532,-1.5061175,-0.36353487,-1.2822891,-0.4075093,-0.027009064,-0.09526854,-0.7285918,-1.9652921,0.023194587
210862274,nan,nan,nan,-1.2523707,-2.456403,-1.5433822,-0.34547532,-1.0129802,-0.62760305,-0.026208408,-0.076846585,-0.7439495,-1.9528399,0.008441102
210962524,nan,nan,nan,-1.2575088,-2.5174854,-1.590601,-0.27212298,-0.6978974,-0.5351057,-0.020484135,-0.052534416,-0.7381959,-1.9429005,0.0025355658
211262308,nan,nan,nan,-1.2663392,-2.675042,-1.7340518,-0.18521221,-0.6852461,-0.7850435,-0.014278881,-0.052828845,-0.7560365,-1.9317278,9.197486e-05
211362270,nan,nan,nan,-1.259784,-2.6986449,-1.7823576,-0.037672624,-0.5498755,-0.9649387,-0.0029536576,-0.04311205,-0.76887745,-1.9312606,3.0447465e-05
211462461,nan,nan,nan,-1.2476354,-2.7057397,-1.8333701,-0.020145878,-0.37348878,-0.92040354,-0.0015712044,-0.029128898,-0.76482356,-1.9291774,1.0056165e-05
211562272,nan,nan,nan,-1.2329268,-2.703527,-1.8841622,-0.03675118,-0.23190701,-0.8618554,-0.0028532979,-0.018004857,-0.7613604,-1.9306331,3.333579e-06
211662273,nan,nan,nan,-1.2177722,-2.6964595,-1.9205774,-0.039239153,-0.1835615,-0.46171582,-0.0029325087,-0.013718332,-0.7329573,-1.9342746,1.0923444e-06
211762313,nan,nan,nan,-1.2027956,-2.6854877,-1.8831853,-0.118593365,-0.27979255,0.51697457,-0.008017506,-0.018915383,-0.6629962,-1.9407953,3.647209e-07
211862278,nan,nan,nan,-1.1893971,-2.6734986,-1.7658486,-0.1425043,-0.2665066,1.3475418,-0.00877478,-0.01641029,-0.6038123,-1.9487915,1.2074928e-07
211962494,nan,nan,nan,-1.1749959,-2.6557631,-1.5680283,-0.13602763,-0.17227837,2.1194446,-0.00761183,-0.009640349,-0.54871374,-1.9502478,3.987273e-08
212062318,nan,nan,nan,-1.1599748,-2.635298,-1.3022634,-0.11984667,-0.13372838,2.1922793,-0.0066422215,-0.0074115824,-0.5435148,-1.9502478,1.3207497e-08
212162272,nan,nan,nan,-1.1457322,-2.6157541,-1.0705628,0.018890366,-0.1447562,1.3248874,0.001166041,-0.00893533,-0.60542935,-1.9502478,4.3298654e-09
212262327,nan,nan,nan,-1.1302221,-2.5920827,-0.9060422,-0.05087334,-0.14738226,0.3821895,-0.0034897884,-0.010110067,-0.67271924,-1.9502478,1.4315652e-09
212362338,nan,nan,nan,-1.1072328,-2.5487351,-0.82055414,0.021101266,0.26878142,-0.41696316,0.001569988,0.019998021,-0.72968537,-1.9502478,4.737011e-10
212462458,nan,nan,nan,-1.0754877,-2.481266,-0.8048065,0.11151242,0.46121022,-0.56247646,0.008407604,0.034773458,-0.73937625,-1.9502478,1.7403433e-10
212562332,nan,nan,nan,-1.02006,-2.3562253,-0.74162835,0.23338255,1.0882186,0.121184886,0.016431311,0.076616086,-0.69044,-1.9502478,5.2341225e-11
212662315,nan,nan,nan,-0.95109105,-2.1969373,-0.6848777,0.37490392,1.3740155,0.06143868,0.026544454,0.09728489,-0.69434315,-1.9502478,1.732003e-11
212762302,nan,nan,nan,-0.8741657,-2.0192466,-0.68281037,0.43539304,1.4483615,-0.65449953,0.033124242,0.110189825,-0.7460795,-1.9502478,5.730515e-12
213062337,nan,nan,nan,-0.6326262,-1.4613113,-0.6493845,0.3712508,1.5137898,0.064558044,0.026309162,0.10727664,-0.6949604,-1.9502478,2.116222e-13
213162318,nan,nan,nan,-0.5575181,-1.2878182,-0.62962186,0.21217501,1.3119979,-0.023110166,0.015170473,0.0938076,-0.70117533,-1.9502478,6.9358365e-14
213262284,nan,nan,nan,-0.48731685,-1.1256593,-0.637568,0.22007173,1.3521446,-0.35558233,0.016278353,0.10001596,-0.7253815,-1.9502478,2.316771e-14
213362312,nan,nan,nan,-0.4232208,-0.9776031,-0.6519647,0.23135191,1.1577349,-0.3705689,0.017131027,0.08572735,-0.72615737,-1.9502478,7.5895025e-15
213462491,nan,nan,nan,-0.36465675,-0.8423252,-0.65066886,0.15517926,1.1134901,-0.47268552,0.011603197,0.08325884,-0.7332719,-1.9502478,2.531411e-15
213562310,nan,nan,nan,-0.3093559,-0.71458507,-0.65036505,0.1415829,1.1034635,-0.471882,0.0105898855,0.08253506,-0.7334993,-1.9502478,8.3851714e-16
213662298,nan,nan,nan,-0.25704652,-0.5937549,-0.6474755,0.101582736,1.0097234,-0.30279022,0.007473128,0.07428223,-0.72144496,-1.9502478,2.7479456e-16
213762270,nan,nan,nan,-0.2082918,-0.48113582,-0.6516331,0.093235254,1.0411594,-0.49627072,0.0069876867,0.07803159,-0.7349747,-1.9502478,9.093735e-17
213862310,nan,nan,nan,-0.16362697,-0.37796402,-0.6471434,0.10247144,0.9786673,-0.3721317,0.007590345,0.072492614,-0.72640187,-1.9502478,3.0084218e-17
213962496,nan,nan,nan,-0.12350628,-0.2852887,-0.6487959,0.09821832,0.85759443,-0.5133056,0.007373677,0.06438334,-0.7362253,-1.9502478,9.937989e-18
214062281,nan,nan,nan,-0.08850506,-0.20443895,-0.6471435,0.02602756,0.7327165,-0.28873557,0.0019112113,0.053803585,-0.72010547,-1.9502478,3.2944792e-18
214162290,nan,nan,nan,-0.058834244,-0.13590196,-0.65040445,-0.034507334,0.5876533,-0.11231443,-0.0024907396,0.04241682,-0.70783126,-1.9502478,1.0794468e-18
214262302,nan,nan,nan,-0.034699414,-0.08015261,-0.6519647,-0.092610866,0.52367204,-0.25829044,-0.0067820596,0.03834944,-0.7181612,-1.9502478,3.6051858e-19
214362334,nan,nan,nan,-0.016546354,-0.03822063,-0.650259,-0.20234442,0.34799537,-0.3972368,-0.015022198,0.025835432,-0.7280711,-1.9502478,1.2044682e-19
214462515,nan,nan,nan,-0.0046952195,-0.010845547,-0.6519647,-0.18766797,0.1990475,-0.22302258,-0.013691299,0.014521491,-0.71545166,-1.9502478,4.0178563e-20
214562300,-4.2299323,-9.889851,nan,0.0,0.0,-0.65027374,-0.29681686,-0.06265843,-0.052161783,-0.021291746,-0.004494716,-0.70343924,-1.9502478,1.3312676e-20
214662343,-4.2299323,-9.889851,nan,-0.006461978,0.0014758586,-0.6519647,-0.34130046,-0.027428515,-0.23794466,-0.024950037,-0.0020051028,-0.71689236,-1.9502478,4.4472913e-21
214762273,-4.2299323,-9.889851,nan,-0.009901571,0.0008561611,-0.64856356,-0.35889494,-0.075694755,-0.10597879,-0.025873205,-0.0054569333,-0.7069665,-1.9502478,1.63061e-21
214862314,-4.2299323,-9.889851,nan,-0.014246702,-0.00012865066,-0.64748764,-0.35760915,0.0387789,-0.20817257,-0.026059119,0.0028258339,-0.7146367,-1.9502478,4.9659756e-22
214962558,-4.2299323,-9.889851,nan,-0.023551226,-0.00058345794,-0.6519647,-0.4066186,-0.015616838,-0.27044043,-0.02981241,-0.0011449934,-0.71896696,-1.9502478,1.6554021e-22
215062289,-4.2299323,-9.889851,nan,-0.032575343,1.1777877e-05,-0.6519647,-0.45225298,-0.091922805,-0.3165842,-0.03331483,-0.006771415,-0.7223971,-1.9502478,6.0350415e-23
215162331,-4.2299323,-9.889851,nan,-0.04228439,8.335114e-05,-0.65141165,-0.55736446,-0.16848698,-0.2683726,-0.040864836,-0.012353126,-0.7190108,-1.9502478,1.7984964e-23
215262245,-4.2299323,-9.889851,nan,-0.05370531,-0.0024833202,-0.6485746,-0.45448044,-0.3777781,-0.18158877,-0.033026535,-0.02745267,-0.7126227,-1.9502478,6.599359e-24
215362267,-4.2299323,-9.889851,nan,-0.06487391,-0.009558201,-0.6611134,-0.47605017,-0.31630588,-0.29523733,-0.03498462,-0.023245113,-0.72068655,-1.9502478,1.989323e-24
215462461,-4.2299323,-9.889851,nan,-0.07859423,-0.021583414,-0.64234453,-0.5897877,-0.533733,-0.19105735,-0.04288169,-0.03880612,-0.71301305,-1.9502478,6.634274e-25
215562272,nan,nan,nan,-0.09235532,-0.03704958,-0.61900395,-0.6749905,-0.5267937,-0.15714538,-0.048937947,-0.03819343,-0.71100163,-1.9502478,2.1981464e-25
215662298,nan,nan,nan,-0.061207443,-0.033776406,-0.618683,-0.41388708,-0.42797315,-0.35852352,-0.030613715,-0.03165561,-0.7253669,-1.9502478,7.270985e-26
215762239,nan,nan,nan,-0.040457327,-0.037360754,-0.618683,-0.36907434,-0.45974392,-0.3382455,-0.027241353,-0.03393367,-0.72383165,-1.9502478,2.6678678e-26
215862273,nan,nan,nan,-0.039027855,-0.06670731,-0.618683,-0.7124542,-1.0849875,-0.3740607,-0.05278418,-0.08038436,-0.72655374,-1.9502478,8.03936e-27
215962537,nan,nan,nan,-0.049745638,-0.105603084,-0.618683,-0.58122987,-1.1853182,-0.36995408,-0.043053318,-0.08779983,-0.72640735,-1.9502478,2.6794111e-27
216062278,nan,nan,nan,-0.06813276,-0.15754592,-0.6140165,-0.6271627,-1.2560589,-0.47708943,-0.04694491,-0.09401958,-0.7340547,-1.9502478,8.884283e-28
216162271,nan,nan,nan,-0.09266189,-0.22231618,-0.60398114,-0.7548023,-1.4336951,-0.53976023,-0.056840908,-0.10796541,-0.7384979,-1.9502478,2.9113703e-28
216262305,nan,nan,nan,-0.12039109,-0.29362613,-0.59605664,-0.7792795,-1.3933289,-0.3850089,-0.057771824,-0.10329432,-0.7270152,-1.9502478,1.0567871e-28
216362273,nan,nan,nan,-0.15242982,-0.3752751,-0.5864675,-0.82571304,-1.4552698,-0.5962193,-0.06252303,-0.110193096,-0.7425582,-1.9502478,3.5037435e-29
216462551,nan,nan,nan,-0.18871568,-0.46727479,-0.57306254,-0.86509925,-1.5748233,-0.603082,-0.065548375,-0.11932401,-0.7430481,-1.9502478,1.0622525e-29
216562303,nan,nan,nan,-0.21893355,-0.54372925,-0.56810236,-0.7498839,-1.4370904,-0.9108751,-0.058498643,-0.1121078,-0.76501834,-1.9502478,3.522012e-30
216662306,nan,nan,nan,-0.23642537,-0.5881371,-0.5729773,-0.6117532,-0.99324596,-0.86702347,-0.047520578,-0.07715468,-0.76177424,-1.9502478,1.1651875e-30
216762286,nan,nan,nan,-0.2366139,-0.5890241,-0.56852186,-0.39726016,-0.6212436,-0.98778856,-0.031197833,-0.048787814,-0.7701411,-1.9502478,4.233184e-31
216862310,nan,nan,nan,-0.22159246,-0.55179214,-0.57305217,-0.18105406,-0.48605764,-0.9457083,-0.014165073,-0.038027547,-0.7672507,-1.9502478,1.2756546e-31
216962554,nan,nan,nan,-0.20058116,-0.49948257,-0.5729773,-0.2706107,-0.26212335,-0.85975957,-0.021010432,-0.020351468,-0.76136976,-1.9502478,4.2522277e-32
217062344,nan,nan,nan,-0.17666724,-0.4399327,-0.5729773,-0.14240858,-0.24523509,-0.87376285,-0.011071322,-0.0190654,-0.7623693,-1.9502478,1.4092937e-32
217162310,nan,nan,nan,-0.15088573,-0.37573215,-0.5729773,-0.32505676,-0.14842469,-0.91050005,-0.025354566,-0.011577189,-0.7648896,-1.9502478,4.6198177e-33
217262284,nan,nan,nan,-0.12663993,-0.31535587,-0.57745326,-0.3369333,-0.0029847026,-0.8973401,-0.026242318,-0.00023246593,-0.76381123,-1.9502478,1.6789068e-33
217362308,nan,nan,nan,-0.09775665,-0.24343137,-0.5766035,-0.29448622,-0.0815171,-1.0162438,-0.02319658,-0.0064210747,-0.77252203,-1.9502478,5.058063e-34
217462455,nan,nan,nan,-0.07595249,-0.18917683,-0.5729773,-0.4370616,-0.48337808,-0.8909012,-0.03402905,-0.037635196,-0.763532,-1.9502478,1.6870487e-34
217562306,nan,nan,nan,-0.077376895,-0.19307944,-0.57723945,-0.590155,-1.1837177,-0.91254133,-0.046043187,-0.092352234,-0.76509863,-1.9502478,5.5883564e-35
217662277,nan,nan,nan,-0.107132964,-0.26795423,-0.56852186,-0.90032244,-1.8536754,-0.8935262,-0.07009263,-0.14431384,-0.7634764,-1.9502478,1.8492602e-35
217762308,nan,nan,nan,-0.15905634,-0.3983327,-0.5729773,-1.2494466,-2.6999109,-0.9197538,-0.097541556,-0.21077612,-0.7655838,-1.9502478,6.714396e-36
217862278,nan,nan,nan,-0.25563815,-0.640661,-0.56874144,-1.6187364,-3.589487,-0.8015603,-0.12498358,-0.27714643,-0.7571774,-1.9502478,2.024794e-36
217962491,nan,nan,nan,-0.3668663,-0.9196309,-0.5729773,-1.7652625,-3.7056682,-0.8737823,-0.13723184,-0.28807935,-0.7623707,-1.9502478,6.752063e-37
218062274,nan,nan,nan,-0.47054747,-1.1796613,-0.5729773,-1.5507555,-3.266902,-0.9471036,-0.1213836,-0.25571296,-0.76760435,-1.9502478,2.2374053e-37
218162281,nan,nan,nan,-0.5515295,-1.3827657,-0.56852186,-1.3583767,-2.6898534,-1.0990967,-0.10782468,-0.21351406,-0.7784278,-1.9502478,7.403577e-38
218262273,nan,nan,nan,-0.61241925,-1.5354793,-0.5640869,-1.1015455,-2.2622728,-1.2760204,-0.08885931,-0.1824927,-0.7910825,-1.9502478,2.6899737e-38
218362302,nan,nan,nan,-0.6712344,-1.6829925,-0.54223824,-1.0422822,-1.898663,-1.1897244,-0.083424084,-0.15196864,-0.78492266,-1.9502478,8.104314e-39
218462531,nan,nan,nan,-0.69751805,-1.7489233,-0.5208407,-0.6626626,-1.1068339,-1.0512016,-0.052361805,-0.08745901,-0.7748933,-1.9502478,2.701144e-39
218562343,nan,nan,nan,-0.6941165,-1.7404113,-0.5192265,-0.39537227,-0.3860289,-1.2143474,-0.031716228,-0.030966712,-0.7866803,-1.9502478,9.04172e-40
218662332,nan,nan,nan,-0.6680691,-1.6751084,-0.51662016,-0.24221131,0.10183501,-0.87244457,-0.018826269,0.007915293,-0.7622752,-1.9502478,2.992e-40
218762275,nan,nan,nan,-0.6439976,-1.6147574,-0.52083766,-0.24524456,-0.0016897917,-0.63844675,-0.018636325,-0.00012840857,-0.74521637,-1.9502478,1.0868e-40
218862334,nan,nan,nan,-0.6179488,-1.5494492,-0.52083766,-0.32451153,-0.31018144,-0.48636776,-0.024303325,-0.023230117,-0.7344469,-1.9502478,3.2757e-41
218962544,nan,nan,nan,-0.5962241,-1.4949824,-0.5057169,-0.49781126,-0.54246384,-0.13639553,-0.036006186,-0.039235864,-0.7093133,-1.9502478,1.0923e-41
219062325,nan,nan,nan,-0.5768394,-1.4463819,-0.46044475,-0.36041588,-0.5565083,0.029756546,-0.025636055,-0.039583936,-0.69754654,-1.9502478,3.622e-42
219162307,nan,nan,nan,-0.5604912,-1.4053955,-0.4131802,-0.4865389,-0.61345303,-0.25126833,-0.035619237,-0.04491055,-0.71793556,-1.9502478,1.2e-42
219262277,nan,nan,nan,-0.549855,-1.3787314,-0.39130506,-0.39981902,-0.6327336,-0.6851229,-0.030532511,-0.048319224,-0.74890417,-1.9502478,4.36e-43
219362290,nan,nan,nan,-0.54426944,-1.3647336,-0.3742957,-0.4527288,-0.6279723,-0.4142264,-0.03367671,-0.046712387,-0.7294772,-1.9502478,1.3e-43
219462459,nan,nan,nan,-0.54038274,-1.3549945,-0.3375239,-0.43520534,-0.85043657,-0.29150683,-0.031988274,-0.06250843,-0.7208078,-1.9502478,4.2e-44
219562299,nan,nan,nan,-0.5379088,-1.3487974,-0.30037162,-0.5485788,-0.82082725,-0.3199224,-0.04043495,-0.06050198,-0.7228361,-1.9502478,1.3e-44
219662268,nan,nan,nan,-0.53610104,-1.3442703,-0.28771913,-0.5909464,-0.78361493,-0.58432025,-0.04468273,-0.059250813,-0.7415007,-1.9502478,4e-45
219762246,nan,nan,nan,-0.5343118,-1.3397889,-0.29097602,-0.60569537,-0.88150257,-0.45645934,-0.045243386,-0.06584524,-0.7325205,-1.9502478,3e-45
219862336,nan,nan,nan,-0.53318816,-1.3369771,-0.30081877,-0.63558185,-0.8766331,-0.3501997,-0.046962515,-0.06477355,-0.7246037,-1.9502478,1e-45
219962519,nan,nan,nan,-0.53061616,-1.3305323,-0.30081877,-0.55639195,-0.6659305,-0.57324564,-0.04203675,-0.05031265,-0.74091834,-1.9502478,1e-45
220062283,nan,nan,nan,-0.5257167,-1.3182509,-0.29922616,-0.5401005,-0.8122196,-0.9667009,-0.04235243,-0.06369088,-0.7690032,-1.9502478,1e-45
220162297,nan,nan,nan,-0.5205633,-1.3053321,-0.2990982,-0.48666012,-0.6363737,-1.0934086,-0.03861097,-0.05048904,-0.7780476,-1.9502478,1e-45
220262251,nan,nan,nan,-0.5149765,-1.2913258,-0.29752576,-0.5627078,-0.68663794,-1.0159038,-0.044326913,-0.05408942,-0.77251536,-1.9502478,1e-45
220362307,nan,nan,nan,-0.49907646,-1.2514578,-0.29908505,-0.31552917,-0.20313144,-0.99651045,-0.02480843,-0.015971174,-0.77107316,-1.9502478,1e-45
220462299,nan,nan,nan,-0.47178644,-1.1830273,-0.29752576,-0.32753274,-0.19084781,-0.6530207,-0.024936676,-0.01453018,-0.74661267,-1.9502478,1e-45
220662316,nan,nan,nan,-0.39978212,-1.002473,-0.29799157,-0.21142039,0.25198513,-0.3857952,-0.015684528,0.018693883,-0.7275022,-1.9502478,1e-45
221062319,nan,nan,nan,-0.24142525,-0.6053854,-0.29931226,-0.1917527,0.4276948,-0.22033547,-0.013988276,0.031200148,-0.7154132,-1.9502478,1e-45
221162347,nan,nan,nan,-0.20228073,-0.5072286,-0.29752576,-0.07657397,0.5370712,-0.4919976,-0.0057395445,0.04025577,-0.73503256,-1.9502478,1e-45
221262324,nan,nan,nan,-0.16863558,-0.4228618,-0.30028686,-0.1487512,0.43554726,-0.6234364,-0.011292721,0.033065375,-0.7444613,-1.9502478,1e-45
221362290,nan,nan,nan,-0.13030422,-0.32674408,-0.29752576,-0.2850935,0.37124807,-0.74797755,-0.021901852,0.02852054,-0.7533809,-1.9502478,1e-45
221462312,nan,nan,nan,-0.09859229,-0.2472249,-0.2992563,-0.18710107,0.28042185,-0.5822625,-0.01414406,0.021198725,-0.74133915,-1.9502478,1e-45
221562288,nan,nan,nan,-0.0705107,-0.17680897,-0.29906523,-0.2210666,0.20000848,-0.955814,-0.017316842,0.015667293,-0.76822484,-1.9502478,1e-45
221662283,nan,nan,nan,-0.046504002,-0.116611026,-0.29752576,-0.3463942,0.117771775,-0.7049397,-0.026502864,0.009010801,-0.7503102,-1.9502478,1e-45
221762262,nan,nan,nan,-0.028783977,-0.07217721,-0.30041945,-0.3054925,-0.10916835,-0.5550716,-0.02303805,-0.008232694,-0.73952645,-1.9502478,1e-45
221862282,nan,nan,nan,-0.01246068,-0.031245753,-0.3007901,-0.33264613,-0.28019157,-0.5999055,-0.025194936,-0.021221975,-0.74277705,-1.9502478,1e-45
221962328,nan,nan,nan,-0.003199841,-0.008023756,-0.29909107,-0.5346755,-0.31033716,-0.80059445,-0.04128043,-0.02396005,-0.75714654,-1.9502478,1e-45
222062275,-5.7658434,-13.907815,nan,2.8085708e-05,0.0016661166,-0.30081743,-0.4935159,-0.5235677,-0.5185363,-0.03708304,-0.039341144,-0.73686874,-1.9502478,1e-45
222162300,-5.7658434,-13.907815,nan,-0.0004235506,0.007827759,-0.2992465,-0.5703273,-0.41666612,-0.367916,-0.042237196,-0.030857386,-0.72626185,-1.9502478,1e-45
222262254,-5.7658434,-13.907815,nan,-0.0012076854,0.011539602,-0.2946819,-0.63656914,-0.4554543,-0.41611373,-0.04736535,-0.033889093,-0.7296934,-1.9502478,1e-45
222362310,-5.7658434,-13.907815,nan,-0.0024579524,0.017011786,-0.2976075,-0.47443682,-0.32152712,-0.59694695,-0.035926737,-0.024347646,-0.74261016,-1.9502478,1e-45
222462370,-5.7658434,-13.907815,nan,0.0003080368,0.022566414,-0.29904538,-0.3622157,-0.25704184,-0.48767945,-0.027137911,-0.019258082,-0.73475087,-1.9502478,1e-45
222562350,-5.7658434,-13.907815,nan,0.0037086725,0.030334378,-0.2975258,-0.31534705,-0.27626717,-0.66221327,-0.024029838,-0.021051902,-0.74726886,-1.9502478,1e-45
222662311,-5.7658434,-13.907815,nan,0.00728054,0.039654303,-0.2992533,-0.3276662,-0.19758162,-0.48907864,-0.024554616,-0.014806352,-0.7349105,-1.9502478,1e-45
222762319,-5.7658434,-13.907815,nan,0.012897229,0.049895618,-0.29792106,-0.250408,-0.18361454,-0.6878781,-0.019127643,-0.014025565,-0.7490868,-1.9502478,1e-45
222862308,-5.7658434,-13.907815,nan,0.020366216,0.060038183,-0.29925016,-0.16248104,-0.19793409,-0.38145047,-0.012046428,-0.014674935,-0.72714746,-1.9502478,1e-45
222962314,-5.7658434,-13.907815,nan,0.028614353,0.0687819,-0.29925886,-0.109801464,-0.24267223,-0.35683125,-0.008121772,-0.017949928,-0.7254329,-1.9502478,1e-45
223062319,-5.7658434,-13.907815,nan,0.037565086,0.07697477,-0.29752576,0.0025727227,-0.07494866,-0.572458,0.00019465158,-0.0056705982,-0.74086213,-1.9502478,1e-45
223162304,-5.7658434,-13.907815,nan,0.050049186,0.08606095,-0.3007842,0.09244681,-0.098286904,-0.5293116,0.006955055,-0.007394423,-0.73775715,-1.9502478,1e-45
223262298,-5.7658434,-13.907815,nan,0.06770241,0.09417953,-0.29735595,0.09084884,-0.14979827,-0.48902032,0.006808604,-0.011226528,-0.73489857,-1.9502478,1e-45
223362283,-5.7658434,-13.907815,nan,0.08847859,0.10024333,-0.2942449,0.1687064,-0.1407995,-0.42655474,0.012565688,-0.010487109,-0.73044753,-1.9502478,1e-45
223462311,-5.7658434,-13.907815,nan,0.10920765,0.10501971,-0.29752576,0.21827173,-0.12568992,-0.4358533,0.016272785,-0.009370545,-0.7311112,-1.9502478,1e-45
223562279,-5.7658434,-13.907815,nan,0.13070862,0.10959315,-0.29906398,0.25645125,-0.09289323,-0.71767527,0.019645812,-0.007116217,-0.75122774,-1.9502478,1e-45
223662318,-5.7658434,-13.907815,nan,0.15149929,0.11671605,-0.30081713,0.20643108,-0.13351944,-0.60892826,0.015650632,-0.010122815,-0.74346536,-1.9502478,1e-45
223762295,-5.7658434,-13.907815,nan,0.1667761,0.124924324,-0.30081877,0.085511714,-0.080492504,-0.65410775,0.006510709,-0.0061285547,-0.7466103,-1.9502478,1e-45
223862306,-5.7658434,-13.907815,nan,0.17584236,0.13119377,-0.29752576,0.05037389,-0.07885997,-0.63026255,0.0038272373,-0.0059915134,-0.74494934,-1.9502478,1e-45
223962285,-5.7658434,-13.907815,nan,0.18164794,0.13572554,-0.2990955,-0.0072999224,-0.09302065,-0.8571675,-0.00056648237,-0.007218509,-0.7611847,-1.9502478,1e-45
224062288,-5.7658434,-13.907815,nan,0.18575299,0.13741612,-0.29906523,-0.102697775,-0.13647676,-0.824173,-0.007947518,-0.010561586,-0.758771,-1.9502478,1e-45
224162273,-5.7658434,-13.907815,nan,0.18761389,0.13805394,-0.29752576,-0.022772526,-0.22309119,-0.5308375,-0.0017133564,-0.016784905,-0.73781043,-1.9502478,1e-45
224262253,-5.7658434,-13.907815,nan,0.18591969,0.13899979,-0.29467076,-0.14743468,-0.090415426,-0.38909692,-0.010940466,-0.0067093223,-0.7276385,-1.9502478,1e-45
224362312,-5.7658434,-13.907815,nan,0.179397,0.1387579,-0.29752576,-0.18282242,-0.18251844,-0.49429202,-0.013707405,-0.013684613,-0.7352826,-1.9502478,1e-45
224462310,-5.7658434,-13.907815,nan,0.17068319,0.13712983,-0.2990862,-0.14640579,-0.13506503,-0.7096387,-0.011205338,-0.010337361,-0.7506541,-1.9502478,1e-45
224562321,-5.7658434,-13.907815,nan,0.1603712,0.13666868,-0.2942449,-0.23589993,-0.11942509,-0.524961,-0.017739622,-0.008980741,-0.73744476,-1.9502478,1e-45
224662314,-5.7658434,-13.907815,nan,0.15066941,0.13351402,-0.29752576,-0.22050324,-0.24824892,-0.47534513,-0.016502993,-0.018579546,-0.7339302,-1.9502478,1e-45
224762578,-5.7658434,-13.907815,nan,0.1455954,0.12770753,-0.29921123,-0.13702482,-0.23085165,-0.36815476,-0.01014825,-0.017097197,-0.7262789,-1.9502478,1e-45
224862350,-5.7658434,-13.907815,nan,0.14204527,0.12249989,-0.29596388,-0.112421766,-0.25117752,-0.6606756,-0.008564883,-0.019136028,-0.74710315,-1.9502478,1e-45
224962348,-5.7658434,-13.907815,nan,0.13585147,0.11776881,-0.2991009,-0.12122555,-0.26102588,-0.6910049,-0.009261927,-0.01994301,-0.74926865,-1.9502478,1e-45
225062369,-5.7658434,-13.907815,nan,0.12829189,0.11070752,-0.2963428,-0.16571721,-0.28798506,-0.66452754,-0.012629616,-0.021947876,-0.7474341,-1.9502478,1e-45
225162337,-5.7658434,-13.907815,nan,0.11892893,0.10098805,-0.29909536,-0.17846945,-0.24960202,-0.7836214,-0.013756644,-0.019239629,-0.755935,-1.9502478,1e-45
225262549,-5.7658434,-13.907815,nan,0.10967515,0.09514532,-0.29752576,-0.21032383,-0.17083097,-0.66153586,-0.016025122,-0.013016055,-0.7472205,-1.9502478,1e-45
225362319,-5.7658434,-13.907815,nan,0.102697656,0.09255962,-0.29752576,-0.23534128,-0.18125486,-0.6512283,-0.017914852,-0.013797639,-0.74648476,-1.9502478,1e-45
225462272,-5.7658434,-13.907815,nan,0.0975317,0.08991323,-0.29909328,-0.27983004,-0.2015004,-0.8244533,-0.021653293,-0.015592132,-0.75884956,-1.9502478,1e-45
225662273,-5.7658434,-13.907815,nan,0.08148706,0.08183994,-0.29752573,-0.22465914,-0.13703874,-0.6838507,-0.017152136,-0.010462547,-0.7487301,-1.9502478,1e-45
225762462,-5.7658434,-13.907815,nan,0.07633605,0.079482555,-0.29752576,-0.13095897,-0.29273936,-0.6713641,-0.009987401,-0.022325352,-0.74792206,-1.9502478,1e-45
225862267,-5.7658434,-13.907815,nan,0.07658701,0.07590117,-0.30081874,-0.03469549,-0.22367199,-0.6576003,-0.0026426131,-0.017036177,-0.7469396,-1.9502478,1e-45
225962280,-5.7658434,-13.907815,nan,0.08141322,0.071870424,-0.29752576,0.10965766,-0.20397827,-0.5994607,0.008306586,-0.0154513875,-0.74278957,-1.9502478,1e-45
226062311,-5.7658434,-13.907815,nan,0.08792911,0.06589904,-0.29752576,0.06550452,-0.5473671,-0.94880414,0.0051281215,-0.04285147,-0.76772296,-1.9502478,1e-45
226162317,-5.7658434,-13.907815,nan,0.0976001,0.05750232,-0.2992441,0.10276523,-0.43985203,-0.6590367,0.007826743,-0.033499744,-0.74687976,-1.9502478,1e-45
226262526,-5.7658434,-13.907815,nan,0.11118045,0.04675002,-0.29913074,0.1376597,-0.51642346,-0.8243506,0.010652092,-0.03996079,-0.75884223,-1.9502478,1e-45
226362314,-5.7658434,-13.907815,nan,0.1244822,0.034625147,-0.29752576,0.2050452,-0.4737404,-0.51009166,0.015395676,-0.03557047,-0.73634726,-1.9502478,1e-45
226462351,-5.7658434,-13.907815,nan,0.13474481,0.023762321,-0.2975272,0.150143,-0.5223984,-0.45580792,0.011215305,-0.03902185,-0.7325356,-1.9502478,1e-45
226562320,-5.7658434,-13.907815,nan,0.14402577,0.013462114,-0.29885334,0.22568189,-0.6668413,-1.0314101,0.017803703,-0.052606106,-0.77362216,-1.9502478,1e-45
226662306,-5.7658434,-13.907815,nan,0.15526958,0.0052402494,-0.299256,0.22614005,-0.6595418,-0.5683527,0.017074883,-0.049799222,-0.74045664,-1.9502478,1e-45
226762506,-5.7658434,-13.907815,nan,0.16827461,-0.00518589,-0.29753855,0.21773951,-0.63599074,-0.73475,0.016706578,-0.048797894,-0.75244653,-1.9502478,1e-45
226862303,-5.7658434,-13.907815,nan,0.17931457,-0.016029691,-0.29993656,0.2917488,-0.64253837,-0.981098,0.022908105,-0.050452087,-0.7700309,-1.9502478,1e-45
226962312,-5.7658434,-13.907815,nan,0.1879011,-0.024905682,-0.29925853,0.2530423,-0.5600958,-0.7198395,0.019388016,-0.04291435,-0.75138223,-1.9502478,1e-45
227062312,-5.7658434,-13.907815,nan,0.19574107,-0.03119688,-0.29906067,0.17899838,-0.7438107,-1.4285557,0.014638262,-0.0608279,-0.8019705,-1.9502478,1e-45
227162305,-5.7658434,-13.907815,nan,0.20062618,-0.03713927,-0.29580182,0.11654374,-0.7151824,-1.1802832,0.0093200505,-0.05719343,-0.7842435,-1.9502478,1e-45
227362342,-5.7658434,-13.907815,nan,0.20763764,-0.049383733,-0.29752576,0.24050945,-0.60908747,-0.7001537,0.01839289,-0.04657979,-0.7499599,-1.9502478,1e-45
227462316,-5.7658434,-13.907815,nan,0.21145459,-0.051543616,-0.29897964,0.21527106,-0.52332014,-0.39402133,0.015981602,-0.038850985,-0.7280384,-1.9502478,1e-45
227562311,-5.7658434,-13.907815,nan,0.21795098,-0.051376913,-0.29752576,0.18424901,-0.72381145,-0.8430632,0.0142824,-0.056107566,-0.76017797,-1.9502478,1e-45
227662313,-5.7658434,-13.907815,nan,0.22546662,-0.048127126,-0.30081877,0.36050314,-0.62482584,-0.6736331,0.027498608,-0.047660727,-0.74802476,-1.9502478,1e-45
227762502,-5.7658434,-13.907815,nan,0.23246904,-0.046124887,-0.29752576,0.36168465,-0.75689334,-0.49678475,0.027124986,-0.056764152,-0.7354605,-1.9502478,1e-45
227862280,-5.7658434,-13.907815,nan,0.2404114,-0.04590292,-0.29752576,0.3964454,-0.63460153,-0.4582355,0.029616589,-0.047408126,-0.73260826,-1.9502478,1e-45
227962276,-5.7658434,-13.907815,nan,0.24922396,-0.042317007,-0.29598862,0.36533472,-0.5310961,-0.62516207,0.027740281,-0.04032673,-0.74462414,-1.9502478,1e-45
228062283,-5.7658434,-13.907815,nan,0.25866032,-0.035195015,-0.294246,0.3258166,-0.7170269,-0.8158506,0.025189504,-0.055434722,-0.7581631,-1.9502478,1e-45
228162274,-5.7658434,-13.907815,nan,0.26534107,-0.023581123,-0.2987716,0.18304455,-0.50748813,-0.5345734,0.013777768,-0.038198646,-0.7381579,-1.9502478,1e-45
228262497,-5.7658434,-13.907815,nan,0.26382446,-0.010003948,-0.30081818,0.048419863,-0.3857334,-0.5741956,0.0036584763,-0.02914499,-0.74094874,-1.9502478,1e-45
228362279,-5.7658434,-13.907815,nan,0.2543487,0.0048524854,-0.29752576,-0.22571872,-0.33686054,-0.44204313,-0.016837439,-0.025128039,-0.7315189,-1.9502478,1e-45
228462319,-5.7658434,-13.907815,nan,0.23941617,0.019768715,-0.29753062,-0.21992779,-0.28583673,-0.36158428,-0.016274957,-0.02115231,-0.7256777,-1.9502478,1e-45
228562305,-5.7658434,-13.907815,nan,0.2211976,0.03715377,-0.29573044,-0.29264492,-0.36342844,-0.6886557,-0.022355996,-0.027763357,-0.7491563,-1.9502478,1e-45
228662339,-5.7658434,-13.907815,nan,0.20132424,0.05850525,-0.29752576,-0.26194337,-0.19557138,-0.70501053,-0.020041464,-0.014963297,-0.7502924,-1.9502478,1e-45
228762543,-5.7658434,-13.907815,nan,0.18194103,0.07974076,-0.29752576,-0.24236615,-0.3942597,-0.54041934,-0.018252155,-0.029690983,-0.7385251,-1.9502478,1e-45
228862349,-5.7658434,-13.907815,nan,0.16492562,0.098087974,-0.29752576,-0.10054131,-0.23030911,-0.501808,-0.0075443527,-0.017281784,-0.73577917,-1.9502478,1e-45
228962354,-5.7658434,-13.907815,nan,0.15141277,0.11448822,-0.29909503,-0.036908843,-0.16738912,-0.7474128,-0.0028357666,-0.012860781,-0.75335044,-1.9502478,1e-45
229062330,-5.7658434,-13.907815,nan,0.14318049,0.1306683,-0.2975258,-0.06613515,-0.35851464,-0.99502337,-0.0051997267,-0.028187402,-0.7710249,-1.9502478,1e-45
229162317,-5.7658434,-13.907815,nan,0.14137304,0.1471229,-0.29928547,0.05953171,-0.40301514,-0.6921139,0.0045490116,-0.0307957,-0.7493544,-1.9502478,1e-45
229262533,-5.7658434,-13.907815,nan,0.141036,0.16116847,-0.2991256,0.036520176,-0.2864935,-0.9288422,0.0028535277,-0.022385357,-0.7662506,-1.9502478,1e-45
229362325,-5.7658434,-13.907815,nan,0.13947137,0.17224693,-0.29752576,-0.06827235,-0.36414897,-0.612561,-0.0051778243,-0.027617319,-0.74372464,-1.9502478,1e-45
229462249,-5.7658434,-13.907815,nan,0.13838871,0.18076505,-0.29752576,0.04381097,-0.19579764,-0.46203136,0.003274559,-0.0146344835,-0.73290426,-1.9502478,1e-45
229562248,-5.7658434,-13.907815,nan,0.1363072,0.18967275,-0.2995448,-0.030090652,-0.31768182,-1.0511982,-0.0023782467,-0.02510832,-0.77503467,-1.9502478,1e-45
229662280,-5.7658434,-13.907815,nan,0.13291109,0.19961147,-0.30081877,-0.07449895,-0.24796088,-0.7593583,-0.005729247,-0.019069115,-0.7541775,-1.9502478,1e-45
229762496,-5.7658434,-13.907815,nan,0.12910049,0.20939617,-0.30062577,-0.09202964,-0.3488743,-0.50435483,-0.0069061625,-0.02618051,-0.7359469,-1.9502478,1e-45
229862283,-5.7658434,-13.907815,nan,0.12584889,0.21767692,-0.29752576,-0.07641921,-0.24331354,-0.42424524,-0.0056905863,-0.018118436,-0.730221,-1.9502478,1e-45
229962366,-5.7658434,-13.907815,nan,0.123379156,0.22290993,-0.29752576,-0.052403513,-0.21356308,-0.3891565,-0.0038893088,-0.015850326,-0.7277722,-1.9502478,1e-45
230062258,-5.7658434,-13.907815,nan,0.12063718,0.22871913,-0.29752576,-0.10135068,-0.39979538,-0.82438755,-0.007842503,-0.030936109,-0.75884485,-1.9502478,1e-45
230162310,-5.7658434,-13.907815,nan,0.11875951,0.23692831,-0.29581892,-0.09492972,-0.26137382,-0.8997675,-0.0073974626,-0.020367732,-0.7641887,-1.9502478,1e-45
230262540,-5.7658434,-13.907815,nan,0.11707573,0.24433479,-0.2975719,-0.076616056,-0.2469421,-0.6477529,-0.0058300504,-0.018790903,-0.7462367,-1.9502478,1e-45
230362331,-5.7658434,-13.907815,nan,0.11447372,0.2497499,-0.29752576,-0.11346734,-0.16261937,-0.58586955,-0.008583451,-0.012301648,-0.7418086,-1.9502478,1e-45
230462277,-5.7658434,-13.907815,nan,0.111930154,0.25427622,-0.29958987,-0.12526685,-0.2774567,-0.70287925,-0.009581325,-0.021221917,-0.7501212,-1.9502478,1e-45
230562298,-5.7658434,-13.907815,nan,0.10917912,0.25783494,-0.29752573,-0.10968351,-0.26107886,-0.3471082,-0.00810486,-0.019291937,-0.72467285,-1.9502478,1e-45
230662313,-5.7658434,-13.907815,nan,0.106559895,0.26081294,-0.29752576,-0.069773324,-0.20222202,-0.1745399,-0.0050672535,-0.014686274,-0.7122247,-1.9502478,1e-45
230762524,-5.7658434,-13.907815,nan,0.104492426,0.26210216,-0.29752982,-0.15445434,-0.27089763,-0.022417963,-0.011046999,-0.019375343,-0.7013416,-1.9502478,1e-45
230862319,-5.7658434,-13.907815,nan,0.1017586,0.26018056,-0.297527,-0.2111862,-0.26564965,0.011088923,-0.01505103,-0.018932587,-0.6989383,-1.9502478,1e-45
230962318,-5.7658434,-13.907815,nan,0.09640963,0.25668433,-0.29961866,-0.30673474,-0.4690105,-0.5093607,-0.023027817,-0.035210516,-0.73621386,-1.9502478,1e-45
231062280,-5.7658434,-13.907815,nan,0.09079883,0.25304136,-0.29752576,-0.26458082,-0.34333453,-0.25597662,-0.019377686,-0.025145544,-0.7182155,-1.9502478,1e-45
231162313,-5.7658434,-13.907815,nan,0.08550513,0.24869986,-0.3008188,-0.37309906,-0.47321424,-0.2589983,-0.027334778,-0.034669627,-0.7184705,-1.9502478,1e-45
231262583,-5.7658434,-13.907815,nan,0.07725201,0.24351577,-0.29752576,-0.27230865,-0.310888,-0.15213433,-0.019737223,-0.022533497,-0.710791,-1.9502478,1e-45
231362315,-5.7658434,-13.907815,nan,0.06821475,0.23844223,-0.29752702,-0.3579291,-0.29923576,-0.19283548,-0.026051218,-0.021779329,-0.71374303,-1.9502478,1e-45
231462350,-5.7658434,-13.907815,nan,0.061511777,0.23602867,-0.2975269,-0.2064656,-0.13463703,-0.1788529,-0.015003357,-0.009783748,-0.7126897,-1.9502478,1e-45
231562291,-5.7658434,-13.907815,nan,0.058395624,0.23643364,-0.29781184,-0.21892476,-0.15506938,-0.2850492,-0.016078806,-0.011388983,-0.72027653,-1.9502478,1e-45
231662315,-5.7658434,-13.907815,nan,0.055924535,0.23949136,-0.29752573,-0.20529205,-0.10558966,-0.25200787,-0.015030665,-0.007730854,-0.71798223,-1.9502478,1e-45
231762506,-5.7658434,-13.907815,nan,0.05062585,0.24287161,-0.29752576,-0.31506205,-0.045308184,-0.2217907,-0.02299219,-0.0033064415,-0.71567917,-1.9502478,1e-45
231862285,-5.7658434,-13.907815,nan,0.043349836,0.2464693,-0.29752576,-0.32686895,-0.0922797,-0.20881426,-0.023826636,-0.0067265946,-0.71488804,-1.9502478,1e-45
231962281,-5.7658434,-13.907815,nan,0.035361264,0.2501766,-0.29924935,-0.41680586,-0.0385241,-0.10186206,-0.030060478,-0.0027783988,-0.7072709,-1.9502478,1e-45
232062256,-5.7658434,-13.907815,nan,0.027698398,0.25362843,-0.29791924,-0.30114776,-0.09010859,-0.3292055,-0.022217352,-0.0066478136,-0.7234987,-1.9502478,1e-45
232162279,-5.7658434,-13.907815,nan,0.022266077,0.2556642,-0.29752576,-0.35955906,-0.14151919,-0.27657148,-0.026384106,-0.010384544,-0.71964926,-1.9502478,1e-45
232262508,-5.7658434,-13.907815,nan,0.016628098,0.25585988,-0.30081874,-0.3654094,-0.059214905,-0.33366987,-0.02697052,-0.0043705953,-0.7238174,-1.9502478,1e-45
232362282,-5.7658434,-13.907815,nan,0.010601449,0.25555184,-0.30081874,-0.3079302,-0.18545394,-0.3070298,-0.0226674,-0.013651662,-0.7219064,-1.9502478,1e-45
232462283,-5.7658434,-13.907815,nan,0.006378174,0.25279674,-0.2992498,-0.39022595,-0.15115221,-0.17593041,-0.028353557,-0.010982619,-0.7125579,-1.9502478,1e-45
232562350,-5.7658434,-13.907815,nan,0.0011886597,0.24910936,-0.29784998,-0.45911652,-0.26177323,-0.6929769,-0.03508789,-0.02000597,-0.74946475,-1.9502478,1e-45
232662327,-5.7658434,-13.907815,nan,-0.003936076,0.24573183,-0.30081877,-0.3644923,-0.12253289,-0.44708744,-0.027197488,-0.009143094,-0.73178256,-1.9502478,1e-45
232762564,-5.7658434,-13.907815,nan,-0.0069910763,0.2420671,-0.30081835,-0.2808817,-0.16180132,-0.38805908,-0.020840982,-0.012005405,-0.7276283,-1.9502478,1e-45
232862347,-5.7658434,-13.907815,nan,-0.0068773744,0.23827371,-0.2991938,-0.16605015,-0.21930188,-0.5984464,-0.012577714,-0.016611345,-0.74271715,-1.9502478,1e-45
232962294,-5.7658434,-13.907815,nan,-0.004041624,0.23007178,-0.29819375,-0.08812909,-0.31581613,-0.5470933,-0.0066412855,-0.023799466,-0.73903793,-1.9502478,1e-45
233062291,-5.7658434,-13.907815,nan,0.004318857,0.22274141,-0.30038497,-0.011200406,-0.3049588,-0.67363816,-0.0008542947,-0.023260288,-0.74803877,-1.9502478,1e-45
233162305,-5.7658434,-13.907815,nan,0.016826963,0.2157218,-0.29908633,0.07057132,-0.40371,-0.74833095,0.0054218625,-0.031016286,-0.75341594,-1.9502478,1e-45
233262541,-5.7658434,-13.907815,nan,0.03242042,0.20715566,-0.30081826,0.103911534,-0.31087828,-0.6344515,0.007897072,-0.023626141,-0.74528724,-1.9502478,1e-45
233362313,-5.7658434,-13.907815,nan,0.04957852,0.19825973,-0.29752576,0.16663313,-0.25369063,-0.5349827,0.012541827,-0.019094305,-0.7381553,-1.9502478,1e-45
233462315,-5.7658434,-13.907815,nan,0.06858711,0.19032235,-0.29752576,0.2052148,-0.3510275,-0.50562704,0.015404113,-0.026349302,-0.73609173,-1.9502478,1e-45
233562246,-5.7658434,-13.907815,nan,0.08797531,0.17932363,-0.29752576,0.2340256,-0.5397423,-0.865723,0.018179473,-0.041928023,-0.7617954,-1.9502478,1e-45
233662284,-5.7658434,-13.907815,nan,0.1098432,0.16666603,-0.30081648,0.33316967,-0.5094807,-0.73892033,0.025570674,-0.039102495,-0.7526534,-1.9502478,1e-45
233762487,-5.7658434,-13.907815,nan,0.13105743,0.15226622,-0.30078956,0.41757882,-0.56130403,-0.59867203,0.031625513,-0.042510606,-0.7427143,-1.9502478,1e-45
233862333,-5.7658434,-13.907815,nan,0.1495188,0.1381237,-0.29752576,0.3749167,-0.51733005,-0.56105053,0.028292876,-0.039040018,-0.740046,-1.9502478,1e-45
233962267,-5.7658434,-13.907815,nan,0.1669265,0.12409715,-0.3008188,0.33324665,-0.52147,-0.4990613,0.024997747,-0.039116897,-0.73562306,-1.9502478,1e-45
234162310,-5.7658434,-13.907815,nan,0.19512138,0.10878682,-0.29787588,0.23624381,-0.37627733,-0.4698234,0.017670948,-0.028145405,-0.73352706,-1.9502478,1e-45
234262491,-5.7658434,-13.907815,nan,0.20435886,0.10526977,-0.29752576,0.14724103,-0.3361846,-0.45582455,0.010998566,-0.025112214,-0.7325368,-1.9502478,1e-45
234362278,-5.7658434,-13.907815,nan,0.20953389,0.10318055,-0.29928026,0.067833394,-0.3228389,-0.37843305,0.0050284085,-0.023931662,-0.7270126,-1.9502478,1e-45
234762314,-5.7658434,-13.907815,nan,0.1943096,0.10646839,-0.29752707,-0.075279616,-0.25891253,-0.57517827,-0.0056885667,-0.019564942,-0.7410484,-1.9502478,1e-45
234862326,-5.7658434,-13.907815,nan,0.18291044,0.1048974,-0.2975258,-0.28204796,-0.44299382,-1.0328639,-0.022252588,-0.034950644,-0.7737259,-1.9502478,1e-45
234962318,-5.7658434,-13.907815,nan,0.16946281,0.10201454,-0.29931632,-0.24854597,-0.41835034,-0.77864397,-0.01915013,-0.032233328,-0.7555797,-1.9502478,1e-45
235062286,-5.7658434,-13.907815,nan,0.15543808,0.09992623,-0.29712352,-0.2713031,-0.45189655,-0.90055346,-0.02114422,-0.035218913,-0.76428163,-1.9502478,1e-45
235162367,-5.7658434,-13.907815,nan,0.13792665,0.09524226,-0.30074695,-0.3857154,-0.5614826,-1.0828288,-0.03057263,-0.044504315,-0.77729243,-1.9502478,1e-45
235262311,-5.7658434,-13.907815,nan,0.12044873,0.08976917,-0.2975271,-0.36079192,-0.41616002,-0.8674363,-0.028029755,-0.032331277,-0.7618537,-1.9502478,1e-45
235362339,-5.7658434,-13.907815,nan,0.10344011,0.08580727,-0.29752576,-0.349532,-0.4773753,-1.000677,-0.027495341,-0.037551917,-0.77142847,-1.9502478,1e-45
235462361,-5.7658434,-13.907815,nan,0.0867042,0.08518214,-0.30077955,-0.2924762,-0.36884,-0.8146423,-0.022609266,-0.02851241,-0.7580784,-1.9502478,1e-45
235562258,-5.7658434,-13.907815,nan,0.07442894,0.08693705,-0.29792416,-0.2113665,-0.31369695,-0.76511496,-0.016262311,-0.024135508,-0.75450104,-1.9502478,1e-45
235662280,-5.7658434,-13.907815,nan,0.067865945,0.092974566,-0.29909536,-0.15851694,-0.2932817,-0.75431657,-0.012184593,-0.022543445,-0.7538432,-1.9502478,1e-45
235762271,-5.7658434,-13.907815,nan,0.06500165,0.10455041,-0.30081877,-0.19177209,-0.1456854,-0.49515963,-0.014380009,-0.010924204,-0.7353445,-1.9502478,1e-45
235862292,-5.7658434,-13.907815,nan,0.06306283,0.118035175,-0.29922104,-0.2019445,-0.2672093,-0.93876743,-0.015794944,-0.020899585,-0.7670093,-1.9502478,1e-45
235962284,-5.7658434,-13.907815,nan,0.059297536,0.13284358,-0.2975413,-0.35228592,-0.14457496,-0.6400596,-0.026785398,-0.010992484,-0.7456359,-1.9502478,1e-45
236062250,-5.7658434,-13.907815,nan,0.053040314,0.1484085,-0.29902422,-0.39398357,-0.07853441,-0.6888329,-0.030098127,-0.005999587,-0.749169,-1.9502478,1e-45
236162278,-5.7658434,-13.907815,nan,0.04417157,0.16307016,-0.2990725,-0.39143842,-0.088878505,-0.6853388,-0.029893924,-0.006787599,-0.74891746,-1.9502478,1e-45
236262292,-5.7658434,-13.907815,nan,0.035086296,0.1762188,-0.29752576,-0.39666396,-0.0045277867,-0.4522289,-0.029615501,-0.00033805106,-0.7321622,-1.9502478,1e-45
236362283,-5.7658434,-13.907815,nan,0.026563192,0.18948612,-0.29912308,-0.40632787,-0.19277497,-0.71669793,-0.03112337,-0.014765925,-0.751158,-1.9502478,1e-45
236462335,-5.7658434,-13.907815,nan,0.020189093,0.20185924,-0.29752576,-0.28972244,-0.17769638,-0.77452904,-0.022313865,-0.013685835,-0.755286,-1.9502478,1e-45
236562288,-5.7658434,-13.907815,nan,0.018312788,0.21143194,-0.2978845,-0.3010739,-0.23862779,-0.51548547,-0.022620426,-0.017928695,-0.73676497,-1.9502478,1e-45
236662313,-5.7658434,-13.907815,nan,0.019331122,0.21893896,-0.2958089,-0.23004603,-0.08808127,-0.6533199,-0.017513456,-0.006705647,-0.74660766,-1.9502478,1e-45
236762357,-5.7658434,-13.907815,nan,0.020958733,0.22556086,-0.29906788,-0.24637273,-0.15497628,-0.22493643,-0.01798884,-0.011315551,-0.7160156,-1.9502478,1e-45
236862322,-5.7658434,-13.907815,nan,0.021103239,0.23057914,-0.2992782,-0.43699253,-0.32851312,-0.57301766,-0.03301571,-0.024819862,-0.74089813,-1.9502478,1e-45
236962319,-5.7658434,-13.907815,nan,0.0186018,0.23514351,-0.29752576,-0.34106964,-0.09199636,-0.59679914,-0.025827436,-0.0069664074,-0.7425581,-1.9502478,1e-45
237062285,-5.7658434,-13.907815,nan,0.014536166,0.23982024,-0.29707363,-0.46355277,-0.14030163,-0.42936537,-0.034536254,-0.010452948,-0.7306108,-1.9502478,1e-45
237162308,-5.7658434,-13.907815,nan,0.0074327467,0.24428768,-0.29752576,-0.41826475,-0.0897813,-0.49089748,-0.031349096,-0.0067291413,-0.7350174,-1.9502478,1e-45
237262318,-5.7658434,-13.907815,nan,0.0017073393,0.2509159,-0.29752576,-0.48148525,-0.03669838,-0.3794525,-0.035696864,-0.0027207832,-0.7270579,-1.9502478,1e-45
237362321,-5.7658434,-13.907815,nan,-0.0026722192,0.26140454,-0.2975258,-0.43014532,-0.09816357,-0.40827572,-0.031979598,-0.0072980714,-0.7290613,-1.9502478,1e-45
237462312,-5.7658434,-13.907815,nan,-0.0056112525,0.27251926,-0.29925475,-0.3863786,0.07178047,-0.33927137,-0.028534826,0.0053011305,-0.72421724,-1.9502478,1e-45
237762342,-5.7658434,-13.907815,nan,-0.0073620793,0.29712597,-0.29752576,-0.31006122,0.18500423,-0.37308913,-0.022972265,0.013706862,-0.72659165,-1.9502478,1e-45
237862286,-5.7658434,-13.907815,nan,-0.009432721,0.30603185,-0.29752576,-0.384512,0.14072724,-0.40846777,-0.028589685,0.010463516,-0.7291492,-1.9502478,1e-45
237962276,-5.7658434,-13.907815,nan,-0.010937118,0.313692,-0.29752576,-0.33408433,0.1442697,-0.37111434,-0.024746228,0.0106863165,-0.7264009,-1.9502478,1e-45
238062292,-5.7658434,-13.907815,nan,-0.011451721,0.31967607,-0.29792392,-0.36443725,0.11893516,-0.41820186,-0.027120009,0.008850694,-0.72977704,-1.9502478,1e-45
238162271,-5.7658434,-13.907815,nan,-0.010699295,0.325565,-0.30081877,-0.29970327,0.102632165,-0.36340842,-0.022184785,0.0075970897,-0.7258633,-1.9502478,1e-45
238262278,-5.7658434,-13.907815,nan,-0.010480046,0.3306775,-0.30081877,-0.3323099,0.06662435,-0.294892,-0.024428915,0.0048977183,-0.72093344,-1.9502478,1e-45
238362283,-5.7658434,-13.907815,nan,-0.008602381,0.33312097,-0.29960212,-0.3028991,0.1622224,-0.48924804,-0.022696119,0.0121552665,-0.7348029,-1.9502478,1e-45
238462276,-5.7658434,-13.907815,nan,-0.0039836406,0.33149108,-0.29752576,-0.18330407,0.04413461,-0.2639512,-0.01343317,0.00323434,-0.7187692,-1.9502478,1e-45
238562245,-5.7658434,-13.907815,nan,0.003370285,0.32683247,-0.29752576,-0.1644693,-0.022192761,-0.16328984,-0.011933464,-0.0016102487,-0.7115354,-1.9502478,1e-45
238662315,-5.7658434,-13.907815,nan,0.011071658,0.3221929,-0.29752576,-0.041043006,-0.07960107,-0.2403597,-0.0030023444,-0.005822913,-0.7171569,-1.9502478,1e-45
238762326,-5.7658434,-13.907815,nan,0.018053675,0.3159778,-0.29752576,-0.15282878,-0.1233498,-0.42493337,-0.011382528,-0.009186964,-0.7303318,-1.9502478,1e-45
238862348,-5.7658434,-13.907815,nan,0.025521303,0.3061315,-0.29752576,-0.14895493,-0.13097769,-0.63246465,-0.0113168,-0.009950986,-0.7451305,-1.9502478,1e-45
238962319,-5.7658434,-13.907815,nan,0.03377397,0.29335612,-0.2992487,-0.11703447,-0.23603296,-0.42173198,-0.008712084,-0.01757037,-0.73001003,-1.9502478,1e-45
239062625,-5.7658434,-13.907815,nan,0.040777277,0.27779484,-0.29913762,-0.10323615,-0.240382,-0.692359,-0.007888662,-0.01836849,-0.74940705,-1.9502478,1e-45
239162286,-5.7658434,-13.907815,nan,0.046295665,0.26182494,-0.29752576,-0.091679044,-0.27618274,-0.46586272,-0.006854641,-0.020649577,-0.73325336,-1.9502478,1e-45
239262291,-3.6850133,-14.156381,-18.659094,2.0278883,0.010460568,0.60377693,3.1503863,-0.68532526,2.736203,0.16207623,-0.035257563,-0.5045172,-1.9528745,0.0
239362335,-3.5850132,-14.156381,-18.659094,2.1183457,-0.0039120675,0.59817696,3.1548939,-0.60567623,1.5736713,0.18905945,-0.036295615,-0.5876711,-1.9528745,0.0
239462287,-3.4850132,-14.156381,-18.659094,2.1966212,-0.013898802,0.5653534,3.0331852,-0.57760805,0.6431778,0.20230748,-0.03852532,-0.654084,-1.9528745,0.0
239562513,-3.385013,-14.156381,-18.659094,2.2546976,-0.018598175,0.51589584,2.5559654,-0.5426427,-0.049153052,0.18335965,-0.038928065,-0.70350856,-1.9528745,0.0
239662258,-3.2850132,-14.156381,-18.659094,2.2857394,-0.020085812,0.46035004,2.148708,-0.49659422,-0.45395365,0.16047479,-0.037087798,-0.7324033,-1.9528745,0.0
239762253,-3.1850133,-14.156381,-18.659094,2.2925162,-0.021575259,0.40449905,1.8913358,-0.43411112,-0.6798945,0.14434467,-0.033130884,-0.74843395,-1.9528745,0.0
239862283,-3.0850132,-14.156381,-18.659094,2.2816315,-0.02271862,0.35272026,1.6539558,-0.33242676,-0.8050389,0.12773864,-0.025674045,-0.75739026,-1.9528745,0.0
239962278,-2.9850132,-14.156381,-18.659094,2.2557724,-0.02262802,0.30734634,1.4651226,-0.3704166,-0.800169,0.11311412,-0.028597847,-0.75711614,-1.9528745,0.0
240062508,-2.885013,-14.156381,-18.659094,2.216861,-0.018889904,0.26747513,1.2418705,-0.42269516,-0.7359959,0.09529796,-0.032436546,-0.75253546,-1.9528745,0.0
240162288,-2.885013,-14.156381,-18.659094,2.0709069,-0.015047598,0.23166084,0.93548316,-0.40551376,-0.73191714,0.071754165,-0.031104032,-0.7521952,-1.9528745,0.0
240262254,-2.885013,-14.156381,-18.659094,1.917781,-0.011664629,0.19844627,0.5524156,-0.3142412,-0.7584913,0.042480633,-0.024165077,-0.7541412,-1.9528745,0.0
240362316,-2.885013,-14.156381,-18.659094,1.758978,-0.007127428,0.16634369,0.3514304,-0.2891716,-0.7478587,0.026997231,-0.02221445,-0.7533677,-1.9528745,0.0
240462256,-2.885013,-14.156381,-18.659094,1.5973973,-3.8957594e-05,0.13625526,0.09973877,-0.22965187,-0.7799475,0.007685925,-0.0176971,-0.7556621,-1.9528745,0.0
240562456,-2.885013,-14.156381,-18.659094,1.4385604,0.0070757866,0.10768318,-0.20956433,-0.25167364,-0.7497741,-0.016101122,-0.01933644,-0.7534919,-1.9528745,0.0
240662338,-2.885013,-14.156381,-18.659094,1.2806535,0.014773083,0.08081436,-0.37910002,-0.19772537,-0.80050504,-0.029269135,-0.015265762,-0.75712603,-1.9528745,0.0
240762292,-2.885013,-14.156381,-18.659094,1.1239742,0.025436591,0.05480385,-0.5980392,-0.21298206,-0.7946794,-0.046147827,-0.016434807,-0.7567243,-1.9528745,0.0
240862292,-2.885013,-14.156381,-18.659094,0.9710824,0.035415173,0.031845093,-0.7002939,-0.1422659,-0.7722196,-0.053924054,-0.010954764,-0.7551211,-1.9528745,0.0
240962292,-2.885013,-14.156381,-18.659094,0.82469356,0.04292493,0.010932922,-0.86613345,-0.1574374,-0.74183595,-0.06649928,-0.0120875975,-0.7529237,-1.9528745,0.0
241062510,-2.885013,-14.156381,-18.659094,0.68739206,0.05011668,-0.007961273,-0.9183494,-0.19034292,-0.74530214,-0.07053346,-0.014619214,-0.75319976,-1.9528745,0.0
241162288,-2.885013,-14.156381,-18.659094,0.55909586,0.05638704,-0.024494171,-1.0122559,-0.23386416,-0.7186402,-0.0775498,-0.017916536,-0.75129664,-1.9528745,0.0
241262291,-2.885013,-14.156381,-18.659094,0.43901405,0.061680745,-0.039665222,-1.0520377,-0.14797416,-0.7479931,-0.08082211,-0.011368018,-0.75339186,-1.9528745,0.0
241362302,-2.885013,-14.156381,-18.659094,0.32875544,0.065974236,-0.05366707,-1.1370639,-0.17498711,-0.7214855,-0.087129004,-0.013408615,-0.75144476,-1.9528745,0.0
241462319,-2.885013,-14.156381,-18.659094,0.22789921,0.070821285,-0.06609535,-1.1695824,-0.17341821,-0.7258642,-0.08966436,-0.01329486,-0.7518123,-1.9528745,0.0
241562503,-2.885013,-14.156381,-18.659094,0.13716924,0.07498521,-0.076963425,-1.1736978,-0.16776225,-0.7346611,-0.09005525,-0.012872028,-0.7524402,-1.9528745,0.0
241662322,-2.885013,-14.156381,-18.659094,0.057285104,0.07703547,-0.08516693,-1.1866019,-0.22521697,-0.62776166,-0.09010613,-0.01710214,-0.7446803,-1.9528745,0.0
241762268,-2.885013,-14.156381,-18.659094,-0.014841485,0.07835641,-0.09015274,-1.1433811,-0.22962044,-0.6205989,-0.08677939,-0.017427541,-0.7442984,-1.9528745,0.0
241862254,-2.885013,-14.156381,-18.659094,-0.07876184,0.0793077,-0.09292793,-1.1569512,-0.18182473,-0.5636934,-0.08732996,-0.013724647,-0.7402365,-1.9528745,0.0
