timestamp,timestamp_sample,roll,pitch,yaw,throttle,flaps,aux1,aux2,aux3,aux4,aux5,aux6,buttons,valid,data_source,sticks_moving
200036309,200035728,0.0,0.0,0.98802394,-0.9640719,0.0,0.0,0.0,0.0,0.0,0.0,0.0,0,1,1,0
200074007,200040331,0.0,0.0,0.98802394,-0.9640719,0.0,0.0,0.0,0.0,0.0,0.0,0.0,0,1,1,0
200078327,200078035,0.0,0.0,0.98802394,-0.9640719,0.0,0.0,0.0,0.0,0.0,0.0,0.0,0,1,1,0
200336282,200136077,0.0,0.0,0.98802394,-0.9640719,0.0,0.0,0.0,0.0,0.0,0.0,0.0,0,1,1,0
200436371,200435725,0.0,0.0,0.98802394,-0.9640719,0.0,0.0,0.0,0.0,0.0,0.0,0.0,0,1,1,0
200516463,200435725,0.0,0.0,0.98802394,-0.9640719,0.0,0.0,0.0,0.0,0.0,0.0,0.0,0,1,1,0
200635702,200635658,0.0,0.0,0.98802394,-0.9640719,0.0,0.0,0.0,0.0,0.0,0.0,0.0,0,1,1,0
200656112,200655725,0.0,0.0,0.9600798,-0.9640719,0.0,0.0,0.0,0.0,0.0,0.0,0.0,0,1,1,0
200672714,200660137,0.0,0.0,0.8882235,-0.9640719,0.0,0.0,0.0,0.0,0.0,0.0,0.0,0,1,1,1
200692688,200681134,0.0,0.0,0.7904191,-0.9640719,0.0,0.0,0.0,0.0,0.0,0.0,0.0,0,1,1,1
200712697,200696713,0.0,0.0,0.67664665,-0.9640719,0.0,0.0,0.0,0.0,0.0,0.0,0.0,0,1,1,1
200736673,200735725,0.0,0.0,0.55489016,-0.9640719,0.0,0.0,0.0,0.0,0.0,0.0,0.0,0,1,1,1
200756116,200755726,0.0,0.0,0.4371257,-0.9640719,0.0,0.0,0.0,0.0,0.0,0.0,0.0,0,1,1,1
200776115,200775728,0.0,0.0,0.3832335,-0.9640719,0.0,0.0,0.0,0.0,0.0,0.0,0.0,0,1,1,1
200796565,200796521,0.0,0.0,0.22355285,-0.9640719,0.0,0.0,0.0,0.0,0.0,0.0,0.0,0,1,1,1
200816127,200815726,0.0,0.0,0.12974048,-0.9640719,0.0,0.0,0.0,0.0,0.0,0.0,0.0,0,1,1,1
200836345,200835726,0.0,0.0,0.035928108,-0.9640719,0.0,0.0,0.0,0.0,0.0,0.0,0.0,0,1,1,1
200856132,200856085,0.0,0.0,0.0,-0.9640719,0.0,0.0,0.0,0.0,0.0,0.0,0.0,0,1,1,1
200876395,200875726,0.0,0.0,0.0,-0.9640719,0.0,0.0,0.0,0.0,0.0,0.0,0.0,0,1,1,1
200936386,200935725,0.0,0.0,0.0,-0.9640719,0.0,0.0,0.0,0.0,0.0,0.0,0.0,0,1,1,1
200956112,200955725,0.0,0.0,0.0,-0.9640719,0.0,0.0,0.0,0.0,0.0,0.0,0.0,0,1,1,1
200976117,200975725,0.0,0.0,0.0,-0.9640719,0.0,0.0,0.0,0.0,0.0,0.0,0.0,0,1,1,1
200996143,200995725,0.0,0.0,0.0,-0.9640719,0.0,0.0,0.0,0.0,0.0,0.0,0.0,0,1,1,1
201012696,201000213,0.0,0.0,0.0,-0.9640719,0.0,0.0,0.0,0.0,0.0,0.0,0.0,0,1,1,1
201035727,201035684,0.0,0.0,0.0,-0.9640719,0.0,0.0,0.0,0.0,0.0,0.0,0.0,0,1,1,1
201056122,201055724,0.0,0.0,0.0,-0.9640719,0.0,0.0,0.0,0.0,0.0,0.0,0.0,0,1,1,1
201092795,201084038,0.0,0.0,0.0,-0.9640719,0.0,0.0,0.0,0.0,0.0,0.0,0.0,0,1,1,1
201135699,201135657,0.0,0.0,0.0,-0.9640719,0.0,0.0,0.0,0.0,0.0,0.0,0.0,0,1,1,1
201176112,201175724,0.0,0.0,0.0,-0.9640719,0.0,0.0,0.0,0.0,0.0,0.0,0.0,0,1,1,0
201335693,201335634,0.0,0.0,0.0,-0.9640719,0.0,0.0,0.0,0.0,0.0,0.0,0.0,0,1,1,0
201356120,201355725,0.0,0.0,0.0,-0.9640719,0.0,0.0,0.0,0.0,0.0,0.0,0.0,0,1,1,0
201536441,201355725,0.0,0.0,0.0,-0.9640719,0.0,0.0,0.0,0.0,0.0,0.0,0.0,0,1,1,0
201615692,201615649,0.0,0.0,0.0,-0.9600799,0.0,0.0,0.0,0.0,0.0,0.0,0.0,0,1,1,0
201635729,201635686,0.0,0.0,0.0,-0.94610786,0.0,0.0,0.0,0.0,0.0,0.0,0.0,0,1,1,0
201656130,201655724,0.0,0.0,0.0,-0.9281438,0.0,0.0,0.0,0.0,0.0,0.0,0.0,0,1,1,0
201675728,201675685,0.0,0.0,0.0,-0.9081837,0.0,0.0,0.0,0.0,0.0,0.0,0.0,0,1,1,1
201695680,201695637,0.0,0.0,0.0,-0.89221567,0.0,0.0,0.0,0.0,0.0,0.0,0.0,0,1,1,1
201715701,201715658,0.0,0.0,0.0,-0.8702595,0.0,0.0,0.0,0.0,0.0,0.0,0.0,0,1,1,1
201735695,201735635,0.0,0.0,0.0,-0.85229546,0.0,0.0,0.0,0.0,0.0,0.0,0.0,0,1,1,1
201756139,201756094,0.0,0.0,0.0,-0.8283434,0.0,0.0,0.0,0.0,0.0,0.0,0.0,0,1,1,1
201775692,201775633,0.0,0.0,0.0,-0.8063873,0.0,0.0,0.0,0.0,0.0,0.0,0.0,0,1,1,1
201795710,201795667,0.0,0.0,0.0,-0.7904192,0.0,0.0,0.0,0.0,0.0,0.0,0.0,0,1,1,1
201816131,201816088,0.0,0.0,0.0,-0.77245516,0.0,0.0,0.0,0.0,0.0,0.0,0.0,0,1,1,1
201832723,201820169,0.0,0.0,0.0,-0.7524951,0.0,0.0,0.0,0.0,0.0,0.0,0.0,0,1,1,1
201855685,201855643,0.0,0.0,0.0,-0.72455096,0.0,0.0,0.0,0.0,0.0,0.0,0.0,0,1,1,1
201872501,201859725,0.0,0.0,0.0,-0.69261485,0.0,0.0,0.0,0.0,0.0,0.0,0.0,0,1,1,1
201892903,201892840,0.0,0.0,0.0,-0.6646707,0.0,0.0,0.0,0.0,0.0,0.0,0.0,0,1,1,1
201916128,201916084,0.0,0.0,0.0,-0.64670664,0.0,0.0,0.0,0.0,0.0,0.0,0.0,0,1,1,1
201935704,201935661,0.0,0.0,0.0,-0.6307386,0.0,0.0,0.0,0.0,0.0,0.0,0.0,0,1,1,1
201952777,201939817,0.0,0.0,0.0,-0.60878253,0.0,0.0,0.0,0.0,0.0,0.0,0.0,0,1,1,1
201975688,201975646,0.0,0.0,0.0,-0.57684636,0.0,0.0,0.0,0.0,0.0,0.0,0.0,0,1,1,1
201994007,201993701,0.0,0.0,0.0,-0.5349302,0.0,0.0,0.0,0.0,0.0,0.0,0.0,0,1,1,1
202016385,202015724,0.0,0.0,0.0,-0.49501005,0.0,0.0,0.0,0.0,0.0,0.0,0.0,0,1,1,1
202036379,202035725,0.0,0.0,0.0,-0.46906194,0.0,0.0,0.0,0.0,0.0,0.0,0.0,0,1,1,1
202056115,202056070,0.0,0.0,0.0,-0.43912184,0.0,0.0,0.0,0.0,0.0,0.0,0.0,0,1,1,1
202076095,202075724,0.0,0.0,0.0,-0.4071857,0.0,0.0,0.0,0.0,0.0,0.0,0.0,0,1,1,1
202094722,202094666,0.0,0.0,0.0,-0.36327353,0.0,0.0,0.0,0.0,0.0,0.0,0.0,0,1,1,1
202116108,202115727,0.0,0.0,0.0,-0.32734537,0.0,0.0,0.0,0.0,0.0,0.0,0.0,0,1,1,1
202135732,202135686,0.0,0.0,0.0,-0.29940128,0.0,0.0,0.0,0.0,0.0,0.0,0.0,0,1,1,1
202155669,202155625,0.0,0.0,0.0,-0.27145717,0.0,0.0,0.0,0.0,0.0,0.0,0.0,0,1,1,1
202175710,202175668,0.0,0.0,0.0,-0.24351305,0.0,0.0,0.0,0.0,0.0,0.0,0.0,0,1,1,1
202195689,202195619,0.0,0.0,0.0,-0.20958091,0.0,0.0,0.0,0.0,0.0,0.0,0.0,0,1,1,1
202212527,202199712,0.0,0.0,0.0,-0.17764479,0.0,0.0,0.0,0.0,0.0,0.0,0.0,0,1,1,1
202235671,202235628,0.0,0.0,0.0,-0.15169668,0.0,0.0,0.0,0.0,0.0,0.0,0.0,0,1,1,1
202255688,202255644,0.0,0.0,0.0,-0.13772462,0.0,0.0,0.0,0.0,0.0,0.0,0.0,0,1,1,1
202275683,202275640,0.0,0.0,0.0,-0.12574857,0.0,0.0,0.0,0.0,0.0,0.0,0.0,0,1,1,1
202292524,202292458,0.0,0.0,0.0,-0.11576854,0.0,0.0,0.0,0.0,0.0,0.0,0.0,0,1,1,1
202316115,202316071,0.0,0.0,0.0,-0.1057885,0.0,0.0,0.0,0.0,0.0,0.0,0.0,0,1,1,1
202336405,202335724,0.0,0.0,0.0,-0.097804464,0.0,0.0,0.0,0.0,0.0,0.0,0.0,0,1,1,1
202355673,202355630,0.0,0.0,0.0,-0.08782443,0.0,0.0,0.0,0.0,0.0,0.0,0.0,0,1,1,1
202375677,202375635,0.0,0.0,0.0,-0.083832406,0.0,0.0,0.0,0.0,0.0,0.0,0.0,0,1,1,1
202393600,202393556,0.0,0.0019959707,0.0,-0.07385237,0.0,0.0,0.0,0.0,0.0,0.0,0.0,0,1,1,1
202416108,202416063,0.0,0.0019959707,0.0,-0.06786434,0.0,0.0,0.0,0.0,0.0,0.0,0.0,0,1,1,1
202436328,202435724,0.0,0.0019959707,0.0,-0.059880313,0.0,0.0,0.0,0.0,0.0,0.0,0.0,0,1,1,1
202456103,202455724,0.0,0.0019959707,0.0,-0.04990027,0.0,0.0,0.0,0.0,0.0,0.0,0.0,0,1,1,1
202475728,202475685,0.0,0.005987987,0.0,-0.039920233,0.0,0.0,0.0,0.0,0.0,0.0,0.0,0,1,1,1
202494540,202494474,0.0,0.005987987,0.0,-0.029940192,0.0,0.0,0.0,0.0,0.0,0.0,0.0,0,1,1,1
202515679,202515637,0.0,0.0,0.0,-0.02195616,0.0,0.0,0.0,0.0,0.0,0.0,0.0,0,1,1,1
202536354,202535724,0.0,0.0,0.0,-0.015968136,0.0,0.0,0.0,0.0,0.0,0.0,0.0,0,1,1,1
202555694,202555649,0.0,0.0,0.0,-0.009980112,0.0,0.0,0.0,0.0,0.0,0.0,0.0,0,1,1,1
202575708,202575666,0.0,0.0,0.0,-0.005988097,0.0,0.0,0.0,0.0,0.0,0.0,0.0,0,1,1,1
202595492,202595448,0.0,0.0,0.0,0.0,0.0,0.0,0.0,0.0,0.0,0.0,0.0,0,1,1,1
202615690,202615647,0.0,0.0,0.0,0.0,0.0,0.0,0.0,0.0,0.0,0.0,0.0,0,1,1,1
202636349,202635724,0.0,0.0,0.0,0.0,0.0,0.0,0.0,0.0,0.0,0.0,0.0,0,1,1,0
202656499,202656455,0.0,0.0,0.0,0.0,0.0,0.0,0.0,0.0,0.0,0.0,0.0,0,1,1,0
202676105,202675727,0.0,0.0,0.0,0.0,0.0,0.0,0.0,0.0,0.0,0.0,0.0,0,1,1,0
202696099,202695724,0.0,0.0,0.0,0.005976051,0.0,0.0,0.0,0.0,0.0,0.0,0.0,0,1,1,0
202715696,202715653,0.0,0.0,0.0,0.009960115,0.0,0.0,0.0,0.0,0.0,0.0,0.0,0,1,1,0
202735670,202735627,0.0,0.0,0.0,0.01593621,0.0,0.0,0.0,0.0,0.0,0.0,0.0,0,1,1,0
202752679,202739709,0.0,0.0,0.0,0.013944179,0.0,0.0,0.0,0.0,0.0,0.0,0.0,0,1,1,0
202775662,202775618,0.0,0.0,0.0,0.017928243,0.0,0.0,0.0,0.0,0.0,0.0,0.0,0,1,1,0
202796092,202795724,0.0,0.0,0.0,0.021912307,0.0,0.0,0.0,0.0,0.0,0.0,0.0,0,1,1,0
202816166,202815724,0.0,0.0,0.0,0.027888402,0.0,0.0,0.0,0.0,0.0,0.0,0.0,0,1,1,0
202832626,202820188,0.0,0.0,0.0,0.029880434,0.0,0.0,0.0,0.0,0.0,0.0,0.0,0,1,1,0
202872679,202859671,0.0,0.0,0.0,0.031872466,0.0,0.0,0.0,0.0,0.0,0.0,0.0,0,1,1,0
202895684,202895623,0.0,0.0,0.0,0.03585653,0.0,0.0,0.0,0.0,0.0,0.0,0.0,0,1,1,0
202935681,202935639,0.0,0.0,0.0,0.037848562,0.0,0.0,0.0,0.0,0.0,0.0,0.0,0,1,1,0
202952858,202939719,0.0,0.0,0.0,0.039840594,0.0,0.0,0.0,0.0,0.0,0.0,0.0,0,1,1,0
202975711,202975652,0.0,0.0,0.0,0.039840594,0.0,0.0,0.0,0.0,0.0,0.0,0.0,0,1,1,0
202996113,202995737,0.0,0.0,0.0,0.043824658,0.0,0.0,0.0,0.0,0.0,0.0,0.0,0,1,1,0
203015661,203015618,0.0,0.0,0.0,0.051792786,0.0,0.0,0.0,0.0,0.0,0.0,0.0,0,1,1,0
203035662,203035619,0.0,0.0,0.0,0.05776888,0.0,0.0,0.0,0.0,0.0,0.0,0.0,0,1,1,0
203055692,203055648,0.0,0.0,0.0,0.06972107,0.0,0.0,0.0,0.0,0.0,0.0,0.0,0,1,1,0
203075711,203075653,0.0,0.0,0.0,0.07968123,0.0,0.0,0.0,0.0,0.0,0.0,0.0,0,1,1,0
203095688,203095646,0.0,0.0,0.0,0.08764936,0.0,0.0,0.0,0.0,0.0,0.0,0.0,0,1,1,1
203112487,203104055,0.0,0.0,0.0,0.10557765,0.0,0.0,0.0,0.0,0.0,0.0,0.0,0,1,1,1
203135736,203135664,0.0,0.0,0.0,0.11952187,0.0,0.0,0.0,0.0,0.0,0.0,0.0,0,1,1,1
203156480,203156438,0.0,0.0,0.0,0.14342625,0.0,0.0,0.0,0.0,0.0,0.0,0.0,0,1,1,1
203175694,203175641,0.0,0.0,0.0,0.16932267,0.0,0.0,0.0,0.0,0.0,0.0,0.0,0,1,1,1
203196115,203195724,0.0,0.0,0.0,0.19123502,0.0,0.0,0.0,0.0,0.0,0.0,0.0,0,1,1,1
203215695,203215635,0.0,0.0,0.0,0.21713144,0.0,0.0,0.0,0.0,0.0,0.0,0.0,0,1,1,1
203235694,203235635,0.0,0.0,0.0,0.24302785,0.0,0.0,0.0,0.0,0.0,0.0,0.0,0,1,1,1
203255693,203255651,0.0,0.0,0.0,0.26892427,0.0,0.0,0.0,0.0,0.0,0.0,0.0,0,1,1,1
203275688,203275646,0.0,0.0,0.0,0.28486052,0.0,0.0,0.0,0.0,0.0,0.0,0.0,0,1,1,1
203295696,203295653,0.0,0.0,0.0,0.3027888,0.0,0.0,0.0,0.0,0.0,0.0,0.0,0,1,1,1
203315675,203315632,0.0,0.0,0.0,0.31673303,0.0,0.0,0.0,0.0,0.0,0.0,0.0,0,1,1,1
203336577,203336534,0.0,0.0,0.0,0.3346613,0.0,0.0,0.0,0.0,0.0,0.0,0.0,0,1,1,1
203356248,203355725,0.0,0.0,0.0,0.3525896,0.0,0.0,0.0,0.0,0.0,0.0,0.0,0,1,1,1
203375693,203375633,0.0,0.0,0.0,0.37848604,0.0,0.0,0.0,0.0,0.0,0.0,0.0,0,1,1,1
203396114,203395724,0.0,0.0,0.0,0.3964143,0.0,0.0,0.0,0.0,0.0,0.0,0.0,0,1,1,1
203415697,203415637,0.0,0.0,0.0,0.41235057,0.0,0.0,0.0,0.0,0.0,0.0,0.0,0,1,1,1
203436470,203436428,0.0,0.0,0.0,0.4223107,0.0,0.0,0.0,0.0,0.0,0.0,0.0,0,1,1,1
203455717,203455644,0.0,0.0,0.0,0.43625495,0.0,0.0,0.0,0.0,0.0,0.0,0.0,0,1,1,1
203472662,203459740,0.0,0.0,0.0,0.4501992,0.0,0.0,0.0,0.0,0.0,0.0,0.0,0,1,1,1
203495696,203495638,0.0,0.0,0.0,0.46812746,0.0,0.0,0.0,0.0,0.0,0.0,0.0,0,1,1,1
203516114,203515725,0.0,0.0,0.0,0.4840637,0.0,0.0,0.0,0.0,0.0,0.0,0.0,0,1,1,1
203535697,203535634,0.0,0.0,0.0,0.501992,0.0,0.0,0.0,0.0,0.0,0.0,0.0,0,1,1,1
203552442,203539720,0.0,0.0,0.0,0.51593626,0.0,0.0,0.0,0.0,0.0,0.0,0.0,0,1,1,1
203575689,203575628,0.0,0.0,0.0,0.5278884,0.0,0.0,0.0,0.0,0.0,0.0,0.0,0,1,1,1
203592790,203579712,0.0,0.0,0.0,0.5338645,0.0,0.0,0.0,0.0,0.0,0.0,0.0,0,1,1,1
203615686,203615644,0.0,0.0,0.0,0.5378486,0.0,0.0,0.0,0.0,0.0,0.0,0.0,0,1,1,1
203635676,203635633,0.0,0.0,0.0,0.5378486,0.0,0.0,0.0,0.0,0.0,0.0,0.0,0,1,1,1
203655732,203655686,0.0,0.0,0.0,0.5378486,0.0,0.0,0.0,0.0,0.0,0.0,0.0,0,1,1,1
203675695,203675653,0.0,0.0,0.0,0.5378486,0.0,0.0,0.0,0.0,0.0,0.0,0.0,0,1,1,1
203696115,203695724,0.0,0.0,0.0,0.5378486,0.0,0.0,0.0,0.0,0.0,0.0,0.0,0,1,1,0
203715687,203715644,0.0,0.0,0.0,0.5378486,0.0,0.0,0.0,0.0,0.0,0.0,0.0,0,1,1,0
203752441,203739696,0.0,0.0,0.0,0.5378486,0.0,0.0,0.0,0.0,0.0,0.0,0.0,0,1,1,0
203775707,203775635,0.0,0.0,0.0,0.5458167,0.0,0.0,0.0,0.0,0.0,0.0,0.0,0,1,1,0
203795695,203795652,0.0,0.0,0.0,0.54980075,0.0,0.0,0.0,0.0,0.0,0.0,0.0,0,1,1,0
203816114,203815724,0.0,0.0,0.0,0.5597609,0.0,0.0,0.0,0.0,0.0,0.0,0.0,0,1,1,0
203835730,203835687,0.0,0.0,0.0,0.5717131,0.0,0.0,0.0,0.0,0.0,0.0,0.0,0,1,1,1
203856437,203856393,0.0,0.0,0.0,0.58764935,0.0,0.0,0.0,0.0,0.0,0.0,0.0,0,1,1,1
203876386,203875724,0.0,0.0,0.0,0.6135458,0.0,0.0,0.0,0.0,0.0,0.0,0.0,0,1,1,1
203895697,203895638,0.0,0.0,0.0,0.6454183,0.0,0.0,0.0,0.0,0.0,0.0,0.0,0,1,1,1
203912716,203912673,0.0,0.0,0.0,0.67928284,0.0,0.0,0.0,0.0,0.0,0.0,0.0,0,1,1,1
203935692,203935633,0.0,0.0,0.0,0.69920313,0.0,0.0,0.0,0.0,0.0,0.0,0.0,0,1,1,1
203955697,203955636,0.0,0.0,0.0,0.7231076,0.0,0.0,0.0,0.0,0.0,0.0,0.0,0,1,1,1
203975697,203975636,0.0,0.0,0.0,0.74302787,0.0,0.0,0.0,0.0,0.0,0.0,0.0,0,1,1,1
203996488,203996446,0.0,0.0,0.0,0.7569721,0.0,0.0,0.0,0.0,0.0,0.0,0.0,0,1,1,1
204013607,204013564,0.0,0.0,0.0,0.76095617,0.0,0.0,0.0,0.0,0.0,0.0,0.0,0,1,1,1
204032453,204017629,0.0,0.0,0.0,0.7649402,0.0,0.0,0.0,0.0,0.0,0.0,0.0,0,1,1,1
204055697,204055638,0.0,0.0,0.0,0.76693225,0.0,0.0,0.0,0.0,0.0,0.0,0.0,0,1,1,1
204075661,204075617,0.0,0.0,0.0,0.7689243,0.0,0.0,0.0,0.0,0.0,0.0,0.0,0,1,1,1
204095691,204095618,0.0,0.0,0.0,0.77091634,0.0,0.0,0.0,0.0,0.0,0.0,0.0,0,1,1,1
204114553,204114510,0.0,0.0,0.0,0.7749004,0.0,0.0,0.0,0.0,0.0,0.0,0.0,0,1,1,1
204135694,204135651,0.0,0.0,0.0,0.7749004,0.0,0.0,0.0,0.0,0.0,0.0,0.0,0,1,1,1
204155664,204155621,0.0,0.0,0.0,0.7768924,0.0,0.0,0.0,0.0,0.0,0.0,0.0,0,1,1,0
204175681,204175639,0.0,0.0,0.0,0.7788844,0.0,0.0,0.0,0.0,0.0,0.0,0.0,0,1,1,0
204195665,204195623,0.0,0.0,0.0,0.7868526,0.0,0.0,0.0,0.0,0.0,0.0,0.0,0,1,1,0
204215646,204215532,0.0,0.0,0.0,0.7928287,0.0,0.0,0.0,0.0,0.0,0.0,0.0,0,1,1,0
204232795,204219667,0.0,0.0,0.0,0.80278885,0.0,0.0,0.0,0.0,0.0,0.0,0.0,0,1,1,1
204255687,204255626,0.0,0.0,0.0,0.81274897,0.0,0.0,0.0,0.0,0.0,0.0,0.0,0,1,1,1
204275662,204275619,0.0,0.0,0.0,0.8207171,0.0,0.0,0.0,0.0,0.0,0.0,0.0,0,1,1,1
204295720,204295661,0.0,0.0,0.0,0.8306773,0.0,0.0,0.0,0.0,0.0,0.0,0.0,0,1,1,1
204312872,204312823,0.0,0.0,0.0,0.8446215,0.0,0.0,0.0,0.0,0.0,0.0,0.0,0,1,1,1
204335684,204335625,0.0,0.0,0.0,0.8585657,0.0,0.0,0.0,0.0,0.0,0.0,0.0,0,1,1,1
204352523,204339706,0.0,0.0,0.0,0.876494,0.0,0.0,0.0,0.0,0.0,0.0,0.0,0,1,1,1
204375661,204375618,0.0,0.0,0.0,0.8904382,0.0,0.0,0.0,0.0,0.0,0.0,0.0,0,1,1,1
204396098,204395724,0.0,0.0,0.0,0.9023904,0.0,0.0,0.0,0.0,0.0,0.0,0.0,0,1,1,1
204413590,204413545,0.0,0.0019959707,0.0,0.9083665,0.0,0.0,0.0,0.0,0.0,0.0,0.0,0,1,1,1
204432513,204417613,0.0,0.0019959707,0.0,0.9123506,0.0,0.0,0.0,0.0,0.0,0.0,0.0,0,1,1,1
204455686,204455625,0.0,0.0019959707,0.0,0.9183267,0.0,0.0,0.0,0.0,0.0,0.0,0.0,0,1,1,1
204472554,204459709,0.0,0.0019959707,0.0,0.9203187,0.0,0.0,0.0,0.0,0.0,0.0,0.0,0,1,1,1
204495662,204495619,0.0,0.0039919787,0.0,0.92430276,0.0,0.0,0.0,0.0,0.0,0.0,0.0,0,1,1,1
204514554,204514475,0.0,0.0039919787,0.0,0.9302789,0.0,0.0,0.0,0.0,0.0,0.0,0.0,0,1,1,1
204535669,204535627,0.0,0.0039919787,0.0,0.936255,0.0,0.0,0.0,0.0,0.0,0.0,0.0,0,1,1,1
204555685,204555626,0.0,0.007983995,0.0,0.9442231,0.0,0.0,0.0,0.0,0.0,0.0,0.0,0,1,1,1
204575662,204575619,0.0,0.005987987,0.0,0.94621515,0.0,0.0,0.0,0.0,0.0,0.0,0.0,0,1,1,1
204592791,204579699,0.0,0.007983995,0.0,0.9541832,0.0,0.0,0.0,0.0,0.0,0.0,0.0,0,1,1,1
204615471,204615415,0.0,0.005987987,0.0,0.9701195,0.0,0.0,0.0,0.0,0.0,0.0,0.0,0,1,1,1
204635662,204635619,0.0,0.007983995,0.0,0.98605573,0.0,0.0,0.0,0.0,0.0,0.0,0.0,0,1,1,1
204655663,204655619,0.0,0.007983995,0.0,0.9880478,0.0,0.0,0.0,0.0,0.0,0.0,0.0,0,1,1,1
204675661,204675618,0.0,0.007983995,0.0,0.9880478,0.0,0.0,0.0,0.0,0.0,0.0,0.0,0,1,1,1
204695684,204695624,0.0,0.011976011,0.0,0.9880478,0.0,0.0,0.0,0.0,0.0,0.0,0.0,0,1,1,0
204715723,204715651,0.0,0.015968027,0.0,0.9880478,0.0,0.0,0.0,0.0,0.0,0.0,0.0,0,1,1,0
204735700,204735657,0.0,0.013972019,0.0,0.9880478,0.0,0.0,0.0,0.0,0.0,0.0,0.0,0,1,1,0
204755684,204755624,0.0,0.015968027,0.0,0.9880478,0.0,0.0,0.0,0.0,0.0,0.0,0.0,0,1,1,0
204775673,204775631,0.0,0.017964035,0.0,0.9880478,0.0,0.0,0.0,0.0,0.0,0.0,0.0,0,1,1,0
204815691,204815629,0.0,0.019960042,0.0,0.9880478,0.0,0.0,0.0,0.0,0.0,0.0,0.0,0,1,1,0
204855666,204855622,0.0,0.02395206,0.0,0.9880478,0.0,0.0,0.0,0.0,0.0,0.0,0.0,0,1,1,0
204915684,204915624,0.0,0.025948066,0.0,0.9880478,0.0,0.0,0.0,0.0,0.0,0.0,0.0,0,1,1,0
204975670,204975627,0.0,0.027944075,0.0,0.9880478,0.0,0.0,0.0,0.0,0.0,0.0,0.0,0,1,1,0
204995660,204995617,0.0,0.029940082,0.0,0.9880478,0.0,0.0,0.0,0.0,0.0,0.0,0.0,0,1,1,0
205055706,205055663,0.0,0.027944075,0.0,0.9880478,0.0,0.0,0.0,0.0,0.0,0.0,0.0,0,1,1,0
205095693,205095634,0.0,0.029940082,0.0,0.9880478,0.0,0.0,0.0,0.0,0.0,0.0,0.0,0,1,1,0
205115696,205115637,0.0,0.027944075,0.0,0.9880478,0.0,0.0,0.0,0.0,0.0,0.0,0.0,0,1,1,0
205155698,205155636,0.0,0.029940082,0.0,0.9880478,0.0,0.0,0.0,0.0,0.0,0.0,0.0,0,1,1,0
205216118,205216074,0.0,0.033932097,0.0,0.9880478,0.0,0.0,0.0,0.0,0.0,0.0,0.0,0,1,1,0
205235703,205235641,0.0,0.035928108,0.0,0.9880478,0.0,0.0,0.0,0.0,0.0,0.0,0.0,0,1,1,0
205255707,205255664,0.0,0.037924115,0.0,0.9880478,0.0,0.0,0.0,0.0,0.0,0.0,0.0,0,1,1,0
205275700,205275656,0.0,0.03992012,0.0,0.9880478,0.0,0.0,0.0,0.0,0.0,0.0,0.0,0,1,1,0
205335705,205335547,0.0,0.041916132,0.0,0.9880478,0.0,0.0,0.0,0.0,0.0,0.0,0.0,0,1,1,0
205356490,205356447,0.0,0.03992012,0.0,0.9880478,0.0,0.0,0.0,0.0,0.0,0.0,0.0,0,1,1,0
205375692,205375633,0.0,0.037924115,0.0,0.9880478,0.0,0.0,0.0,0.0,0.0,0.0,0.0,0,1,1,0
205395695,205395635,0.0,0.035928108,0.0,0.9880478,0.0,0.0,0.0,0.0,0.0,0.0,0.0,0,1,1,0
205415728,205415685,0.0,0.033932097,0.0,0.9880478,0.0,0.0,0.0,0.0,0.0,0.0,0.0,0,1,1,0
205435693,205435633,0.0,0.027944075,0.0,0.9880478,0.0,0.0,0.0,0.0,0.0,0.0,0.0,0,1,1,0
205455714,205455638,0.0,0.025948066,0.0,0.9880478,0.0,0.0,0.0,0.0,0.0,0.0,0.0,0,1,1,0
205476170,205476110,0.0,0.019960042,0.0,0.9880478,0.0,0.0,0.0,0.0,0.0,0.0,0.0,0,1,1,0
205496121,205495724,0.0,0.015968027,0.0,0.9880478,0.0,0.0,0.0,0.0,0.0,0.0,0.0,0,1,1,0
205515694,205515634,0.0,0.007983995,0.0,0.9880478,0.0,0.0,0.0,0.0,0.0,0.0,0.0,0,1,1,0
205535695,205535635,0.0,0.0019959707,0.0,0.9880478,0.0,0.0,0.0,0.0,0.0,0.0,0.0,0,1,1,0
205556494,205556451,0.0,0.0,0.0,0.9880478,0.0,0.0,0.0,0.0,0.0,0.0,0.0,0,1,1,0
205575698,205575639,0.0,0.0,0.0,0.9880478,0.0,0.0,0.0,0.0,0.0,0.0,0.0,0,1,1,0
205596765,205596721,0.0,0.0,0.0,0.9880478,0.0,0.0,0.0,0.0,0.0,0.0,0.0,0,1,1,0
205616130,205616087,0.0,0.0,0.0,0.9880478,0.0,0.0,0.0,0.0,0.0,0.0,0.0,0,1,1,0
205635694,205635635,0.0,0.0,0.0,0.9880478,0.0,0.0,0.0,0.0,0.0,0.0,0.0,0,1,1,0
205655705,205655644,0.0,0.0,0.0,0.9880478,0.0,0.0,0.0,0.0,0.0,0.0,0.0,0,1,1,0
205695703,205695644,0.0,0.0,0.0,0.9880478,0.0,0.0,0.0,0.0,0.0,0.0,0.0,0,1,1,0
205715696,205715636,0.0,0.005987987,0.0,0.9880478,0.0,0.0,0.0,0.0,0.0,0.0,0.0,0,1,1,0
205735698,205735638,0.0,0.019960042,0.0,0.9880478,0.0,0.0,0.0,0.0,0.0,0.0,0.0,0,1,1,0
205755698,205755638,0.0,0.03992012,0.0,0.9880478,0.0,0.0,0.0,0.0,0.0,0.0,0.0,0,1,1,0
205775709,205775636,0.0,0.0598802,0.0,0.9880478,0.0,0.0,0.0,0.0,0.0,0.0,0.0,0,1,1,1
205795696,205795636,0.0,0.06986024,0.0,0.9880478,0.0,0.0,0.0,0.0,0.0,0.0,0.0,0,1,1,1
205815689,205815543,0.0,0.073852256,0.0,0.9880478,0.0,0.0,0.0,0.0,0.0,0.0,0.0,0,1,1,1
205835697,205835637,0.0,0.073852256,0.0,0.9880478,0.0,0.0,0.0,0.0,0.0,0.0,0.0,0,1,1,1
205855686,205855642,0.0,0.073852256,0.0,0.9880478,0.0,0.0,0.0,0.0,0.0,0.0,0.0,0,1,1,0
205875693,205875633,0.0,0.07185625,0.0,0.9880478,0.0,0.0,0.0,0.0,0.0,0.0,0.0,0,1,1,0
205895693,205895634,0.0,0.06986024,0.0,0.9880478,0.0,0.0,0.0,0.0,0.0,0.0,0.0,0,1,1,0
205916468,205916424,0.0,0.06387222,0.0,0.9880478,0.0,0.0,0.0,0.0,0.0,0.0,0.0,0,1,1,0
205932553,205932510,0.0,0.0598802,0.0,0.9880478,0.0,0.0,0.0,0.0,0.0,0.0,0.0,0,1,1,0
205955697,205955636,0.0,0.049900163,0.0,0.9880478,0.0,0.0,0.0,0.0,0.0,0.0,0.0,0,1,1,0
205975684,205975641,0.0,0.03992012,0.0,0.9880478,0.0,0.0,0.0,0.0,0.0,0.0,0.0,0,1,1,0
205995693,205995634,0.0,0.027944075,0.0,0.9880478,0.0,0.0,0.0,0.0,0.0,0.0,0.0,0,1,1,0
206015692,206015633,0.0,0.013972019,0.0,0.9880478,0.0,0.0,0.0,0.0,0.0,0.0,0.0,0,1,1,0
206033579,206033536,0.0,0.0019959707,0.0,0.9880478,0.0,0.0,0.0,0.0,0.0,0.0,0.0,0,1,1,1
206055695,206055633,0.0,0.0,0.0,0.9880478,0.0,0.0,0.0,0.0,0.0,0.0,0.0,0,1,1,1
206076498,206076454,0.0,0.0,0.0,0.9880478,0.0,0.0,0.0,0.0,0.0,0.0,0.0,0,1,1,0
206095695,206095636,0.0,0.0,0.0,0.9880478,0.0,0.0,0.0,0.0,0.0,0.0,0.0,0,1,1,0
206115662,206115620,0.0,0.0,0.0,0.9880478,0.0,0.0,0.0,0.0,0.0,0.0,0.0,0,1,1,0
206192511,206179670,0.0,0.0,0.0,0.9880478,0.0,0.0,0.0,0.0,0.0,0.0,0.0,0,1,1,0
206215659,206215532,0.0,0.0,0.0,0.9880478,0.0,0.0,0.0,0.0,0.0,0.0,0.0,0,1,1,0
206515660,206515617,0.0,0.0,0.0,0.9880478,0.0,0.0,0.0,0.0,0.0,0.0,0.0,0,1,1,0
206635422,206635364,0.0,0.0,0.0,0.9880478,0.0,0.0,0.0,0.0,0.0,0.0,0.0,0,1,1,0
206656105,206655725,0.0,0.0,0.0,0.9880478,0.0,0.0,0.0,0.0,0.0,0.0,0.0,0,1,1,0
206675661,206675618,0.0,0.0,0.0,0.9880478,0.0,0.0,0.0,0.0,0.0,0.0,0.0,0,1,1,0
206715664,206715621,0.0,0.0,0.0,0.9880478,0.0,0.0,0.0,0.0,0.0,0.0,0.0,0,1,1,0
206736647,206735725,0.0,0.0,0.0,0.9880478,0.0,0.0,0.0,0.0,0.0,0.0,0.0,0,1,1,0
206755656,206755539,0.0,0.0,0.0,0.9880478,0.0,0.0,0.0,0.0,0.0,0.0,0.0,0,1,1,0
206796119,206796075,0.0,0.0,0.0,0.9880478,0.0,0.0,0.0,0.0,0.0,0.0,0.0,0,1,1,0
206816092,206815724,0.0,0.0,0.0,0.9880478,0.0,0.0,0.0,0.0,0.0,0.0,0.0,0,1,1,0
206836383,206836326,0.0,0.0,0.0,0.9880478,0.0,0.0,0.0,0.0,0.0,0.0,0.0,0,1,1,0
206855665,206855622,0.0,0.0,0.0,0.9880478,0.0,0.0,0.0,0.0,0.0,0.0,0.0,0,1,1,0
206875655,206875543,0.0,0.0,0.0,0.9880478,0.0,0.0,0.0,0.0,0.0,0.0,0.0,0,1,1,0
206895661,206895543,0.0,0.0019959707,0.0,0.9880478,0.0,0.0,0.0,0.0,0.0,0.0,0.0,0,1,1,0
206915661,206915618,0.0,0.011976011,0.0,0.9880478,0.0,0.0,0.0,0.0,0.0,0.0,0.0,0,1,1,0
206935654,206935532,0.0,0.019960042,0.0,0.9880478,0.0,0.0,0.0,0.0,0.0,0.0,0.0,0,1,1,0
206955662,206955620,0.0,0.019960042,0.0,0.9880478,0.0,0.0,0.0,0.0,0.0,0.0,0.0,0,1,1,0
206975686,206975624,0.0,0.02395206,0.0,0.9880478,0.0,0.0,0.0,0.0,0.0,0.0,0.0,0,1,1,0
207016096,207015724,0.0,0.019960042,0.0,0.9880478,0.0,0.0,0.0,0.0,0.0,0.0,0.0,0,1,1,0
207036396,207036351,0.0,0.019960042,0.0,0.9880478,0.0,0.0,0.0,0.0,0.0,0.0,0.0,0,1,1,0
207055670,207055626,0.0,0.011976011,0.0,0.9880478,0.0,0.0,0.0,0.0,0.0,0.0,0.0,0,1,1,0
207076105,207076061,0.0,0.0,0.0,0.9880478,0.0,0.0,0.0,0.0,0.0,0.0,0.0,0,1,1,0
207095648,207095532,0.0,0.0,0.0,0.9880478,0.0,0.0,0.0,0.0,0.0,0.0,0.0,0,1,1,0
207175665,207175533,0.0,0.0,0.0,0.9880478,0.0,0.0,0.0,0.0,0.0,0.0,0.0,0,1,1,0
207196134,207196090,0.0,0.0,0.0,0.9880478,0.0,0.0,0.0,0.0,0.0,0.0,0.0,0,1,1,0
207235694,207235634,0.0,0.0,0.0,0.9880478,0.0,0.0,0.0,0.0,0.0,0.0,0.0,0,1,1,0
207276129,207276085,0.0,0.0,0.0,0.9880478,0.0,0.0,0.0,0.0,0.0,0.0,0.0,0,1,1,0
207295663,207295532,0.0,0.0,0.0,0.9880478,0.0,0.0,0.0,0.0,0.0,0.0,0.0,0,1,1,0
207315663,207315533,0.0,0.0,0.0,0.9880478,0.0,0.0,0.0,0.0,0.0,0.0,0.0,0,1,1,0
207335700,207335641,0.0,0.0,0.0,0.9880478,0.0,0.0,0.0,0.0,0.0,0.0,0.0,0,1,1,0
207355665,207355532,0.0,0.0,0.0,0.9880478,0.0,0.0,0.0,0.0,0.0,0.0,0.0,0,1,1,0
207375686,207375540,0.0,0.0,0.0,0.9880478,0.0,0.0,0.0,0.0,0.0,0.0,0.0,0,1,1,0
207396424,207396381,0.0,0.0019959707,0.0,0.9880478,0.0,0.0,0.0,0.0,0.0,0.0,0.0,0,1,1,0
207416114,207415724,0.0,0.005987987,0.0,0.9880478,0.0,0.0,0.0,0.0,0.0,0.0,0.0,0,1,1,0
207436358,207436315,0.0,0.013972019,0.0,0.9880478,0.0,0.0,0.0,0.0,0.0,0.0,0.0,0,1,1,0
207455699,207455638,0.0,0.02395206,0.0,0.9880478,0.0,0.0,0.0,0.0,0.0,0.0,0.0,0,1,1,0
207475693,207475634,0.0,0.027944075,0.0,0.9880478,0.0,0.0,0.0,0.0,0.0,0.0,0.0,0,1,1,0
207496162,207495725,0.0,0.033932097,0.0,0.9880478,0.0,0.0,0.0,0.0,0.0,0.0,0.0,0,1,1,0
207515665,207515534,0.0,0.045908146,0.0,0.9880478,0.0,0.0,0.0,0.0,0.0,0.0,0.0,0,1,1,0
207535685,207535625,0.0,0.05189617,0.0,0.9880478,0.0,0.0,0.0,0.0,0.0,0.0,0.0,0,1,1,0
207555696,207555636,0.0,0.0598802,0.0,0.9880478,0.0,0.0,0.0,0.0,0.0,0.0,0.0,0,1,1,0
207575692,207575532,0.0,0.06986024,0.0,0.9880478,0.0,0.0,0.0,0.0,0.0,0.0,0.0,0,1,1,1
207595693,207595634,0.0,0.073852256,0.0,0.9880478,0.0,0.0,0.0,0.0,0.0,0.0,0.0,0,1,1,1
207615691,207615541,0.0,0.08183629,0.0,0.9880478,0.0,0.0,0.0,0.0,0.0,0.0,0.0,0,1,1,1
207635687,207635538,0.0,0.0838323,0.0,0.9880478,0.0,0.0,0.0,0.0,0.0,0.0,0.0,0,1,1,0
207655665,207655532,0.0,0.089820325,0.0,0.9880478,0.0,0.0,0.0,0.0,0.0,0.0,0.0,0,1,1,0
207696110,207695724,0.0,0.089820325,0.0,0.9880478,0.0,0.0,0.0,0.0,0.0,0.0,0.0,0,1,1,0
207715664,207715532,0.0,0.089820325,0.0,0.9880478,0.0,0.0,0.0,0.0,0.0,0.0,0.0,0,1,1,0
207735708,207735649,0.0,0.089820325,0.0,0.9880478,0.0,0.0,0.0,0.0,0.0,0.0,0.0,0,1,1,0
207755666,207755533,0.0,0.09381234,0.0,0.9880478,0.0,0.0,0.0,0.0,0.0,0.0,0.0,0,1,1,0
207775684,207775535,0.0,0.101796366,0.0,0.9880478,0.0,0.0,0.0,0.0,0.0,0.0,0.0,0,1,1,0
207795663,207795532,0.0,0.10778439,0.0,0.9880478,0.0,0.0,0.0,0.0,0.0,0.0,0.0,0,1,1,0
207816440,207815728,0.0,0.113772415,0.0,0.9880478,0.0,0.0,0.0,0.0,0.0,0.0,0.0,0,1,1,0
207836381,207836337,0.0,0.117764436,0.0,0.9880478,0.0,0.0,0.0,0.0,0.0,0.0,0.0,0,1,1,0
207855697,207855637,0.0,0.12375246,0.0,0.9880478,0.0,0.0,0.0,0.0,0.0,0.0,0.0,0,1,1,0
207875700,207875640,0.0,0.12974048,0.0,0.9880478,0.0,0.0,0.0,0.0,0.0,0.0,0.0,0,1,1,0
207895694,207895634,0.0,0.13772452,0.0,0.9880478,0.0,0.0,0.0,0.0,0.0,0.0,0.0,0,1,1,0
207915666,207915531,0.0,0.14171652,0.0,0.9880478,0.0,0.0,0.0,0.0,0.0,0.0,0.0,0,1,1,0
207935694,207935635,0.0,0.14970057,0.0,0.9880478,0.0,0.0,0.0,0.0,0.0,0.0,0.0,0,1,1,0
207952801,207952756,0.0,0.15568858,0.0,0.9880478,0.0,0.0,0.0,0.0,0.0,0.0,0.0,0,1,1,0
207976174,207975725,0.0,0.16167662,0.0,0.9880478,0.0,0.0,0.0,0.0,0.0,0.0,0.0,0,1,1,0
207995700,207995640,0.0,0.16766463,0.0,0.9880478,0.0,0.0,0.0,0.0,0.0,0.0,0.0,0,1,1,0
208015662,208015532,0.0,0.17764467,0.0,0.9880478,0.0,0.0,0.0,0.0,0.0,0.0,0.0,0,1,1,1
208035664,208035533,0.0,0.18962072,0.0,0.9880478,0.0,0.0,0.0,0.0,0.0,0.0,0.0,0,1,1,1
208053564,208053521,0.0,0.19960076,0.0,0.9880478,0.0,0.0,0.0,0.0,0.0,0.0,0.0,0,1,1,1
208076162,208075725,0.0,0.20359278,0.0,0.9880478,0.0,0.0,0.0,0.0,0.0,0.0,0.0,0,1,1,1
208095540,208095497,0.0,0.2115768,0.0,0.9880478,0.0,0.0,0.0,0.0,0.0,0.0,0.0,0,1,1,1
208116121,208116077,0.0,0.22155684,0.0,0.9880478,0.0,0.0,0.0,0.0,0.0,0.0,0.0,0,1,1,1
208135652,208135592,0.0,0.22954088,0.0,0.9880478,0.0,0.0,0.0,0.0,0.0,0.0,0.0,0,1,1,1
208154541,208154475,0.0,0.23752491,0.0,0.9880478,0.0,0.0,0.0,0.0,0.0,0.0,0.0,0,1,1,1
208175647,208175532,0.0,0.24151693,0.0,0.9880478,0.0,0.0,0.0,0.0,0.0,0.0,0.0,0,1,1,1
208196123,208196069,0.0,0.24950096,0.0,0.9880478,0.0,0.0,0.0,0.0,0.0,0.0,0.0,0,1,1,1
208215660,208215618,0.0,0.255489,0.0,0.9880478,0.0,0.0,0.0,0.0,0.0,0.0,0.0,0,1,1,1
208235662,208235618,0.0,0.261477,0.0,0.9880478,0.0,0.0,0.0,0.0,0.0,0.0,0.0,0,1,1,1
208255372,208255328,0.0,0.263473,0.0,0.9880478,0.0,0.0,0.0,0.0,0.0,0.0,0.0,0,1,1,1
208275647,208275532,0.0,0.26946104,0.0,0.9880478,0.0,0.0,0.0,0.0,0.0,0.0,0.0,0,1,1,1
208295646,208295532,0.0,0.27145705,0.0,0.9880478,0.0,0.0,0.0,0.0,0.0,0.0,0.0,0,1,1,0
208315664,208315621,0.0,0.2794411,0.0,0.9880478,0.0,0.0,0.0,0.0,0.0,0.0,0.0,0,1,1,0
208335662,208335619,0.0,0.2834331,0.0,0.9880478,0.0,0.0,0.0,0.0,0.0,0.0,0.0,0,1,1,0
208352472,208352408,0.0,0.29141712,0.0,0.9880478,0.0,0.0,0.0,0.0,0.0,0.0,0.0,0,1,1,1
208375653,208375610,0.0,0.29540914,0.0,0.9880478,0.0,0.0,0.0,0.0,0.0,0.0,0.0,0,1,1,0
208395653,208395537,0.0,0.29940116,0.0,0.9880478,0.0,0.0,0.0,0.0,0.0,0.0,0.0,0,1,1,0
208415652,208415533,0.0,0.3053892,0.0,0.9880478,0.0,0.0,0.0,0.0,0.0,0.0,0.0,0,1,1,0
208435645,208435532,0.0,0.31736523,0.0,0.9880478,0.0,0.0,0.0,0.0,0.0,0.0,0.0,0,1,1,1
208453574,208453528,0.0,0.33333328,0.0,0.9880478,0.0,0.0,0.0,0.0,0.0,0.0,0.0,0,1,1,1
208476098,208475725,0.0,0.34331334,0.0,0.9880478,0.0,0.0,0.0,0.0,0.0,0.0,0.0,0,1,1,1
208495505,208495462,0.0,0.3592814,0.0,0.9880478,0.0,0.0,0.0,0.0,0.0,0.0,0.0,0,1,1,1
208515656,208515531,0.0,0.37325346,0.0,0.9880478,0.0,0.0,0.0,0.0,0.0,0.0,0.0,0,1,1,1
208535663,208535620,0.0,0.3832335,0.0,0.9880478,0.0,0.0,0.0,0.0,0.0,0.0,0.0,0,1,1,1
208554467,208554316,0.0,0.39321354,0.0,0.9880478,0.0,0.0,0.0,0.0,0.0,0.0,0.0,0,1,1,1
208575504,208575461,0.0,0.39920157,0.0,0.9880478,0.0,0.0,0.0,0.0,0.0,0.0,0.0,0,1,1,1
208595663,208595620,0.0,0.40319356,0.0,0.9880478,0.0,0.0,0.0,0.0,0.0,0.0,0.0,0,1,1,1
208615686,208615617,0.0,0.41516963,0.0,0.9880478,0.0,0.0,0.0,0.0,0.0,0.0,0.0,0,1,1,1
208635663,208635618,0.0,0.4351297,0.0,0.9880478,0.0,0.0,0.0,0.0,0.0,0.0,0.0,0,1,1,1
208655493,208655448,0.0,0.44910175,0.0,0.9880478,0.0,0.0,0.0,0.0,0.0,0.0,0.0,0,1,1,1
208676093,208675724,0.0,0.4610778,0.0,0.9880478,0.0,0.0,0.0,0.0,0.0,0.0,0.0,0,1,1,1
208695497,208695455,0.0,0.47305384,0.0,0.9880478,0.0,0.0,0.0,0.0,0.0,0.0,0.0,0,1,1,1
208715653,208715533,0.0,0.48103788,0.0,0.9880478,0.0,0.0,0.0,0.0,0.0,0.0,0.0,0,1,1,1
208735660,208735617,0.0,0.4830339,0.0,0.9880478,0.0,0.0,0.0,0.0,0.0,0.0,0.0,0,1,1,1
208755654,208755532,0.0,0.49301395,0.0,0.9880478,0.0,0.0,0.0,0.0,0.0,0.0,0.0,0,1,1,1
208775498,208775455,0.0,0.502994,0.0,0.9880478,0.0,0.0,0.0,0.0,0.0,0.0,0.0,0,1,1,1
208795653,208795610,0.0,0.510978,0.0,0.9880478,0.0,0.0,0.0,0.0,0.0,0.0,0.0,0,1,1,1
208815647,208815532,0.0,0.510978,0.0,0.9880478,0.0,0.0,0.0,0.0,0.0,0.0,0.0,0,1,1,1
208835660,208835532,0.0,0.512974,0.0,0.9880478,0.0,0.0,0.0,0.0,0.0,0.0,0.0,0,1,1,1
208855654,208855532,0.0,0.512974,0.0,0.9880478,0.0,0.0,0.0,0.0,0.0,0.0,0.0,0,1,1,0
208875660,208875617,0.0,0.52095807,0.0,0.9880478,0.0,0.0,0.0,0.0,0.0,0.0,0.0,0,1,1,1
208895662,208895620,0.0,0.52694607,0.0,0.9880478,0.0,0.0,0.0,0.0,0.0,0.0,0.0,0,1,1,1
208915517,208915473,0.0,0.52894205,0.0,0.9880478,0.0,0.0,0.0,0.0,0.0,0.0,0.0,0,1,1,0
208935665,208935539,0.0,0.53293407,0.0,0.9880478,0.0,0.0,0.0,0.0,0.0,0.0,0.0,0,1,1,0
208956344,208955728,0.0,0.53892213,0.0,0.9880478,0.0,0.0,0.0,0.0,0.0,0.0,0.0,0,1,1,0
208975660,208975618,0.0,0.54890215,0.0,0.9880478,0.0,0.0,0.0,0.0,0.0,0.0,0.0,0,1,1,1
208995647,208995532,0.0,0.55489016,0.0,0.9880478,0.0,0.0,0.0,0.0,0.0,0.0,0.0,0,1,1,1
209015516,209015474,0.0,0.55489016,0.0,0.9880478,0.0,0.0,0.0,0.0,0.0,0.0,0.0,0,1,1,0
209035515,209035472,0.0,0.5508982,0.0,0.9880478,0.0,0.0,0.0,0.0,0.0,0.0,0.0,0,1,1,0
209055658,209055534,0.0,0.5568862,0.0,0.9880478,0.0,0.0,0.0,0.0,0.0,0.0,0.0,0,1,1,0
209076093,209075724,0.0,0.55489016,0.0,0.9880478,0.0,0.0,0.0,0.0,0.0,0.0,0.0,0,1,1,0
209095483,209095439,0.0,0.5568862,0.0,0.9880478,0.0,0.0,0.0,0.0,0.0,0.0,0.0,0,1,1,0
209116132,209115724,0.0,0.55489016,0.0,0.9880478,0.0,0.0,0.0,0.0,0.0,0.0,0.0,0,1,1,0
209135648,209135534,0.0,0.5568862,0.0,0.9880478,0.0,0.0,0.0,0.0,0.0,0.0,0.0,0,1,1,0
209175665,209175532,0.0,0.55489016,0.0,0.9880478,0.0,0.0,0.0,0.0,0.0,0.0,0.0,0,1,1,0
209196110,209195724,0.0,0.5568862,0.0,0.9880478,0.0,0.0,0.0,0.0,0.0,0.0,0.0,0,1,1,0
209215731,209215686,0.0,0.5568862,0.0,0.9880478,0.0,0.0,0.0,0.0,0.0,0.0,0.0,0,1,1,0
209236342,209235724,0.0,0.5608782,0.0,0.9880478,0.0,0.0,0.0,0.0,0.0,0.0,0.0,0,1,1,0
209255517,209255474,0.0,0.5608782,0.0,0.9880478,0.0,0.0,0.0,0.0,0.0,0.0,0.0,0,1,1,0
209275665,209275534,0.0,0.5668662,0.0,0.9880478,0.0,0.0,0.0,0.0,0.0,0.0,0.0,0,1,1,0
209295664,209295532,0.0,0.57085824,0.0,0.9880478,0.0,0.0,0.0,0.0,0.0,0.0,0.0,0,1,1,0
209315698,209315639,0.0,0.57684624,0.0,0.9880478,0.0,0.0,0.0,0.0,0.0,0.0,0.0,0,1,1,0
209335517,209335474,0.0,0.5868263,0.0,0.9880478,0.0,0.0,0.0,0.0,0.0,0.0,0.0,0,1,1,0
209355527,209355454,0.0,0.59081835,0.0,0.9880478,0.0,0.0,0.0,0.0,0.0,0.0,0.0,0,1,1,0
209375689,209375542,0.0,0.59481037,0.0,0.9880478,0.0,0.0,0.0,0.0,0.0,0.0,0.0,0,1,1,0
209395513,209395470,0.0,0.6047904,0.0,0.9880478,0.0,0.0,0.0,0.0,0.0,0.0,0.0,0,1,1,0
209415708,209415665,0.0,0.61676645,0.0,0.9880478,0.0,0.0,0.0,0.0,0.0,0.0,0.0,0,1,1,1
209436406,209435724,0.0,0.6327345,0.0,0.9880478,0.0,0.0,0.0,0.0,0.0,0.0,0.0,0,1,1,1
209455641,209455497,0.0,0.64471054,0.0,0.9880478,0.0,0.0,0.0,0.0,0.0,0.0,0.0,0,1,1,1
209475662,209475532,0.0,0.65469056,0.0,0.9880478,0.0,0.0,0.0,0.0,0.0,0.0,0.0,0,1,1,1
209495663,209495532,0.0,0.6586826,0.0,0.9880478,0.0,0.0,0.0,0.0,0.0,0.0,0.0,0,1,1,1
209515695,209515635,0.0,0.66467065,0.0,0.9880478,0.0,0.0,0.0,0.0,0.0,0.0,0.0,0,1,1,1
209535518,209535473,0.0,0.67065865,0.0,0.9880478,0.0,0.0,0.0,0.0,0.0,0.0,0.0,0,1,1,1
209555500,209555457,0.0,0.6726546,0.0,0.9880478,0.0,0.0,0.0,0.0,0.0,0.0,0.0,0,1,1,1
209575665,209575533,0.0,0.67664665,0.0,0.9880478,0.0,0.0,0.0,0.0,0.0,0.0,0.0,0,1,1,1
209595502,209595459,0.0,0.6826347,0.0,0.9880478,0.0,0.0,0.0,0.0,0.0,0.0,0.0,0,1,1,1
209615490,209615447,0.0,0.6826347,0.0,0.9880478,0.0,0.0,0.0,0.0,0.0,0.0,0.0,0,1,1,0
209635508,209635464,0.0,0.6826347,0.0,0.9880478,0.0,0.0,0.0,0.0,0.0,0.0,0.0,0,1,1,0
209655684,209655532,0.0,0.69061875,0.0,0.9880478,0.0,0.0,0.0,0.0,0.0,0.0,0.0,0,1,1,0
209695664,209695532,0.0,0.69061875,0.0,0.9880478,0.0,0.0,0.0,0.0,0.0,0.0,0.0,0,1,1,0
209715685,209715532,0.0,0.69261473,0.0,0.9880478,0.0,0.0,0.0,0.0,0.0,0.0,0.0,0,1,1,0
209735505,209735462,0.0,0.69061875,0.0,0.9880478,0.0,0.0,0.0,0.0,0.0,0.0,0.0,0,1,1,0
209755510,209755467,0.0,0.69061875,0.0,0.9880478,0.0,0.0,0.0,0.0,0.0,0.0,0.0,0,1,1,0
209775663,209775532,0.0,0.6886227,0.0,0.9880478,0.0,0.0,0.0,0.0,0.0,0.0,0.0,0,1,1,0
209795517,209795440,0.0,0.6886227,0.0,0.9880478,0.0,0.0,0.0,0.0,0.0,0.0,0.0,0,1,1,0
209815695,209815635,0.0,0.6826347,0.0,0.9880478,0.0,0.0,0.0,0.0,0.0,0.0,0.0,0,1,1,0
209835694,209835634,0.0,0.6826347,0.0,0.9880478,0.0,0.0,0.0,0.0,0.0,0.0,0.0,0,1,1,0
209876108,209875725,0.0,0.67664665,0.0,0.9880478,0.0,0.0,0.0,0.0,0.0,0.0,0.0,0,1,1,0
209895496,209895453,0.0,0.67664665,0.0,0.9880478,0.0,0.0,0.0,0.0,0.0,0.0,0.0,0,1,1,0
209915664,209915532,0.0,0.6726546,0.0,0.9880478,0.0,0.0,0.0,0.0,0.0,0.0,0.0,0,1,1,0
209935689,209935646,0.0,0.67065865,0.0,0.9880478,0.0,0.0,0.0,0.0,0.0,0.0,0.0,0,1,1,0
209955698,209955638,0.0,0.6726546,0.0,0.9880478,0.0,0.0,0.0,0.0,0.0,0.0,0.0,0,1,1,0
209972520,209972451,0.0,0.6726546,0.0,0.9880478,0.0,0.0,0.0,0.0,0.0,0.0,0.0,0,1,1,0
209995487,209995444,0.0,0.6726546,0.0,0.9880478,0.0,0.0,0.0,0.0,0.0,0.0,0.0,0,1,1,0
210015697,210015638,0.0,0.67664665,0.0,0.9880478,0.0,0.0,0.0,0.0,0.0,0.0,0.0,0,1,1,0
210035695,210035635,0.0,0.6726546,0.0,0.9880478,0.0,0.0,0.0,0.0,0.0,0.0,0.0,0,1,1,0
210055484,210055441,0.0,0.6726546,0.0,0.9880478,0.0,0.0,0.0,0.0,0.0,0.0,0.0,0,1,1,0
210073613,210073552,0.0,0.67664665,0.0,0.9880478,0.0,0.0,0.0,0.0,0.0,0.0,0.0,0,1,1,0
210115665,210115533,0.0,0.6726546,0.0,0.9880478,0.0,0.0,0.0,0.0,0.0,0.0,0.0,0,1,1,0
210135699,210135656,0.0,0.67664665,0.0,0.9880478,0.0,0.0,0.0,0.0,0.0,0.0,0.0,0,1,1,0
210174473,210174414,0.0,0.6786427,0.0,0.9880478,0.0,0.0,0.0,0.0,0.0,0.0,0.0,0,1,1,0
210215693,210215650,0.0,0.6826347,0.0,0.9880478,0.0,0.0,0.0,0.0,0.0,0.0,0.0,0,1,1,0
210236338,210235725,0.0,0.68662673,0.0,0.9880478,0.0,0.0,0.0,0.0,0.0,0.0,0.0,0,1,1,0
210255512,210255469,0.0,0.69061875,0.0,0.9880478,0.0,0.0,0.0,0.0,0.0,0.0,0.0,0,1,1,0
210275358,210275315,0.0,0.69261473,0.0,0.9880478,0.0,0.0,0.0,0.0,0.0,0.0,0.0,0,1,1,0
210295687,210295645,0.0,0.6886227,0.0019959707,0.9880478,0.0,0.0,0.0,0.0,0.0,0.0,0.0,0,1,1,0
210315500,210315458,0.0,0.68662673,0.011976011,0.9880478,0.0,0.0,0.0,0.0,0.0,0.0,0.0,0,1,1,0
210335650,210335533,0.0,0.6886227,0.02395206,0.9880478,0.0,0.0,0.0,0.0,0.0,0.0,0.0,0,1,1,0
210355537,210355494,0.0,0.69261473,0.035928108,0.9880478,0.0,0.0,0.0,0.0,0.0,0.0,0.0,0,1,1,0
210372687,210372627,0.0,0.69061875,0.047904156,0.9880478,0.0,0.0,0.0,0.0,0.0,0.0,0.0,0,1,1,1
210395651,210395532,0.0,0.6886227,0.06187621,0.9880478,0.0,0.0,0.0,0.0,0.0,0.0,0.0,0,1,1,1
210415517,210415470,0.0,0.6886227,0.07784428,0.9880478,0.0,0.0,0.0,0.0,0.0,0.0,0.0,0,1,1,1
210435512,210435469,0.0,0.6886227,0.085828304,0.9880478,0.0,0.0,0.0,0.0,0.0,0.0,0.0,0,1,1,1
210455648,210455533,0.0,0.6886227,0.09580834,0.9880478,0.0,0.0,0.0,0.0,0.0,0.0,0.0,0,1,1,1
210473622,210473544,0.0,0.6886227,0.10778439,0.9880478,0.0,0.0,0.0,0.0,0.0,0.0,0.0,0,1,1,1
210495501,210495459,0.0,0.6886227,0.117764436,0.9880478,0.0,0.0,0.0,0.0,0.0,0.0,0.0,0,1,1,1
210515646,210515532,0.0,0.6886227,0.12774447,0.9880478,0.0,0.0,0.0,0.0,0.0,0.0,0.0,0,1,1,1
210535688,210535645,0.0,0.6886227,0.1337325,0.9880478,0.0,0.0,0.0,0.0,0.0,0.0,0.0,0,1,1,1
210555684,210555623,0.0,0.69061875,0.13572851,0.9880478,0.0,0.0,0.0,0.0,0.0,0.0,0.0,0,1,1,1
210574446,210574385,0.0,0.6946107,0.13772452,0.9880478,0.0,0.0,0.0,0.0,0.0,0.0,0.0,0,1,1,1
210595491,210595448,0.0,0.7005988,0.13972051,0.9880478,0.0,0.0,0.0,0.0,0.0,0.0,0.0,0,1,1,1
210615501,210615458,0.0,0.70259476,0.13972051,0.9880478,0.0,0.0,0.0,0.0,0.0,0.0,0.0,0,1,1,0
210635492,210635449,0.0,0.70259476,0.13972051,0.9880478,0.0,0.0,0.0,0.0,0.0,0.0,0.0,0,1,1,0
210655519,210655475,0.0,0.7045908,0.13772452,0.9880478,0.0,0.0,0.0,0.0,0.0,0.0,0.0,0,1,1,0
210675331,210675274,0.0,0.70259476,0.1337325,0.9880478,0.0,0.0,0.0,0.0,0.0,0.0,0.0,0,1,1,0
210695646,210695532,0.0,0.69860274,0.12774447,0.9880478,0.0,0.0,0.0,0.0,0.0,0.0,0.0,0,1,1,0
210715650,210715533,0.0,0.69860274,0.117764436,0.9880478,0.0,0.0,0.0,0.0,0.0,0.0,0.0,0,1,1,0
210735467,210735424,0.0,0.6946107,0.10578839,0.9880478,0.0,0.0,0.0,0.0,0.0,0.0,0.0,0,1,1,0
210755470,210755426,0.0,0.6946107,0.09780435,0.9880478,0.0,0.0,0.0,0.0,0.0,0.0,0.0,0,1,1,0
210775526,210775451,0.0,0.6886227,0.089820325,0.9880478,0.0,0.0,0.0,0.0,0.0,0.0,0.0,0,1,1,0
210795728,210795685,0.0,0.6806387,0.07784428,0.9880478,0.0,0.0,0.0,0.0,0.0,0.0,0.0,0,1,1,0
210815646,210815532,0.0,0.67664665,0.073852256,0.9880478,0.0,0.0,0.0,0.0,0.0,0.0,0.0,0,1,1,0
210835646,210835532,0.0,0.67065865,0.06786423,0.9880478,0.0,0.0,0.0,0.0,0.0,0.0,0.0,0,1,1,0
210855664,210855619,0.0,0.66467065,0.06387222,0.9880478,0.0,0.0,0.0,0.0,0.0,0.0,0.0,0,1,1,0
210875664,210875533,0.0,0.6586826,0.06187621,0.9880478,0.0,0.0,0.0,0.0,0.0,0.0,0.0,0,1,1,0
210895475,210895433,0.0,0.6467065,0.0598802,0.9880478,0.0,0.0,0.0,0.0,0.0,0.0,0.0,0,1,1,0
210915513,210915470,0.0,0.63872254,0.0598802,0.9880478,0.0,0.0,0.0,0.0,0.0,0.0,0.0,0,1,1,0
210935649,210935535,0.0,0.6367265,0.06187621,0.9880478,0.0,0.0,0.0,0.0,0.0,0.0,0.0,0,1,1,0
210955650,210955535,0.0,0.63872254,0.06387222,0.9880478,0.0,0.0,0.0,0.0,0.0,0.0,0.0,0,1,1,0
210975692,210975620,0.0,0.64471054,0.06387222,0.9880478,0.0,0.0,0.0,0.0,0.0,0.0,0.0,0,1,1,0
210995480,210995436,0.0,0.6467065,0.06986024,0.9880478,0.0,0.0,0.0,0.0,0.0,0.0,0.0,0,1,1,0
211235459,211235416,0.0,0.6367265,0.07984028,0.9880478,0.0,0.0,0.0,0.0,0.0,0.0,0.0,0,1,1,0
211255684,211255532,0.0,0.6307385,0.07185625,0.9880478,0.0,0.0,0.0,0.0,0.0,0.0,0.0,0,1,1,0
211275489,211275446,0.0,0.6207585,0.06387222,0.9880478,0.0,0.0,0.0,0.0,0.0,0.0,0.0,0,1,1,0
211295456,211295413,0.0,0.61676645,0.0598802,0.9880478,0.0,0.0,0.0,0.0,0.0,0.0,0.0,0,1,1,0
211315663,211315533,0.0,0.6107784,0.05189617,0.9880478,0.0,0.0,0.0,0.0,0.0,0.0,0.0,0,1,1,0
211335694,211335634,0.0,0.6047904,0.041916132,0.9880478,0.0,0.0,0.0,0.0,0.0,0.0,0.0,0,1,1,0
211355665,211355532,0.0,0.60079837,0.035928108,0.9880478,0.0,0.0,0.0,0.0,0.0,0.0,0.0,0,1,1,0
211375450,211375407,0.0,0.59481037,0.025948066,0.9880478,0.0,0.0,0.0,0.0,0.0,0.0,0.0,0,1,1,0
211395514,211395443,0.0,0.5868263,0.013972019,0.9880478,0.0,0.0,0.0,0.0,0.0,0.0,0.0,0,1,1,1
211415685,211415537,0.0,0.58083826,0.0039919787,0.9880478,0.0,0.0,0.0,0.0,0.0,0.0,0.0,0,1,1,1
211435664,211435534,0.0,0.57684624,0.0,0.9880478,0.0,0.0,0.0,0.0,0.0,0.0,0.0,0,1,1,1
211475473,211475430,0.0,0.5728543,0.0,0.98605573,0.0,0.0,0.0,0.0,0.0,0.0,0.0,0,1,1,0
211495695,211495536,0.0,0.56886226,0.0,0.96613544,0.0,0.0,0.0,0.0,0.0,0.0,0.0,0,1,1,0
211515501,211515458,0.0,0.5668662,0.0,0.94820714,0.0,0.0,0.0,0.0,0.0,0.0,0.0,0,1,1,0
211535495,211535451,0.0,0.56487024,0.0,0.9183267,0.0,0.0,0.0,0.0,0.0,0.0,0.0,0,1,1,1
211555466,211555423,0.0,0.5608782,0.0,0.87848604,0.0,0.0,0.0,0.0,0.0,0.0,0.0,0,1,1,1
211575488,211575445,0.0,0.5608782,0.0,0.8386454,0.0,0.0,0.0,0.0,0.0,0.0,0.0,0,1,1,1
211595538,211595495,0.0,0.5588822,0.0,0.80278885,0.0,0.0,0.0,0.0,0.0,0.0,0.0,0,1,1,1
211615684,211615532,0.0,0.5568862,0.0,0.77091634,0.0,0.0,0.0,0.0,0.0,0.0,0.0,0,1,1,1
211635689,211635646,0.0,0.5568862,0.0039919787,0.7450199,0.0,0.0,0.0,0.0,0.0,0.0,0.0,0,1,1,1
211655430,211655387,0.0,0.5508982,0.011976011,0.7231076,0.0,0.0,0.0,0.0,0.0,0.0,0.0,0,1,1,1
211675664,211675532,0.0,0.54890215,0.015968027,0.7031872,0.0,0.0,0.0,0.0,0.0,0.0,0.0,0,1,1,1
211695475,211695433,0.0,0.54890215,0.019960042,0.689243,0.0,0.0,0.0,0.0,0.0,0.0,0.0,0,1,1,1
211715692,211715532,0.0,0.5469062,0.02395206,0.67928284,0.0,0.0,0.0,0.0,0.0,0.0,0.0,0,1,1,1
211735671,211735628,0.0,0.54890215,0.025948066,0.66932267,0.0,0.0,0.0,0.0,0.0,0.0,0.0,0,1,1,1
211755666,211755532,0.0,0.54890215,0.027944075,0.66135454,0.0,0.0,0.0,0.0,0.0,0.0,0.0,0,1,1,1
211775437,211775393,0.0,0.5469062,0.025948066,0.64741033,0.0,0.0,0.0,0.0,0.0,0.0,0.0,0,1,1,1
211795467,211795424,0.0,0.5469062,0.02395206,0.6354581,0.0,0.0,0.0,0.0,0.0,0.0,0.0,0,1,1,1
211815443,211815400,0.0,0.5469062,0.027944075,0.62749004,0.0,0.0,0.0,0.0,0.0,0.0,0.0,0,1,1,1
211835455,211835412,0.0,0.54491013,0.029940082,0.61752987,0.0,0.0,0.0,0.0,0.0,0.0,0.0,0,1,1,1
211855504,211855461,0.0,0.54291415,0.033932097,0.60557765,0.0,0.0,0.0,0.0,0.0,0.0,0.0,0,1,1,1
211875456,211875412,0.0,0.53892213,0.033932097,0.6015936,0.0,0.0,0.0,0.0,0.0,0.0,0.0,0,1,1,1
211895663,211895532,0.0,0.5369261,0.033932097,0.59960157,0.0,0.0,0.0,0.0,0.0,0.0,0.0,0,1,1,1
211915453,211915409,0.0,0.53293407,0.029940082,0.59163344,0.0,0.0,0.0,0.0,0.0,0.0,0.0,0,1,1,1
211935516,211935473,0.0,0.52894205,0.029940082,0.58764935,0.0,0.0,0.0,0.0,0.0,0.0,0.0,0,1,1,1
211955504,211955460,0.0,0.52694607,0.029940082,0.5836653,0.0,0.0,0.0,0.0,0.0,0.0,0.0,0,1,1,1
211975507,211975464,0.0,0.5249501,0.029940082,0.58167326,0.0,0.0,0.0,0.0,0.0,0.0,0.0,0,1,1,1
211992527,211992451,0.0,0.5249501,0.029940082,0.57768923,0.0,0.0,0.0,0.0,0.0,0.0,0.0,0,1,1,1
212015488,212015445,0.0,0.5249501,0.029940082,0.5717131,0.0,0.0,0.0,0.0,0.0,0.0,0.0,0,1,1,1
212035497,212035453,0.0,0.52295405,0.029940082,0.565737,0.0,0.0,0.0,0.0,0.0,0.0,0.0,0,1,1,1
212055665,212055532,0.0,0.52295405,0.035928108,0.565737,0.0,0.0,0.0,0.0,0.0,0.0,0.0,0,1,1,0
212075519,212075476,0.0,0.52295405,0.033932097,0.5597609,0.0,0.0,0.0,0.0,0.0,0.0,0.0,0,1,1,0
212093560,212093516,0.0,0.52295405,0.033932097,0.5577689,0.0,0.0,0.0,0.0,0.0,0.0,0.0,0,1,1,0
212115501,212115458,0.0,0.5249501,0.035928108,0.54980075,0.0,0.0,0.0,0.0,0.0,0.0,0.0,0,1,1,0
212135684,212135533,0.0,0.52295405,0.035928108,0.54780877,0.0,0.0,0.0,0.0,0.0,0.0,0.0,0,1,1,0
212155686,212155641,0.0,0.52295405,0.033932097,0.5458167,0.0,0.0,0.0,0.0,0.0,0.0,0.0,0,1,1,0
212175451,212175405,0.0,0.52095807,0.033932097,0.5438247,0.0,0.0,0.0,0.0,0.0,0.0,0.0,0,1,1,0
212194445,212194385,0.0,0.51696604,0.029940082,0.5438247,0.0,0.0,0.0,0.0,0.0,0.0,0.0,0,1,1,0
212215426,212215383,0.0,0.512974,0.027944075,0.5438247,0.0,0.0,0.0,0.0,0.0,0.0,0.0,0,1,1,0
212235443,212235388,0.0,0.50698596,0.027944075,0.5458167,0.0,0.0,0.0,0.0,0.0,0.0,0.0,0,1,1,0
212255465,212255421,0.0,0.502994,0.027944075,0.5458167,0.0,0.0,0.0,0.0,0.0,0.0,0.0,0,1,1,0
212275450,212275407,0.0,0.49500993,0.027944075,0.54780877,0.0,0.0,0.0,0.0,0.0,0.0,0.0,0,1,1,0
212295346,212295303,0.0,0.48702592,0.02395206,0.54780877,0.0,0.0,0.0,0.0,0.0,0.0,0.0,0,1,1,0
212315445,212315402,0.0,0.46906185,0.015968027,0.54980075,0.0,0.0,0.0,0.0,0.0,0.0,0.0,0,1,1,1
212335536,212335465,0.0,0.44510975,0.011976011,0.5517928,0.0,0.0,0.0,0.0,0.0,0.0,0.0,0,1,1,1
212355466,212355423,0.0,0.42514965,0.0019959707,0.5517928,0.0,0.0,0.0,0.0,0.0,0.0,0.0,0,1,1,1
212375481,212375438,0.0,0.4111776,0.0,0.54980075,0.0,0.0,0.0,0.0,0.0,0.0,0.0,0,1,1,1
212392782,212392737,0.0,0.3852295,0.0,0.5458167,0.0,0.0,0.0,0.0,0.0,0.0,0.0,0,1,1,1
212415501,212415458,0.0,0.3612774,0.0,0.5398406,0.0,0.0,0.0,0.0,0.0,0.0,0.0,0,1,1,1
212435467,212435424,0.0,0.34331334,0.0,0.52988046,0.0,0.0,0.0,0.0,0.0,0.0,0.0,0,1,1,1
212455648,212455532,0.0,0.31736523,0.0,0.5239043,0.0,0.0,0.0,0.0,0.0,0.0,0.0,0,1,1,1
212475683,212475624,0.0,0.29540914,0.0,0.51792824,0.0,0.0,0.0,0.0,0.0,0.0,0.0,0,1,1,1
212493338,212493274,0.0,0.259481,0.0,0.51593626,0.0,0.0,0.0,0.0,0.0,0.0,0.0,0,1,1,1
212515508,212515466,0.0,0.22155684,0.0,0.51195216,0.0,0.0,0.0,0.0,0.0,0.0,0.0,0,1,1,1
212535410,212535367,0.0,0.1836327,0.0,0.5059761,0.0,0.0,0.0,0.0,0.0,0.0,0.0,0,1,1,1
212555703,212555628,0.0,0.14770456,0.0,0.501992,0.0,0.0,0.0,0.0,0.0,0.0,0.0,0,1,1,1
212575647,212575533,0.0,0.09780435,0.0,0.49999997,0.0,0.0,0.0,0.0,0.0,0.0,0.0,0,1,1,1
212594416,212594282,0.0,0.045908146,0.0,0.49999997,0.0,0.0,0.0,0.0,0.0,0.0,0.0,0,1,1,1
212615410,212615367,0.0,0.0,0.0,0.49402386,0.0,0.0,0.0,0.0,0.0,0.0,0.0,0,1,1,1
212635689,212635646,0.0,0.0,0.0,0.4960159,0.0,0.0,0.0,0.0,0.0,0.0,0.0,0,1,1,1
212655455,212655411,0.0,0.0,0.0,0.49402386,0.0,0.0,0.0,0.0,0.0,0.0,0.0,0,1,1,1
212675448,212675405,0.0,0.0,0.0,0.4960159,0.0,0.0,0.0,0.0,0.0,0.0,0.0,0,1,1,1
212695333,212695287,0.0,0.0,0.0,0.49402386,0.0,0.0,0.0,0.0,0.0,0.0,0.0,0,1,1,1
212755468,212755424,0.0,0.0,0.0,0.49999997,0.0,0.0,0.0,0.0,0.0,0.0,0.0,0,1,1,1
212775515,212775472,0.0,0.0,0.0,0.49999997,0.0,0.0,0.0,0.0,0.0,0.0,0.0,0,1,1,1
212795506,212795440,0.0,0.0,0.0,0.4960159,0.0,0.0,0.0,0.0,0.0,0.0,0.0,0,1,1,1
212995664,212995619,0.0,0.0,0.0,0.4820717,0.0,0.0,0.0,0.0,0.0,0.0,0.0,0,1,1,0
213015418,213015375,0.0,0.0,0.0,0.4840637,0.0,0.0,0.0,0.0,0.0,0.0,0.0,0,1,1,0
213075440,213075397,0.0,0.0,0.0,0.48007965,0.0,0.0,0.0,0.0,0.0,0.0,0.0,0,1,1,0
213155415,213155372,0.0,0.0,0.0,0.4780876,0.0,0.0,0.0,0.0,0.0,0.0,0.0,0,1,1,0
213175441,213175398,0.0,0.0,0.0,0.47410357,0.0,0.0,0.0,0.0,0.0,0.0,0.0,0,1,1,0
213195694,213195623,0.0,0.0,0.0,0.4780876,0.0,0.0,0.0,0.0,0.0,0.0,0.0,0,1,1,0
213235694,213235634,0.0,0.0,0.0,0.48007965,0.0,0.0,0.0,0.0,0.0,0.0,0.0,0,1,1,0
213255420,213255377,0.0,0.0,0.0,0.4820717,0.0,0.0,0.0,0.0,0.0,0.0,0.0,0,1,1,0
213275439,213275396,0.0,0.0,0.0,0.4840637,0.0,0.0,0.0,0.0,0.0,0.0,0.0,0,1,1,0
213295453,213295409,0.0,0.0,0.0,0.4840637,0.0,0.0,0.0,0.0,0.0,0.0,0.0,0,1,1,0
213315682,213315639,0.0,0.0,0.0,0.4840637,0.0,0.0,0.0,0.0,0.0,0.0,0.0,0,1,1,0
213335445,213335401,0.0,0.0,0.0,0.4840637,0.0,0.0,0.0,0.0,0.0,0.0,0.0,0,1,1,0
213355420,213355376,0.0,0.0,0.0,0.4840637,0.0,0.0,0.0,0.0,0.0,0.0,0.0,0,1,1,0
213375455,213375412,0.0,0.0,0.0,0.4820717,0.0,0.0,0.0,0.0,0.0,0.0,0.0,0,1,1,0
213395412,213395369,0.0,0.0,0.0,0.4840637,0.0,0.0,0.0,0.0,0.0,0.0,0.0,0,1,1,0
213415480,213415437,0.0,0.0,0.0,0.4840637,0.0,0.0,0.0,0.0,0.0,0.0,0.0,0,1,1,0
213435472,213435429,0.0,0.0,0.0,0.4820717,0.0,0.0,0.0,0.0,0.0,0.0,0.0,0,1,1,0
213455497,213455454,0.0,0.0,0.0,0.4840637,0.0,0.0,0.0,0.0,0.0,0.0,0.0,0,1,1,0
213475446,213475401,0.0,0.0,0.0,0.4840637,0.0,0.0,0.0,0.0,0.0,0.0,0.0,0,1,1,0
213495474,213495431,0.0,0.0,0.0,0.4820717,0.0,0.0,0.0,0.0,0.0,0.0,0.0,0,1,1,0
213515453,213515410,0.0,0.0,0.0,0.4840637,0.0,0.0,0.0,0.0,0.0,0.0,0.0,0,1,1,0
213535478,213535435,0.0,0.0,0.0,0.4840637,0.0,0.0,0.0,0.0,0.0,0.0,0.0,0,1,1,0
213555432,213555388,0.0,0.0,0.0,0.4820717,0.0,0.0,0.0,0.0,0.0,0.0,0.0,0,1,1,0
213575471,213575429,0.0,0.0,0.0,0.4840637,0.0,0.0,0.0,0.0,0.0,0.0,0.0,0,1,1,0
213595426,213595382,0.0,0.0,0.0,0.4840637,0.0,0.0,0.0,0.0,0.0,0.0,0.0,0,1,1,0
213615696,213615637,0.0,0.0,0.0,0.4820717,0.0,0.0,0.0,0.0,0.0,0.0,0.0,0,1,1,0
213635694,213635635,0.0,0.0,0.0,0.4820717,0.0,0.0,0.0,0.0,0.0,0.0,0.0,0,1,1,0
213675694,213675634,0.0,0.0,0.0,0.4840637,0.0,0.0,0.0,0.0,0.0,0.0,0.0,0,1,1,0
213695385,213695341,0.0,0.0,0.0,0.4820717,0.0,0.0,0.0,0.0,0.0,0.0,0.0,0,1,1,0
213715458,213715414,0.0,0.0,0.0,0.48804778,0.0,0.0,0.0,0.0,0.0,0.0,0.0,0,1,1,0
213735515,213735471,0.0,0.0,0.0,0.4840637,0.0,0.0,0.0,0.0,0.0,0.0,0.0,0,1,1,0
213775408,213775365,0.0,0.0,0.0,0.4820717,0.0,0.0,0.0,0.0,0.0,0.0,0.0,0,1,1,0
213795512,213795469,0.0,0.0,0.0,0.4840637,0.0,0.0,0.0,0.0,0.0,0.0,0.0,0,1,1,0
213815462,213815419,0.0,0.0,0.0,0.4820717,0.0,0.0,0.0,0.0,0.0,0.0,0.0,0,1,1,0
213835423,213835381,0.0,0.0,0.0,0.4840637,0.0,0.0,0.0,0.0,0.0,0.0,0.0,0,1,1,0
213855463,213855419,0.0,0.0,0.0,0.4840637,0.0,0.0,0.0,0.0,0.0,0.0,0.0,0,1,1,0
213875435,213875392,0.0,0.0,0.0,0.4820717,0.0,0.0,0.0,0.0,0.0,0.0,0.0,0,1,1,0
213895437,213895395,0.0,0.0,0.0,0.4840637,0.0,0.0,0.0,0.0,0.0,0.0,0.0,0,1,1,0
213915693,213915634,0.0,0.0,0.0,0.4840637,0.0,0.0,0.0,0.0,0.0,0.0,0.0,0,1,1,0
213935406,213935363,0.0,0.0,0.0,0.4840637,0.0,0.0,0.0,0.0,0.0,0.0,0.0,0,1,1,0
213975425,213975382,0.0,0.0,0.0,0.4820717,0.0,0.0,0.0,0.0,0.0,0.0,0.0,0,1,1,0
213995715,213995653,0.0,0.0,0.0,0.4820717,0.0,0.0,0.0,0.0,0.0,0.0,0.0,0,1,1,0
214012491,214012426,0.0,0.0,0.0,0.4820717,0.0,0.0,0.0,0.0,0.0,0.0,0.0,0,1,1,0
214035395,214035352,0.0,0.0,0.0,0.4820717,0.0,0.0,0.0,0.0,0.0,0.0,0.0,0,1,1,0
214055432,214055389,0.0,0.0,0.0,0.4840637,0.0,0.0,0.0,0.0,0.0,0.0,0.0,0,1,1,0
214075415,214075372,0.0,0.0,0.0,0.4840637,0.0,0.0,0.0,0.0,0.0,0.0,0.0,0,1,1,0
214095422,214095373,0.0,0.0,0.0,0.4840637,0.0,0.0,0.0,0.0,0.0,0.0,0.0,0,1,1,0
214113364,214113281,0.0,0.0,0.0,0.4840637,0.0,0.0,0.0,0.0,0.0,0.0,0.0,0,1,1,0
214135459,214135416,0.0,0.0,0.0,0.4820717,0.0,0.0,0.0,0.0,0.0,0.0,0.0,0,1,1,0
214155432,214155387,0.0,0.0,0.0,0.4820717,0.0,0.0,0.0,0.0,0.0,0.0,0.0,0,1,1,0
214175455,214175412,0.0,0.0,0.0,0.4840637,0.0,0.0,0.0,0.0,0.0,0.0,0.0,0,1,1,0
214195406,214195362,0.0,0.0,0.0,0.4840637,0.0,0.0,0.0,0.0,0.0,0.0,0.0,0,1,1,0
214214430,214214387,0.0,0.0,0.0,0.4840637,0.0,0.0,0.0,0.0,0.0,0.0,0.0,0,1,1,0
214235431,214235388,0.0,0.0,0.0,0.48007965,0.0,0.0,0.0,0.0,0.0,0.0,0.0,0,1,1,0
214255451,214255407,0.0,0.0,0.0,0.4840637,0.0,0.0,0.0,0.0,0.0,0.0,0.0,0,1,1,0
214275429,214275386,0.0,0.0,0.0,0.4820717,0.0,0.0,0.0,0.0,0.0,0.0,0.0,0,1,1,0
214315352,214315309,0.0,0.0,0.0,0.4840637,0.0,0.0,0.0,0.0,0.0,0.0,0.0,0,1,1,0
214335660,214335617,0.0,0.0,0.0,0.4840637,0.0,0.0,0.0,0.0,0.0,0.0,0.0,0,1,1,0
214375365,214375321,0.0,0.0,0.0,0.4840637,0.0,0.0,0.0,0.0,0.0,0.0,0.0,0,1,1,0
214395473,214395430,0.0,0.0,0.0,0.4840637,0.0,0.0,0.0,0.0,0.0,0.0,0.0,0,1,1,0
214412488,214412411,0.0,0.0,0.0,0.4840637,0.0,0.0,0.0,0.0,0.0,0.0,0.0,0,1,1,0
214435406,214435363,0.0,0.0,0.0,0.4820717,0.0,0.0,0.0,0.0,0.0,0.0,0.0,0,1,1,0
214475381,214475338,0.0,0.0,0.0,0.4840637,0.0,0.0,0.0,0.0,0.0,0.0,0.0,0,1,1,0
214513210,214513136,0.0,0.0,0.0,0.4820717,0.0,0.0,0.0,0.0,0.0,0.0,0.0,0,1,1,0
214535387,214535340,0.0,0.0,0.0,0.4840637,0.0,0.0,0.0,0.0,0.0,0.0,0.0,0,1,1,0
214575360,214575317,0.0,0.0,0.0,0.48804778,0.0,0.0,0.0,0.0,0.0,0.0,0.0,0,1,1,0
214595487,214595445,0.0,0.0,0.0,0.4840637,0.0,0.0,0.0,0.0,0.0,0.0,0.0,0,1,1,0
214614470,214614304,0.0,0.0,0.0,0.4840637,0.0,0.0,0.0,0.0,0.0,0.0,0.0,0,1,1,0
214655373,214655328,0.0,0.0,0.0,0.4840637,0.0,0.0,0.0,0.0,0.0,0.0,0.0,0,1,1,0
214675494,214675452,0.0,0.0,0.0,0.4820717,0.0,0.0,0.0,0.0,0.0,0.0,0.0,0,1,1,0
214695659,214695614,0.0,0.0,0.0,0.4840637,0.0,0.0,0.0,0.0,0.0,0.0,0.0,0,1,1,0
214715264,214715209,0.0,0.0,0.0,0.4820717,0.0,0.0,0.0,0.0,0.0,0.0,0.0,0,1,1,0
214735407,214735364,0.0,0.0,0.0,0.4840637,0.0,0.0,0.0,0.0,0.0,0.0,0.0,0,1,1,0
214775398,214775355,0.0,0.0,0.0,0.4840637,0.0,0.0,0.0,0.0,0.0,0.0,0.0,0,1,1,0
214795660,214795617,0.0,0.0,0.0,0.4820717,0.0,0.0,0.0,0.0,0.0,0.0,0.0,0,1,1,0
214835665,214835622,0.0,0.0,0.0,0.4820717,0.0,0.0,0.0,0.0,0.0,0.0,0.0,0,1,1,0
214855420,214855376,0.0,0.0,0.0,0.4840637,0.0,0.0,0.0,0.0,0.0,0.0,0.0,0,1,1,0
214915464,214915419,0.0,0.0,0.0,0.4840637,0.0,0.0,0.0,0.0,0.0,0.0,0.0,0,1,1,0
214955442,214955399,0.0,0.0,0.0,0.4840637,0.0,0.0,0.0,0.0,0.0,0.0,0.0,0,1,1,0
214975465,214975423,0.0,0.0,0.0,0.4840637,0.0,0.0,0.0,0.0,0.0,0.0,0.0,0,1,1,0
215035497,215035424,0.0,0.0,0.0,0.4820717,0.0,0.0,0.0,0.0,0.0,0.0,0.0,0,1,1,0
215055450,215055407,0.0,0.0,0.0,0.4840637,0.0,0.0,0.0,0.0,0.0,0.0,0.0,0,1,1,0
215095389,215095346,0.0,0.0,0.0,0.48804778,0.0,0.0,0.0,0.0,0.0,0.0,0.0,0,1,1,0
215115419,215115372,0.0,0.0,0.0,0.4840637,0.0,0.0,0.0,0.0,0.0,0.0,0.0,0,1,1,0
215135410,215135368,0.0,0.0,0.0,0.4820717,0.0,0.0,0.0,0.0,0.0,0.0,0.0,0,1,1,0
215155396,215155354,0.0,0.0,0.0,0.4840637,0.0,0.0,0.0,0.0,0.0,0.0,0.0,0,1,1,0
215175424,215175381,0.0,0.0,0.0,0.4840637,0.0,0.0,0.0,0.0,0.0,0.0,0.0,0,1,1,0
215195374,215195331,0.0,0.0,0.0,0.4840637,0.0,0.0,0.0,0.0,0.0,0.0,0.0,0,1,1,0
215215363,215215319,0.0,0.0,0.0,0.4820717,0.0,0.0,0.0,0.0,0.0,0.0,0.0,0,1,1,0
215235407,215235364,0.0,0.0,0.0,0.4840637,0.0,0.0,0.0,0.0,0.0,0.0,0.0,0,1,1,0
215255466,215255414,0.0,0.0,0.0,0.4820717,0.0,0.0,0.0,0.0,0.0,0.0,0.0,0,1,1,0
215275411,215275368,0.0,0.0,0.0,0.4840637,0.0,0.0,0.0,0.0,0.0,0.0,0.0,0,1,1,0
215295405,215295362,0.0,0.0,0.0,0.48804778,0.0,0.0,0.0,0.0,0.0,0.0,0.0,0,1,1,0
215315452,215315408,0.0,0.0,0.0,0.4840637,0.0,0.0,0.0,0.0,0.0,0.0,0.0,0,1,1,0
215355395,215355350,0.0,0.0,0.0,0.4840637,0.0,0.0,0.0,0.0,0.0,0.0,0.0,0,1,1,0
215375435,215375392,0.0,0.0,0.0,0.48007965,0.0,0.0,0.0,0.0,0.0,0.0,0.0,0,1,1,0
215395445,215395401,0.0,0.0,0.0,0.4780876,0.0,0.0,0.0,0.0,0.0,0.0,0.0,0,1,1,0
215415389,215415341,0.0,0.0,0.0,0.48007965,0.0,0.0,0.0,0.0,0.0,0.0,0.0,0,1,1,0
215435477,215435434,0.0,0.013972019,0.0,0.47410357,0.0,0.0,0.0,0.0,0.0,0.0,0.0,0,1,1,0
215455387,215455344,0.0,0.033932097,0.0,0.47410357,0.0,0.0,0.0,0.0,0.0,0.0,0.0,0,1,1,0
215475366,215475310,0.0,0.055888187,0.0,0.47211152,0.0,0.0,0.0,0.0,0.0,0.0,0.0,0,1,1,1
215495663,215495532,0.0,0.07784428,0.0,0.47011948,0.0,0.0,0.0,0.0,0.0,0.0,0.0,0,1,1,1
215515375,215515328,0.0,0.09381234,0.0,0.47011948,0.0,0.0,0.0,0.0,0.0,0.0,0.0,0,1,1,1
215535337,215535294,0.0,0.115768425,0.0,0.47011948,0.0,0.0,0.0,0.0,0.0,0.0,0.0,0,1,1,1
215555484,215555440,0.0,0.12774447,0.0,0.47011948,0.0,0.0,0.0,0.0,0.0,0.0,0.0,0,1,1,1
215575340,215575297,0.0,0.13972051,0.0,0.47011948,0.0,0.0,0.0,0.0,0.0,0.0,0.0,0,1,1,1
215595456,215595413,0.0,0.14970057,0.0,0.47011948,0.0,0.0,0.0,0.0,0.0,0.0,0.0,0,1,1,1
215615473,215615430,0.0,0.1576846,0.0,0.47011948,0.0,0.0,0.0,0.0,0.0,0.0,0.0,0,1,1,1
215635368,215635325,0.0,0.16167662,0.0,0.47011948,0.0,0.0,0.0,0.0,0.0,0.0,0.0,0,1,1,1
215655383,215655339,0.0,0.16966064,0.0,0.47011948,0.0,0.0,0.0,0.0,0.0,0.0,0.0,0,1,1,1
215675367,215675324,0.0,0.17964068,0.0,0.47011948,0.0,0.0,0.0,0.0,0.0,0.0,0.0,0,1,1,1
215695392,215695349,0.0,0.19161673,0.0,0.47011948,0.0,0.0,0.0,0.0,0.0,0.0,0.0,0,1,1,1
215715698,215715637,0.0,0.2075848,0.0,0.47011948,0.0,0.0,0.0,0.0,0.0,0.0,0.0,0,1,1,1
215735447,215735403,0.0,0.22954088,0.0,0.47011948,0.0,0.0,0.0,0.0,0.0,0.0,0.0,0,1,1,1
215755406,215755363,0.0,0.25149697,0.0,0.47011948,0.0,0.0,0.0,0.0,0.0,0.0,0.0,0,1,1,1
215775455,215775411,0.0,0.27145705,0.0,0.47011948,0.0,0.0,0.0,0.0,0.0,0.0,0.0,0,1,1,1
215795422,215795379,0.0,0.2894211,0.0,0.47011948,0.0,0.0,0.0,0.0,0.0,0.0,0.0,0,1,1,1
215815406,215815363,0.0,0.3053892,0.0,0.47011948,0.0,0.0,0.0,0.0,0.0,0.0,0.0,0,1,1,1
215835459,215835416,0.0,0.32534927,0.0,0.47011948,0.0,0.0,0.0,0.0,0.0,0.0,0.0,0,1,1,1
215855341,215855299,0.0,0.34730536,0.0,0.47011948,0.0,0.0,0.0,0.0,0.0,0.0,0.0,0,1,1,1
215875692,215875632,0.0,0.35728538,0.0,0.47011948,0.0,0.0,0.0,0.0,0.0,0.0,0.0,0,1,1,1
215895352,215895309,0.0,0.36526942,0.0,0.47011948,0.0,0.0,0.0,0.0,0.0,0.0,0.0,0,1,1,1
215915415,215915372,0.0,0.36726543,0.0,0.47011948,0.0,0.0,0.0,0.0,0.0,0.0,0.0,0,1,1,1
215935406,215935364,0.0,0.37125745,0.0,0.47011948,0.0,0.0,0.0,0.0,0.0,0.0,0.0,0,1,1,1
215955700,215955639,0.0,0.3832335,0.0,0.47011948,0.0,0.0,0.0,0.0,0.0,0.0,0.0,0,1,1,1
215975404,215975361,0.0,0.40119755,0.0,0.47011948,0.0,0.0,0.0,0.0,0.0,0.0,0.0,0,1,1,1
215995353,215995299,0.0,0.41716564,0.0,0.46613544,0.0,0.0,0.0,0.0,0.0,0.0,0.0,0,1,1,1
216015415,216015372,0.0,0.42714566,0.0,0.46812746,0.0,0.0,0.0,0.0,0.0,0.0,0.0,0,1,1,1
216032900,216032854,0.0,0.42914167,0.0,0.47011948,0.0,0.0,0.0,0.0,0.0,0.0,0.0,0,1,1,1
216055349,216055304,0.0,0.4371257,0.0,0.46613544,0.0,0.0,0.0,0.0,0.0,0.0,0.0,0,1,1,1
216075687,216075535,0.0,0.44311374,0.0,0.46812746,0.0,0.0,0.0,0.0,0.0,0.0,0.0,0,1,1,1
216095336,216095293,0.0,0.44910175,0.0,0.46613544,0.0,0.0,0.0,0.0,0.0,0.0,0.0,0,1,1,1
216115367,216115324,0.0,0.46506983,0.0,0.46215135,0.0,0.0,0.0,0.0,0.0,0.0,0.0,0,1,1,1
216133302,216133259,0.0,0.48103788,0.0,0.46613544,0.0,0.0,0.0,0.0,0.0,0.0,0.0,0,1,1,1
216155343,216155300,0.0,0.49900195,0.0,0.46613544,0.0,0.0,0.0,0.0,0.0,0.0,0.0,0,1,1,1
216175358,216175314,0.0,0.50499,0.0,0.46015933,0.0,0.0,0.0,0.0,0.0,0.0,0.0,0,1,1,1
216195697,216195637,0.0,0.50698596,0.0,0.46015933,0.0,0.0,0.0,0.0,0.0,0.0,0.0,0,1,1,1
216215459,216215416,0.0,0.50698596,0.0,0.46015933,0.0,0.0,0.0,0.0,0.0,0.0,0.0,0,1,1,1
216255319,216255275,0.0,0.512974,0.0,0.4581673,0.0,0.0,0.0,0.0,0.0,0.0,0.0,0,1,1,1
216295327,216295283,0.0,0.512974,0.0,0.45617527,0.0,0.0,0.0,0.0,0.0,0.0,0.0,0,1,1,0
216315387,216315331,0.0,0.51696604,0.0,0.45617527,0.0,0.0,0.0,0.0,0.0,0.0,0.0,0,1,1,0
216335323,216335279,0.0,0.52295405,0.0,0.45617527,0.0,0.0,0.0,0.0,0.0,0.0,0.0,0,1,1,0
216355451,216355407,0.0,0.52295405,0.0,0.4521912,0.0,0.0,0.0,0.0,0.0,0.0,0.0,0,1,1,0
216375319,216375276,0.0,0.52295405,0.0,0.4521912,0.0,0.0,0.0,0.0,0.0,0.0,0.0,0,1,1,0
216395443,216395402,0.0,0.52295405,0.0,0.4501992,0.0,0.0,0.0,0.0,0.0,0.0,0.0,0,1,1,0
216415416,216415362,0.0,0.5249501,0.0,0.4501992,0.0,0.0,0.0,0.0,0.0,0.0,0.0,0,1,1,0
216432779,216432734,0.0,0.5249501,0.0,0.4501992,0.0,0.0,0.0,0.0,0.0,0.0,0.0,0,1,1,0
216455341,216455296,0.0,0.52694607,0.0,0.44820714,0.0,0.0,0.0,0.0,0.0,0.0,0.0,0,1,1,0
216475461,216475418,0.0,0.5249501,0.0,0.4462151,0.0,0.0,0.0,0.0,0.0,0.0,0.0,0,1,1,0
216515378,216515335,0.0,0.51696604,0.0,0.44820714,0.0,0.0,0.0,0.0,0.0,0.0,0.0,0,1,1,0
216533189,216533144,0.0,0.512974,0.0,0.44820714,0.0,0.0,0.0,0.0,0.0,0.0,0.0,0,1,1,0
216555457,216555412,0.0,0.502994,0.0,0.44820714,0.0,0.0,0.0,0.0,0.0,0.0,0.0,0,1,1,0
216575317,216575274,0.0,0.48902193,0.0,0.44820714,0.0,0.0,0.0,0.0,0.0,0.0,0.0,0,1,1,0
216595438,216595395,0.0,0.47105783,0.0,0.4501992,0.0,0.0,0.0,0.0,0.0,0.0,0.0,0,1,1,1
216615432,216615389,0.0,0.44910175,0.0,0.4501992,0.0,0.0,0.0,0.0,0.0,0.0,0.0,0,1,1,1
216634440,216634290,0.0,0.42315367,0.0,0.44820714,0.0,0.0,0.0,0.0,0.0,0.0,0.0,0,1,1,1
216655450,216655406,0.0,0.39520955,0.0,0.44820714,0.0,0.0,0.0,0.0,0.0,0.0,0.0,0,1,1,1
216675407,216675364,0.0,0.36726543,0.0,0.4501992,0.0,0.0,0.0,0.0,0.0,0.0,0.0,0,1,1,1
216695417,216695374,0.0,0.33932132,0.0,0.44820714,0.0,0.0,0.0,0.0,0.0,0.0,0.0,0,1,1,1
216715360,216715317,0.0,0.3073852,0.0,0.44820714,0.0,0.0,0.0,0.0,0.0,0.0,0.0,0,1,1,1
216735361,216735301,0.0,0.2814371,0.0,0.4521912,0.0,0.0,0.0,0.0,0.0,0.0,0.0,0,1,1,1
216755390,216755347,0.0,0.257485,0.0,0.4501992,0.0,0.0,0.0,0.0,0.0,0.0,0.0,0,1,1,1
216775401,216775358,0.0,0.2355289,0.0,0.4521912,0.0,0.0,0.0,0.0,0.0,0.0,0.0,0,1,1,1
216795331,216795288,0.0,0.20359278,0.0,0.4501992,0.0,0.0,0.0,0.0,0.0,0.0,0.0,0,1,1,1
216815321,216815273,0.0,0.17165665,0.0,0.4501992,0.0,0.0,0.0,0.0,0.0,0.0,0.0,0,1,1,1
216835345,216835299,0.0,0.15169656,0.0,0.4501992,0.0,0.0,0.0,0.0,0.0,0.0,0.0,0,1,1,1
216855414,216855371,0.0,0.1337325,0.0,0.4501992,0.0,0.0,0.0,0.0,0.0,0.0,0.0,0,1,1,1
216875392,216875349,0.0,0.117764436,0.0,0.4501992,0.0,0.0,0.0,0.0,0.0,0.0,0.0,0,1,1,1
216895392,216895347,0.0,0.10778439,0.0,0.4501992,0.0,0.0,0.0,0.0,0.0,0.0,0.0,0,1,1,1
216915413,216915370,0.0,0.09780435,0.0,0.4501992,0.0,0.0,0.0,0.0,0.0,0.0,0.0,0,1,1,1
216935364,216935319,0.0,0.09381234,0.0,0.4501992,0.0,0.0,0.0,0.0,0.0,0.0,0.0,0,1,1,1
216955363,216955320,0.0,0.07784428,0.0,0.4501992,0.0,0.0,0.0,0.0,0.0,0.0,0.0,0,1,1,1
216975402,216975359,0.0,0.0598802,0.0,0.4501992,0.0,0.0,0.0,0.0,0.0,0.0,0.0,0,1,1,1
216995333,216995290,0.0,0.045908146,0.0,0.4501992,0.0,0.0,0.0,0.0,0.0,0.0,0.0,0,1,1,1
217015647,217015532,0.0,0.029940082,0.0,0.4501992,0.0,0.0,0.0,0.0,0.0,0.0,0.0,0,1,1,1
217035335,217035290,0.0,0.015968027,0.0,0.44820714,0.0,0.0,0.0,0.0,0.0,0.0,0.0,0,1,1,1
217055404,217055348,0.0,0.0,0.0,0.4501992,0.0,0.0,0.0,0.0,0.0,0.0,0.0,0,1,1,1
217075380,217075337,0.0,0.0,0.0,0.4501992,0.0,0.0,0.0,0.0,0.0,0.0,0.0,0,1,1,1
217095364,217095317,0.0,0.0,0.0,0.4501992,0.0,0.0,0.0,0.0,0.0,0.0,0.0,0,1,1,1
217115368,217115325,0.0,0.0,0.0,0.4501992,0.0,0.0,0.0,0.0,0.0,0.0,0.0,0,1,1,1
217135340,217135295,0.0,0.0,0.0,0.4501992,0.0,0.0,0.0,0.0,0.0,0.0,0.0,0,1,1,1
217155328,217155285,0.0,0.0,0.0,0.4501992,0.0,0.0,0.0,0.0,0.0,0.0,0.0,0,1,1,1
217175376,217175332,0.0,0.0,0.0,0.4521912,0.0,0.0,0.0,0.0,0.0,0.0,0.0,0,1,1,0
217195341,217195298,0.0,0.0,0.0,0.4501992,0.0,0.0,0.0,0.0,0.0,0.0,0.0,0,1,1,0
217215444,217215401,0.0,0.0,0.0,0.4521912,0.0,0.0,0.0,0.0,0.0,0.0,0.0,0,1,1,0
217235317,217235274,0.0,0.0,0.0,0.4521912,0.0,0.0,0.0,0.0,0.0,0.0,0.0,0,1,1,0
217255365,217255322,0.0,0.0,0.0,0.4521912,0.0,0.0,0.0,0.0,0.0,0.0,0.0,0,1,1,0
217275373,217275330,0.0,0.0,0.0,0.4501992,0.0,0.0,0.0,0.0,0.0,0.0,0.0,0,1,1,0
217315422,217315378,0.0,0.0,0.0,0.4521912,0.0,0.0,0.0,0.0,0.0,0.0,0.0,0,1,1,0
217335338,217335295,0.0,0.0,0.0,0.4521912,0.0,0.0,0.0,0.0,0.0,0.0,0.0,0,1,1,0
217355349,217355305,0.0,0.0,0.0,0.4521912,0.0,0.0,0.0,0.0,0.0,0.0,0.0,0,1,1,0
217375397,217375344,0.0,0.0039919787,0.0,0.4501992,0.0,0.0,0.0,0.0,0.0,0.0,0.0,0,1,1,0
217395663,217395532,0.0,0.041916132,0.0,0.4501992,0.0,0.0,0.0,0.0,0.0,0.0,0.0,0,1,1,1
217415380,217415336,0.0,0.089820325,0.0,0.4501992,0.0,0.0,0.0,0.0,0.0,0.0,0.0,0,1,1,1
217435393,217435350,0.0,0.13772452,0.0,0.4501992,0.0,0.0,0.0,0.0,0.0,0.0,0.0,0,1,1,1
217455511,217455466,0.0,0.17964068,0.0,0.4501992,0.0,0.0,0.0,0.0,0.0,0.0,0.0,0,1,1,1
