timestamp,timestamp_sample,latitude_deg,longitude_deg,altitude_msl_m,altitude_ellipsoid_m,time_utc_usec,device_id,s_variance_m_s,c_variance_rad,eph,epv,hdop,vdop,noise_per_ms,jamming_indicator,vel_m_s,vel_n_m_s,vel_e_m_s,vel_d_m_s,cog_rad,timestamp_time_relative,heading,heading_offset,heading_accuracy,rtcm_injection_rate,automatic_gain_control,fix_type,jamming_state,spoofing_state,vel_ned_valid,satellites_used,selected_rtcm_instance,rtcm_crc_failed,rtcm_msg_used
199956366,0,60.1877328,24.83266,-6.726,10.967,1743089288899969,11141125,0.26700002,3.1415925,1.0040001,1.618,0.69,1.02,73,23,0.037,0.009000001,0.035,0.020000001,3.8897295,0,nan,0.0,0.0,0.0,0,3,2,1,1,16,0,0,0
200074061,0,60.1877329,24.8326599,-6.747,10.946,1743089288999970,11141125,0.256,3.1415925,1.0040001,1.618,0.69,1.02,73,17,0.039,0.031000001,-0.023000002,0.022000002,3.8897295,0,nan,0.0,0.0,0.0,0,3,2,1,1,16,0,0,0
200257134,0,60.1877329,24.8326599,-6.753,10.941,1743089289199969,11141125,0.245,3.1415925,1.005,1.6200001,0.69,1.02,73,17,0.027,0.007,-0.026,0.038000003,3.8897295,0,nan,0.0,0.0,0.0,0,3,2,1,1,16,0,0,0
200357103,0,60.1877328,24.83266,-6.75,10.943,1743089289299969,11141125,0.266,3.1415925,1.006,1.621,0.69,1.02,73,17,0.034,-0.015000001,0.031000001,0.028,3.8897295,0,nan,0.0,0.0,0.0,0,3,2,1,1,16,0,0,0
200457097,0,60.1877328,24.83266,-6.756,10.938,1743089289399969,11141125,0.27100003,3.1415925,1.006,1.6220001,0.69,1.02,73,17,0.046000004,0.009000001,0.045,0.027,3.8897295,0,nan,0.0,0.0,0.0,0,3,2,1,1,16,0,0,0
200557105,0,60.1877328,24.8326599,-6.7620000000000005,10.931000000000001,1743089289499969,11141125,0.266,3.1415925,1.0070001,1.623,0.69,1.02,73,17,0.064,-0.041,-0.049000002,0.014,3.8897295,0,nan,0.0,0.0,0.0,0,3,2,1,1,16,0,0,0
200656168,0,60.1877328,24.8326599,-6.76,10.933,1743089289599969,11141125,0.24800001,3.1415925,1.0070001,1.6240001,0.69,1.02,73,17,0.007,0.006,-0.002,0.017,3.8897295,0,nan,0.0,0.0,0.0,0,3,2,1,1,16,0,0,0
200756170,0,60.1877328,24.832659699999997,-6.759,10.934000000000001,1743089289699969,11141125,0.256,3.1415925,1.008,1.6250001,0.69,1.02,73,17,0.07,0.030000001,-0.063,0.039,3.8897295,0,nan,0.0,0.0,0.0,0,3,2,1,1,16,0,0,0
200854870,0,60.1877329,24.8326598,-6.766,10.927,1743089289799969,11141125,0.266,3.1415925,1.008,1.626,0.69,1.02,73,17,0.040000003,0.009000001,0.039,0.033,3.8897295,0,nan,0.0,0.0,0.0,0,3,2,1,1,16,0,0,0
200957091,0,60.1877328,24.8326598,-6.766,10.928,1743089289899969,11141125,0.27100003,3.1415925,1.0090001,1.6270001,0.69,1.02,73,17,0.021000002,0.0,0.021000002,0.007,3.8897295,0,nan,0.0,0.0,0.0,0,3,2,1,1,16,0,0,0
201062860,0,60.1877328,24.8326599,-6.782,10.911,1743089289999970,11141125,0.26000002,3.1415925,1.0090001,1.628,0.69,1.02,73,27,0.036000002,-0.026,0.025,0.037,3.8897295,0,nan,0.0,0.0,0.0,0,3,2,1,1,16,0,0,0
201154861,0,60.1877328,24.832659699999997,-6.767,10.927,1743089290099969,11141125,0.26700002,3.1415925,1.01,1.6290001,0.69,1.02,73,27,0.08400001,-0.057000004,-0.063,0.013,3.8897295,0,nan,0.0,0.0,0.0,0,3,2,1,1,16,0,0,0
201257058,0,60.1877328,24.8326598,-6.7700000000000005,10.923,1743089290199969,11141125,0.264,3.1415925,1.01,1.6290001,0.69,1.02,73,27,0.042000003,0.034,0.024,-0.012,3.8897295,0,nan,0.0,0.0,0.0,0,3,2,1,1,16,0,0,0
201356169,0,60.1877327,24.8326598,-6.796,10.898,1743089290299969,11141125,0.26900002,3.1415925,1.011,1.6300001,0.69,1.02,73,27,0.052,-0.048,0.020000001,0.026,3.8897295,0,nan,0.0,0.0,0.0,0,3,2,1,1,16,0,0,0
201452770,0,60.1877328,24.8326599,-6.757000000000001,10.936,1743089290399969,11141125,0.26500002,3.1415925,1.011,1.631,0.69,1.02,73,27,0.051000003,0.038000003,0.034,-0.014,3.8897295,0,nan,0.0,0.0,0.0,0,3,2,1,1,16,0,0,0
201556180,0,60.1877328,24.8326598,-6.756,10.937,1743089290499969,11141125,0.259,3.1415925,1.0120001,1.6320001,0.69,1.02,73,27,0.037,-0.030000001,-0.022000002,-0.026,3.8897295,0,nan,0.0,0.0,0.0,0,3,2,1,1,16,0,0,0
201656177,0,60.1877327,24.8326598,-6.779,10.914,1743089290599969,11141125,0.25800002,3.1415925,1.0120001,1.6320001,0.69,1.02,73,27,0.031000001,-0.022000002,0.022000002,0.003,3.8897295,0,nan,0.0,0.0,0.0,0,3,2,1,1,16,0,0,0
201756188,0,60.1877327,24.8326598,-6.7860000000000005,10.908,1743089290699969,11141125,0.24800001,3.1415925,1.0120001,1.6330001,0.69,1.02,73,27,0.016,0.006,0.015000001,0.001,3.8897295,0,nan,0.0,0.0,0.0,0,3,2,1,1,16,0,0,0
201857065,0,60.1877328,24.832659699999997,-6.759,10.934000000000001,1743089290799969,11141125,0.264,3.1415925,1.013,1.6330001,0.69,1.02,73,27,0.074,0.066,-0.034,-0.036000002,3.8897295,0,nan,0.0,0.0,0.0,0,3,2,1,1,16,0,0,0
201957074,0,60.1877327,24.832659699999997,-6.79,10.903,1743089290899969,11141125,0.26500002,3.1415925,1.013,1.6340001,0.69,1.02,73,27,0.056,-0.054,-0.012,-0.007,3.8897295,0,nan,0.0,0.0,0.0,0,3,2,1,1,16,0,0,0
202064158,0,60.1877327,24.8326596,-6.799,10.894,1743089290999970,11141125,0.252,3.0144498,1.013,1.6340001,0.69,1.02,73,16,0.083000004,-0.069000006,-0.046000004,0.036000002,3.8897295,0,nan,0.0,0.0,0.0,0,3,2,1,1,16,0,0,0
202156089,0,60.1877327,24.8326598,-6.785,10.908,1743089291099969,11141125,0.24900001,3.1415925,1.014,1.6350001,0.69,1.02,73,16,0.079,-0.016,0.07700001,0.011000001,3.8897295,0,nan,0.0,0.0,0.0,0,3,2,1,1,16,0,0,0
202259867,0,60.1877327,24.8326598,-6.788,10.905,1743089291199969,11141125,0.263,3.1415925,1.014,1.6350001,0.69,1.02,73,16,0.071,0.068,0.018000001,0.013,3.8897295,0,nan,0.0,0.0,0.0,0,3,2,1,1,16,0,0,0
202356093,0,60.1877326,24.8326599,-6.784,10.909,1743089291299969,11141125,0.25300002,3.1415925,1.014,1.636,0.69,1.02,73,16,0.071,-0.064,0.030000001,-0.016,3.8897295,0,nan,0.0,0.0,0.0,0,3,2,1,1,16,0,0,0
202457073,0,60.1877326,24.8326598,-6.812,10.882,1743089291399969,11141125,0.24300002,3.1415925,1.0150001,1.636,0.69,1.02,73,16,0.034,-0.018000001,-0.029000001,0.011000001,3.8897295,0,nan,0.0,0.0,0.0,0,3,2,1,1,16,0,0,0
202557871,0,60.1877326,24.8326598,-6.808,10.886000000000001,1743089291499969,11141125,0.257,3.1415925,1.0150001,1.6370001,0.69,1.02,73,16,0.028,-0.028,-0.004,0.013,3.8897295,0,nan,0.0,0.0,0.0,0,3,2,1,1,16,0,0,0
202657079,0,60.1877326,24.8326599,-6.804,10.889,1743089291599970,11141125,0.24900001,3.1415925,1.0150001,1.6370001,0.69,1.02,73,16,0.027,-0.019000001,0.020000001,-0.003,3.8897295,0,nan,0.0,0.0,0.0,0,3,2,1,1,16,0,0,0
202757867,0,60.1877326,24.8326599,-6.811,10.882,1743089291699970,11141125,0.26000002,3.1415925,1.016,1.6380001,0.69,1.02,73,16,0.018000001,0.018000001,0.003,-0.004,3.8897295,0,nan,0.0,0.0,0.0,0,3,2,1,1,16,0,0,0
202857090,0,60.1877326,24.832659699999997,-6.8260000000000005,10.868,1743089291799970,11141125,0.22900002,3.1415925,1.016,1.6380001,0.69,1.02,73,16,0.081,-0.0050000004,-0.081,0.046000004,3.8897295,0,nan,0.0,0.0,0.0,0,3,2,1,1,16,0,0,0
202957098,0,60.187732499999996,24.8326598,-6.816,10.877,1743089291899970,11141125,0.257,3.1415925,1.016,1.639,0.69,1.02,73,16,0.047000002,-0.041,0.024,0.044000003,3.8897295,0,nan,0.0,0.0,0.0,0,3,2,1,1,16,0,0,0
203062860,0,60.187732499999996,24.832659699999997,-6.82,10.873000000000001,1743089291999971,11141125,0.23900001,3.1415925,1.0170001,1.639,0.69,1.02,73,26,0.021000002,-0.018000001,-0.011000001,0.030000001,3.8897295,0,nan,0.0,0.0,0.0,0,3,2,1,1,16,0,0,0
203158860,0,60.187732499999996,24.832659699999997,-6.814,10.879,1743089292099970,11141125,0.257,3.1415925,1.0170001,1.6400001,0.69,1.02,73,26,0.021000002,-0.016,0.015000001,0.015000001,3.8897295,0,nan,0.0,0.0,0.0,0,3,2,1,1,16,0,0,0
203258862,0,60.187732499999996,24.832659699999997,-6.82,10.873000000000001,1743089292199970,11141125,0.22900002,3.1415925,1.0170001,1.6400001,0.69,1.02,73,26,0.040000003,-0.008,-0.039,0.030000001,3.8897295,0,nan,0.0,0.0,0.0,0,3,2,1,1,16,0,0,0
203357065,0,60.187732399999994,24.8326598,-6.828,10.865,1743089292299970,11141125,0.25800002,3.1415925,1.018,1.641,0.69,1.02,73,26,0.064,-0.056,0.031000001,0.009000001,3.8897295,0,nan,0.0,0.0,0.0,0,3,2,1,1,16,0,0,0
203457861,0,60.187732399999994,24.8326599,-6.8420000000000005,10.851,1743089292399970,11141125,0.272,3.1415925,1.018,1.6420001,0.69,1.02,73,26,0.040000003,-0.020000001,0.034,0.023000002,3.8897295,0,nan,0.0,0.0,0.0,0,3,2,1,1,16,0,0,0
203557039,0,60.187732399999994,24.8326599,-6.86,10.833,1743089292499970,11141125,0.23900001,3.1415925,1.019,1.644,0.69,1.02,73,26,0.015000001,0.012,-0.008,0.021000002,3.8897295,0,nan,0.0,0.0,0.0,0,3,2,1,1,16,0,0,0
203657861,0,60.187732399999994,24.8326598,-6.849,10.844,1743089292599970,11141125,0.24400002,3.1415925,1.019,1.6450001,0.69,1.02,73,26,0.031000001,0.016,-0.027,0.013,3.8897295,0,nan,0.0,0.0,0.0,0,3,2,1,1,16,0,0,0
203757860,0,60.1877323,24.8326599,-6.853,10.84,1743089292699970,11141125,0.298,3.1415925,1.0200001,1.6470001,0.69,1.02,73,26,0.056,-0.051000003,0.023000002,0.018000001,3.8897295,0,nan,0.0,0.0,0.0,0,3,2,1,1,16,0,0,0
203857070,0,60.1877323,24.83266,-6.8740000000000006,10.82,1743089292799970,11141125,0.28100002,3.1415925,1.021,1.6480001,0.69,1.02,73,26,0.044000003,-0.034,0.028,0.079,3.8897295,0,nan,0.0,0.0,0.0,0,3,2,1,1,16,0,0,0
203957860,0,60.1877322,24.83266,-6.875,10.818,1743089292899970,11141125,0.26500002,3.1415925,1.021,1.6480001,0.69,1.02,73,26,0.072000004,-0.071,0.010000001,0.051000003,3.8897295,0,nan,0.0,0.0,0.0,0,3,2,1,1,16,0,0,0
204064177,0,60.1877323,24.8326601,-6.8870000000000005,10.806000000000001,1743089292999971,11141125,0.25800002,3.1415925,1.021,1.649,0.69,1.02,73,17,0.080000006,0.054,0.058000002,0.047000002,3.8897295,0,nan,0.0,0.0,0.0,0,3,2,1,1,16,0,0,0
204157086,0,60.1877323,24.8326602,-6.886,10.808,1743089293099970,11141125,0.27,3.1415925,1.021,1.6500001,0.69,1.02,73,17,0.058000002,-0.001,0.058000002,0.0,3.8897295,0,nan,0.0,0.0,0.0,0,3,2,1,1,16,0,0,0
204257081,0,60.1877323,24.8326603,-6.8950000000000005,10.798,1743089293199970,11141125,0.252,3.1415925,1.0220001,1.6500001,0.69,1.02,73,17,0.036000002,0.032,0.016,0.057000004,3.8897295,0,nan,0.0,0.0,0.0,0,3,2,1,1,16,0,0,0
204357081,0,60.1877323,24.8326602,-6.883,10.81,1743089293299970,11141125,0.24400002,3.1415925,1.0220001,1.651,0.69,1.02,73,17,0.040000003,-0.008,-0.039,0.067,3.8897295,0,nan,0.0,0.0,0.0,0,3,2,1,1,16,0,0,0
204456394,0,60.1877323,24.8326601,-6.88,10.814,1743089293399970,11141125,0.23900001,3.1415925,1.0220001,1.651,0.69,1.02,73,17,0.036000002,-0.026,-0.024,0.05,3.8897295,0,nan,0.0,0.0,0.0,0,3,2,1,1,16,0,0,0
204557860,0,60.1877323,24.8326601,-6.883,10.81,1743089293499970,11141125,0.23400001,3.1415925,1.0220001,1.651,0.69,1.02,73,17,0.017,0.012,-0.012,0.034,3.8897295,0,nan,0.0,0.0,0.0,0,3,2,1,1,16,0,0,0
204659860,0,60.187732399999994,24.83266,-6.868,10.825000000000001,1743089293599970,11141125,0.24100001,3.1415925,1.023,1.6520001,0.69,1.02,73,17,0.043,0.026,-0.034,0.011000001,3.8897295,0,nan,0.0,0.0,0.0,0,3,2,1,1,16,0,0,0
204757861,0,60.1877323,24.8326601,-6.875,10.818,1743089293699970,11141125,0.259,3.1415925,1.023,1.6520001,0.69,1.02,73,17,0.042000003,-0.030000001,0.030000001,0.023000002,3.8897295,0,nan,0.0,0.0,0.0,0,3,2,1,1,16,0,0,0
204857082,0,60.187732399999994,24.8326601,-6.897,10.796,1743089293799970,11141125,0.23900001,3.1415925,1.023,1.6520001,0.69,1.02,73,17,0.003,0.003,-0.001,0.059000004,3.8897295,0,nan,0.0,0.0,0.0,0,3,2,1,1,16,0,0,0
204957084,0,60.1877323,24.8326601,-6.881,10.812,1743089293899970,11141125,0.257,3.1415925,1.023,1.6530001,0.69,1.02,73,17,0.052,-0.051000003,-0.010000001,0.011000001,3.8897295,0,nan,0.0,0.0,0.0,0,3,2,1,1,16,0,0,0
205062862,0,60.187732399999994,24.8326601,-6.878,10.815,1743089293999971,11141125,0.25500003,3.1415925,1.024,1.6530001,0.69,1.02,73,22,0.032,0.030000001,0.011000001,0.013,3.8897295,0,nan,0.0,0.0,0.0,0,3,2,1,1,16,0,0,0
205156129,0,60.187732399999994,24.83266,-6.869,10.824,1743089294099970,11141125,0.26200002,3.1415925,1.024,1.654,0.69,1.02,73,22,0.028,0.014,-0.024,-0.002,3.8897295,0,nan,0.0,0.0,0.0,0,3,2,1,1,16,0,0,0
205257072,0,60.187732399999994,24.83266,-6.873,10.82,1743089294199970,11141125,0.27,3.1415925,1.024,1.6560001,0.69,1.02,73,22,0.021000002,0.021000002,-0.003,0.011000001,3.8897295,0,nan,0.0,0.0,0.0,0,3,2,1,1,16,0,0,0
205356102,0,60.1877323,24.83266,-6.863,10.83,1743089294299970,11141125,0.291,3.1415925,1.0250001,1.6570001,0.69,1.02,73,22,0.060000002,-0.059000004,0.012,-0.004,3.8897295,0,nan,0.0,0.0,0.0,0,3,2,1,1,16,0,0,0
205457073,0,60.187732399999994,24.8326601,-6.883,10.81,1743089294399970,11141125,0.257,3.1415925,1.0250001,1.6570001,0.69,1.02,73,22,0.058000002,0.05,0.029000001,0.020000001,3.8897295,0,nan,0.0,0.0,0.0,0,3,2,1,1,16,0,0,0
205557069,0,60.187732499999996,24.8326598,-6.855,10.839,1743089294499970,11141125,0.25300002,1.8057095,1.0250001,1.6580001,0.69,1.02,73,22,0.14,0.08800001,-0.109000005,-0.014,3.8897295,0,nan,0.0,0.0,0.0,0,3,2,1,1,16,0,0,0
205658859,0,60.1877327,24.8326598,-6.83,10.863,1743089294599970,11141125,0.259,2.1277435,1.026,1.6580001,0.69,1.02,73,22,0.115,0.10700001,-0.041,-0.05,3.8897295,0,nan,0.0,0.0,0.0,0,3,2,1,1,16,0,0,0
205758860,0,60.1877327,24.832659699999997,-6.806,10.887,1743089294699970,11141125,0.25800002,2.872809,1.026,1.659,0.69,1.02,73,22,0.085,0.081,-0.026,-0.082,3.8897295,0,nan,0.0,0.0,0.0,0,3,2,1,1,16,0,0,0
205858860,0,60.187732999999994,24.8326596,-6.78,10.913,1743089294799970,11141125,0.26000002,1.1569091,1.026,1.659,0.69,1.02,73,22,0.21000001,0.209,-0.018000001,-0.115,3.8897295,0,nan,0.0,0.0,0.0,0,3,2,1,1,16,0,0,0
205957069,0,60.1877332,24.8326595,-6.7410000000000005,10.952,1743089294899970,11141125,0.26500002,1.2410611,1.026,1.659,0.69,1.02,73,22,0.20300001,0.19600001,-0.051000003,-0.18900001,3.8897295,0,nan,0.0,0.0,0.0,0,3,2,1,1,16,0,0,0
206064086,0,60.1877335,24.832659399999997,-6.73,10.963000000000001,1743089294999971,11141125,0.259,0.6986619,1.0270001,1.659,0.69,1.02,73,17,0.34600002,0.34300002,-0.046000004,-0.20300001,6.149498,0,nan,0.0,0.0,0.0,0,3,2,1,1,16,0,0,0
206157079,0,60.187733599999994,24.832659399999997,-6.683,11.011000000000001,1743089295099971,11141125,0.24200001,1.5105488,1.0270001,1.6600001,0.69,1.02,73,17,0.157,0.157,-0.003,-0.286,4.9151907,0,nan,0.0,0.0,0.0,0,3,2,1,1,16,0,0,0
206258860,0,60.1877338,24.8326592,-6.61,11.083,1743089295199971,11141125,0.24200001,1.5052487,1.0270001,1.6600001,0.69,1.02,73,17,0.171,0.15900001,-0.063,-0.29500002,4.9151907,0,nan,0.0,0.0,0.0,0,3,2,1,1,16,0,0,0
206658860,0,60.1877344,24.8326593,-6.414,11.279,1743089295599971,11141125,0.23200001,3.1415925,1.028,1.6600001,0.69,1.02,73,17,0.041,0.037,-0.019000001,-0.43100002,5.698397,0,nan,0.0,0.0,0.0,0,3,2,1,1,16,0,0,0
206758861,0,60.1877344,24.8326593,-6.333,11.36,1743089295699971,11141125,0.23,3.1415925,1.029,1.6600001,0.69,1.02,73,17,0.041,-0.019000001,0.037,-0.48600003,5.698397,0,nan,0.0,0.0,0.0,0,3,2,1,1,16,0,0,0
206857860,0,60.187734299999995,24.8326593,-6.293,11.401,1743089295799971,11141125,0.23500001,3.114586,1.029,1.6610001,0.69,1.02,73,17,0.08400001,-0.075,-0.038000003,-0.47500002,5.698397,0,nan,0.0,0.0,0.0,0,3,2,1,1,16,0,0,0
206957860,0,60.187734299999995,24.8326595,-6.214,11.479000000000001,1743089295899971,11141125,0.23200001,2.2753146,1.0300001,1.6610001,0.69,1.02,73,17,0.128,-0.060000002,0.113000005,-0.605,5.698397,0,nan,0.0,0.0,0.0,0,3,2,1,1,16,0,0,0
207064862,0,60.1877344,24.8326593,-6.131,11.563,1743089295999972,11141125,0.23600002,3.1024942,1.0300001,1.6610001,0.69,1.02,73,25,0.086,0.038000003,-0.07700001,-0.60300004,5.698397,0,nan,0.0,0.0,0.0,0,3,2,1,1,16,0,0,0
207156097,0,60.187734299999995,24.8326593,-6.062,11.632,1743089296099971,11141125,0.23600002,3.1415925,1.031,1.6610001,0.69,1.02,73,25,0.026,-0.020000001,-0.016,-0.60400003,5.698397,0,nan,0.0,0.0,0.0,0,3,2,1,1,16,0,0,0
207258861,0,60.187734299999995,24.8326595,-5.966,11.727,1743089296199971,11141125,0.23500001,2.6711793,1.031,1.6610001,0.69,1.02,73,25,0.097,-0.056,0.078,-0.66800004,5.698397,0,nan,0.0,0.0,0.0,0,3,2,1,1,16,0,0,0
207358860,0,60.187734199999994,24.8326596,-5.876,11.817,1743089296299971,11141125,0.23700002,1.6151824,1.031,1.6610001,0.69,1.02,73,25,0.149,-0.127,0.078,-0.72700006,5.698397,0,nan,0.0,0.0,0.0,0,3,2,1,1,16,0,0,0
207457082,0,60.187734,24.832659399999997,-5.787,11.906,1743089296399971,11141125,0.24400002,1.0926903,1.0320001,1.6610001,0.69,1.02,73,25,0.24000001,-0.22000001,-0.097,-0.757,5.698397,0,nan,0.0,0.0,0.0,0,3,2,1,1,16,0,0,0
207557058,0,60.187734,24.8326596,-5.71,11.984,1743089296499971,11141125,0.23500001,2.8992422,1.0320001,1.6610001,0.69,1.02,73,25,0.093,-0.038000003,0.085,-0.772,5.698397,0,nan,0.0,0.0,0.0,0,3,2,1,1,16,0,0,0
207657861,0,60.1877338,24.832659399999997,-5.6080000000000005,12.085,1743089296599971,11141125,0.24100001,1.600471,1.033,1.6620001,0.69,1.02,73,25,0.17,-0.149,-0.081,-0.76100004,5.698397,0,nan,0.0,0.0,0.0,0,3,2,1,1,16,0,0,0
207757059,0,60.187733599999994,24.8326596,-5.5120000000000005,12.181000000000001,1743089296699971,11141125,0.24300002,0.9392906,1.033,1.6620001,0.69,1.02,73,25,0.25300002,-0.245,0.062000003,-0.80200005,5.698397,0,nan,0.0,0.0,0.0,0,3,2,1,1,16,0,0,0
207856101,0,60.1877334,24.8326596,-5.399,12.295,1743089296799971,11141125,0.23900001,1.4331449,1.033,1.6620001,0.69,1.02,73,25,0.165,-0.164,0.015000001,-0.887,5.698397,0,nan,0.0,0.0,0.0,0,3,2,1,1,16,0,0,0
207957078,0,60.1877333,24.8326599,-5.2940000000000005,12.399000000000001,1743089296899971,11141125,0.238,1.1418607,1.034,1.6630001,0.69,1.02,73,25,0.23,-0.19600001,0.120000005,-0.91700006,5.698397,0,nan,0.0,0.0,0.0,0,3,2,1,1,16,0,0,0
208064064,0,60.1877332,24.8326601,-5.189,12.505,1743089296999972,11141125,0.23500001,1.5544925,1.034,1.6630001,0.69,1.02,73,22,0.163,-0.104,0.127,-0.93700004,5.698397,0,nan,0.0,0.0,0.0,0,3,2,1,1,16,0,0,0
208152519,0,60.187733099999996,24.8326601,-5.054,12.639000000000001,1743089297099971,11141125,0.23500001,2.3388793,1.034,1.6630001,0.69,1.02,73,22,0.109000005,-0.101,0.040000003,-1.0170001,5.698397,0,nan,0.0,0.0,0.0,0,3,2,1,1,16,0,0,0
208257070,0,60.1877329,24.8326602,-4.961,12.732000000000001,1743089297199971,11141125,0.23500001,1.5132653,1.0350001,1.6630001,0.69,1.02,73,22,0.155,-0.15200001,0.027,-0.96400005,5.698397,0,nan,0.0,0.0,0.0,0,3,2,1,1,16,0,0,0
208352530,0,60.1877328,24.832660399999998,-4.833,12.86,1743089297299971,11141125,0.23400001,1.1269842,1.0350001,1.6630001,0.69,1.02,73,22,0.21400002,-0.178,0.119,-1.0200001,5.698397,0,nan,0.0,0.0,0.0,0,3,2,1,1,16,0,0,0
208457074,0,60.187732499999996,24.8326605,-4.753,12.941,1743089297399971,11141125,0.23700002,0.7586541,1.0350001,1.6630001,0.69,1.02,73,22,0.31,-0.30800003,0.030000001,-1.0250001,3.0454178,0,nan,0.0,0.0,0.0,0,3,2,1,1,16,0,0,0
208557077,0,60.187732499999996,24.8326603,-4.587,13.106,1743089297499971,11141125,0.231,3.1415925,1.0350001,1.6630001,0.69,1.02,73,22,0.058000002,-0.031000001,-0.049000002,-1.136,4.4071345,0,nan,0.0,0.0,0.0,0,3,2,1,1,16,0,0,0
208656085,0,60.1877326,24.8326606,-4.46,13.233,1743089297599971,11141125,0.22900002,1.8608829,1.0350001,1.6630001,0.69,1.02,73,22,0.135,0.059000004,0.12200001,-1.1350001,4.4071345,0,nan,0.0,0.0,0.0,0,3,2,1,1,16,0,0,0
208756107,0,60.187732399999994,24.832660699999998,-4.322,13.372,1743089297699971,11141125,0.22900002,1.474443,1.0350001,1.6630001,0.69,1.02,73,22,0.158,-0.15300001,0.038000003,-1.136,4.4071345,0,nan,0.0,0.0,0.0,0,3,2,1,1,16,0,0,0
208856117,0,60.1877321,24.832660399999998,-4.199,13.494,1743089297799971,11141125,0.231,0.8816434,1.0350001,1.6620001,0.69,1.02,73,22,0.26700002,-0.23400001,-0.127,-1.123,4.4071345,0,nan,0.0,0.0,0.0,0,3,2,1,1,16,0,0,0
208957079,0,60.187732,24.83266,-4.073,13.620000000000001,1743089297899971,11141125,0.231,0.88734895,1.0350001,1.6620001,0.69,1.02,73,22,0.27600002,-0.178,-0.21000001,-1.1810001,4.4071345,0,nan,0.0,0.0,0.0,0,3,2,1,1,16,0,0,0
209062860,0,60.187731899999996,24.832659399999997,-3.9610000000000003,13.732000000000001,1743089297999972,11141125,0.231,0.7920323,1.036,1.6620001,0.69,1.02,73,22,0.323,-0.08800001,-0.31100002,-1.1830001,4.4071345,0,nan,0.0,0.0,0.0,0,3,2,1,1,16,0,0,0
209157063,0,60.1877317,24.832659,-3.83,13.863,1743089298099971,11141125,0.23400001,0.7923882,1.036,1.6620001,0.69,1.02,73,22,0.36,-0.24000001,-0.26900002,-1.2090001,4.4071345,0,nan,0.0,0.0,0.0,0,3,2,1,1,16,0,0,0
209257079,0,60.1877314,24.8326578,-3.678,14.015,1743089298199971,11141125,0.24000001,0.4507866,1.036,1.6630001,0.69,1.02,73,22,0.648,-0.287,-0.58100003,-1.261,4.2530584,0,nan,0.0,0.0,0.0,0,3,2,1,1,16,0,0,0
209357063,0,60.1877309,24.832656999999998,-3.547,14.146,1743089298299971,11141125,0.24700001,0.38859978,1.0370001,1.6630001,0.69,1.02,73,22,0.70000005,-0.48200002,-0.508,-1.264,3.9533434,0,nan,0.0,0.0,0.0,0,3,2,1,1,16,0,0,0
209457060,0,60.187730599999995,24.832656,-3.42,14.273,1743089298399971,11141125,0.24000001,0.35401124,1.0370001,1.6630001,0.69,1.02,73,22,0.702,-0.437,-0.549,-1.273,4.0405188,0,nan,0.0,0.0,0.0,0,3,2,1,1,16,0,0,0
209556102,0,60.1877302,24.8326547,-3.3000000000000003,14.393,1743089298499971,11141125,0.23900001,0.31214026,1.0370001,1.6630001,0.69,1.02,73,22,0.80700004,-0.42200002,-0.68700004,-1.2700001,4.161687,0,nan,0.0,0.0,0.0,0,3,2,1,1,16,0,0,0
209656109,0,60.1877297,24.832653399999998,-3.154,14.539,1743089298599971,11141125,0.23900001,0.26112306,1.0370001,1.6620001,0.69,1.02,73,22,0.95000005,-0.563,-0.76500005,-1.307,4.0778565,0,nan,0.0,0.0,0.0,0,3,2,1,1,16,0,0,0
209756099,0,60.1877291,24.8326516,-2.998,14.695,1743089298699972,11141125,0.23600002,0.21475665,1.0370001,1.6620001,0.69,1.02,73,22,1.136,-0.601,-0.96400005,-1.3690001,4.154706,0,nan,0.0,0.0,0.0,0,3,2,1,1,16,0,0,0
209857860,0,60.1877285,24.8326496,-2.839,14.854000000000001,1743089298799972,11141125,0.23500001,0.1944932,1.0370001,1.6620001,0.69,1.02,73,22,1.2620001,-0.64900005,-1.082,-1.3740001,4.1718144,0,nan,0.0,0.0,0.0,0,3,2,1,1,16,0,0,0
209957062,0,60.1877278,24.8326474,-2.686,15.007,1743089298899972,11141125,0.23600002,0.17232019,1.0370001,1.6620001,0.69,1.02,73,22,1.4150001,-0.77400005,-1.1850001,-1.3750001,4.1334505,0,nan,0.0,0.0,0.0,0,3,2,1,1,16,0,0,0
210064052,0,60.1877271,24.8326451,-2.578,15.115,1743089298999973,11141125,0.23500001,0.16275072,1.0370001,1.6610001,0.69,1.02,73,23,1.5220001,-0.814,-1.286,-1.3490001,4.148185,0,nan,0.0,0.0,0.0,0,3,2,1,1,16,0,0,0
210156109,0,60.187726299999994,24.832642399999997,-2.387,15.306000000000001,1743089299099972,11141125,0.23500001,0.14948255,1.0370001,1.6610001,0.69,1.02,73,23,1.667,-0.8,-1.463,-1.424,4.212066,0,nan,0.0,0.0,0.0,0,3,2,1,1,16,0,0,0
210257859,0,60.1877254,24.8326398,-2.294,15.399000000000001,1743089299199972,11141125,0.238,0.1365207,1.0370001,1.6610001,0.69,1.02,73,23,1.802,-0.97400004,-1.516,-1.35,4.141358,0,nan,0.0,0.0,0.0,0,3,2,1,1,16,0,0,0
210357861,0,60.187724599999996,24.8326368,-2.1390000000000002,15.554,1743089299299972,11141125,0.238,0.13151038,1.0370001,1.6610001,0.69,1.02,73,23,1.881,-0.96900004,-1.6110001,-1.371,4.170811,0,nan,0.0,0.0,0.0,0,3,2,1,1,16,0,0,0
210456325,0,60.1877235,24.8326334,-1.998,15.695,1743089299399972,11141125,0.24000001,0.11296696,1.0370001,1.6600001,0.69,1.02,73,23,2.1880002,-1.164,-1.8520001,-1.368,4.151532,0,nan,0.0,0.0,0.0,0,3,2,1,1,16,0,0,0
210552491,0,60.1877225,24.8326301,-1.867,15.826,1743089299499972,11141125,0.23900001,0.11438661,1.0380001,1.6600001,0.69,1.02,73,23,2.1750002,-1.1110001,-1.8700001,-1.3340001,4.176489,0,nan,0.0,0.0,0.0,0,3,2,1,1,16,0,0,0
210656096,0,60.187721499999995,24.8326265,-1.693,16.0,1743089299599972,11141125,0.238,0.1102664,1.0380001,1.6600001,0.69,1.02,73,23,2.262,-1.1500001,-1.9480001,-1.386,4.179073,0,nan,0.0,0.0,0.0,0,3,2,1,1,16,0,0,0
210752431,0,60.187720299999995,24.8326229,-1.566,16.127,1743089299699972,11141125,0.24900001,0.105855085,1.0380001,1.6600001,0.69,1.02,73,23,2.397,-1.2290001,-2.058,-1.3790001,4.173818,0,nan,0.0,0.0,0.0,0,3,2,1,1,16,0,0,0
210852624,0,60.1877192,24.8326188,-1.431,16.262,1743089299799972,11141125,0.25,0.100297615,1.0380001,1.6600001,0.69,1.02,73,23,2.555,-1.2750001,-2.2150002,-1.365,4.1900244,0,nan,0.0,0.0,0.0,0,3,2,1,1,16,0,0,0
210956316,0,60.1877181,24.832614799999998,-1.281,16.412,1743089299899972,11141125,0.25100002,0.10055138,1.0380001,1.6600001,0.69,1.02,73,23,2.591,-1.2520001,-2.269,-1.3900001,4.2081165,0,nan,0.0,0.0,0.0,0,3,2,1,1,16,0,0,0
211257860,0,60.187714799999995,24.8326015,-0.801,16.892,1743089300199972,11141125,0.25,0.09545659,1.039,1.6610001,0.69,1.02,73,13,2.8200002,-1.179,-2.561,-1.503,4.2810206,0,nan,0.0,0.0,0.0,0,3,2,1,1,16,0,0,0
211356102,0,60.187713699999996,24.8325969,-0.642,17.051000000000002,1743089300299972,11141125,0.252,0.09369642,1.0400001,1.6610001,0.69,1.02,73,13,2.848,-1.233,-2.5670002,-1.5320001,4.2645807,0,nan,0.0,0.0,0.0,0,3,2,1,1,16,0,0,0
211457081,0,60.187712499999996,24.8325922,-0.47300000000000003,17.22,1743089300399972,11141125,0.25,0.091356464,1.0400001,1.6610001,0.69,1.02,73,13,2.8930001,-1.269,-2.6000001,-1.547,4.2584333,0,nan,0.0,0.0,0.0,0,3,2,1,1,16,0,0,0
211557056,0,60.1877115,24.8325875,-0.321,17.373,1743089300499972,11141125,0.24900001,0.09087109,1.0400001,1.6610001,0.69,1.02,73,13,2.8850002,-1.207,-2.6200001,-1.5690001,4.280623,0,nan,0.0,0.0,0.0,0,3,2,1,1,16,0,0,0
211656162,0,60.1877103,24.8325827,-0.154,17.539,1743089300599972,11141125,0.24700001,0.087388985,1.041,1.6610001,0.69,1.02,73,13,2.9950001,-1.274,-2.71,-1.613,4.2729344,0,nan,0.0,0.0,0.0,0,3,2,1,1,16,0,0,0
211757860,0,60.1877092,24.8325779,0.041,17.735,1743089300699972,11141125,0.24700001,0.089430146,1.041,1.6610001,0.69,1.02,73,13,2.9290001,-1.202,-2.6710002,-1.6760001,4.2895956,0,nan,0.0,0.0,0.0,0,3,2,1,1,16,0,0,0
211857861,0,60.187708199999996,24.8325732,0.231,17.924,1743089300799972,11141125,0.246,0.09251152,1.041,1.6610001,0.69,1.02,73,13,2.8470001,-1.143,-2.608,-1.7420001,4.29936,0,nan,0.0,0.0,0.0,0,3,2,1,1,16,0,0,0
211956339,0,60.1877071,24.832568499999997,0.377,18.071,1743089300899972,11141125,0.25,0.08923309,1.041,1.6610001,0.69,1.02,73,13,2.9670002,-1.286,-2.674,-1.7030001,4.2641354,0,nan,0.0,0.0,0.0,0,3,2,1,1,16,0,0,0
212064049,0,60.1877059,24.8325639,0.512,18.205000000000002,1743089300999973,11141125,0.25300002,0.10498173,1.042,1.6620001,0.69,1.02,68,12,2.864,-1.2470001,-2.578,-1.5740001,4.2618957,0,nan,0.0,0.0,0.0,0,3,2,1,1,16,0,0,0
212157073,0,60.187705199999996,24.832559399999997,0.608,18.301000000000002,1743089301099972,11141125,0.28100002,0.123929545,1.0430001,1.664,0.69,1.02,68,12,2.66,-0.94500005,-2.4870002,-1.3390001,4.349347,0,nan,0.0,0.0,0.0,0,3,2,1,1,16,0,0,0
212257078,0,60.1877041,24.832554899999998,0.716,18.409,1743089301199972,11141125,0.289,0.12172746,1.044,1.6650001,0.69,1.02,68,12,2.6980002,-1.08,-2.4720001,-1.177,4.3004403,0,nan,0.0,0.0,0.0,0,3,2,1,1,16,0,0,0
212356092,0,60.1877031,24.832549999999998,0.772,18.465,1743089301299972,11141125,0.294,0.11828689,1.046,1.6680001,0.69,1.02,68,12,2.825,-1.079,-2.611,-0.96800005,4.3206697,0,nan,0.0,0.0,0.0,0,3,2,1,1,16,0,0,0
212456293,0,60.1877022,24.832545699999997,0.865,18.558,1743089301399972,11141125,0.29900002,0.1246652,1.047,1.6700001,0.69,1.02,68,12,2.663,-1.0500001,-2.447,-0.91800004,4.307065,0,nan,0.0,0.0,0.0,0,3,2,1,1,16,0,0,0
212554863,0,60.1877011,24.8325411,0.9480000000000001,18.641000000000002,1743089301499972,11141125,0.277,0.12677443,1.049,1.672,0.69,1.02,68,12,2.7640002,-1.146,-2.515,-0.915,4.2847934,0,nan,0.0,0.0,0.0,0,3,2,1,1,16,0,0,0
212657866,0,60.1877001,24.8325368,1.0210000000000001,18.714,1743089301599972,11141125,0.277,0.13066442,1.0500001,1.6750001,0.69,1.02,68,12,2.69,-1.098,-2.456,-0.90700006,4.291966,0,nan,0.0,0.0,0.0,0,3,2,1,1,16,0,0,0
212756108,0,60.1876992,24.832532699999998,1.089,18.783,1743089301699972,11141125,0.307,0.1431683,1.052,1.677,0.69,1.02,68,12,2.558,-1.074,-2.321,-0.85800004,4.27896,0,nan,0.0,0.0,0.0,0,3,2,1,1,16,0,0,0
212856075,0,60.187698399999995,24.8325286,1.141,18.834,1743089301799972,11141125,0.28800002,0.14646296,1.0530001,1.6810001,0.69,1.02,68,12,2.4490001,-0.89900005,-2.278,-0.79300004,4.33636,0,nan,0.0,0.0,0.0,0,3,2,1,1,16,0,0,0
213064051,0,60.187697299999996,24.832521699999997,1.295,18.989,1743089301999973,11141125,0.30800003,0.18888843,1.057,1.6880001,0.69,1.02,68,12,2.0530002,-0.63900006,-1.9510001,-0.8,4.3960857,0,nan,0.0,0.0,0.0,0,3,2,1,1,16,0,0,0
213156080,0,60.187696599999995,24.8325188,1.345,19.038,1743089302099972,11141125,0.31100002,0.20777813,1.059,1.692,0.69,1.02,68,12,1.8370001,-0.69000006,-1.702,-0.77300006,4.3272386,0,nan,0.0,0.0,0.0,0,3,2,1,1,16,0,0,0
213257068,0,60.1876963,24.8325162,1.4040000000000001,19.097,1743089302199972,11141125,0.305,0.24229865,1.0610001,1.695,0.69,1.02,68,12,1.5840001,-0.48700002,-1.508,-0.74600005,4.4000583,0,nan,0.0,0.0,0.0,0,3,2,1,1,16,0,0,0
213356098,0,60.187695999999995,24.8325137,1.427,19.12,1743089302299973,11141125,0.28300002,0.22786058,1.062,1.6990001,0.69,1.02,68,12,1.4690001,-0.294,-1.439,-0.65900004,4.51105,0,nan,0.0,0.0,0.0,0,3,2,1,1,16,0,0,0
213456344,0,60.1876957,24.832511699999998,1.499,19.192,1743089302399973,11141125,0.28100002,0.2558082,1.0630001,1.702,0.69,1.02,68,12,1.256,-0.36900002,-1.2010001,-0.64900005,4.4143267,0,nan,0.0,0.0,0.0,0,3,2,1,1,16,0,0,0
213557060,0,60.187695399999996,24.832509899999998,1.596,19.289,1743089302499973,11141125,0.282,0.2996151,1.064,1.7060001,0.69,1.02,68,12,1.0890001,-0.35200003,-1.031,-0.707,4.3830504,0,nan,0.0,0.0,0.0,0,3,2,1,1,16,0,0,0
213657059,0,60.1876952,24.8325083,1.616,19.309,1743089302599973,11141125,0.284,0.36923134,1.065,1.71,0.69,1.02,68,12,0.96700007,-0.23200001,-0.938,-0.63000005,4.469563,0,nan,0.0,0.0,0.0,0,3,2,1,1,16,0,0,0
213756094,0,60.187695,24.832507,1.657,19.35,1743089302699973,11141125,0.289,0.4690281,1.067,1.715,0.69,1.02,68,12,0.776,-0.14400001,-0.763,-0.60400003,4.5254045,0,nan,0.0,0.0,0.0,0,3,2,1,1,16,0,0,0
213857859,0,60.187695,24.8325057,1.719,19.412,1743089302799973,11141125,0.294,0.4981407,1.0680001,1.7190001,0.69,1.02,68,12,0.72900003,-0.057000004,-0.72700006,-0.609,4.634421,0,nan,0.0,0.0,0.0,0,3,2,1,1,16,0,0,0
213957062,0,60.187694799999996,24.832504999999998,1.7710000000000001,19.464,1743089302899973,11141125,0.291,0.6820055,1.07,1.723,0.69,1.02,68,12,0.526,-0.14400001,-0.50600004,-0.577,4.4344745,0,nan,0.0,0.0,0.0,0,3,2,1,1,16,0,0,0
214064072,0,60.187694699999994,24.832504,1.821,19.514,1743089302999974,11141125,0.293,0.7136834,1.072,1.728,0.69,1.02,68,13,0.51900005,-0.106000006,-0.508,-0.569,4.5069766,0,nan,0.0,0.0,0.0,0,3,2,1,1,16,0,0,0
214154862,0,60.187694799999996,24.8325036,1.862,19.556,1743089303099973,11141125,0.31300002,1.1905315,1.0730001,1.7320001,0.69,1.02,68,13,0.296,0.061000004,-0.289,-0.615,4.5073485,0,nan,0.0,0.0,0.0,0,3,2,1,1,16,0,0,0
214256083,0,60.187694799999996,24.832502899999998,1.8900000000000001,19.583000000000002,1743089303199973,11141125,0.31,1.0362285,1.074,1.7370001,0.69,1.02,68,13,0.342,0.054,-0.33800003,-0.59900004,4.5073485,0,nan,0.0,0.0,0.0,0,3,2,1,1,16,0,0,0
214354861,0,60.1876946,24.8325028,2.004,19.697,1743089303299973,11141125,0.298,1.2804065,1.0760001,1.7400001,0.69,1.02,68,13,0.25500003,-0.20600002,-0.15100001,-0.68600005,4.5073485,0,nan,0.0,0.0,0.0,0,3,2,1,1,16,0,0,0
214456079,0,60.187694799999996,24.8325024,2.0340000000000003,19.728,1743089303399973,11141125,0.319,1.546666,1.077,1.7450001,0.69,1.02,68,13,0.21800001,0.1,-0.193,-0.634,4.5073485,0,nan,0.0,0.0,0.0,0,3,2,1,1,16,0,0,0
214554860,0,60.1876946,24.832502299999998,2.063,19.756,1743089303499973,11141125,0.31100002,3.1415925,1.079,1.7500001,0.69,1.02,68,13,0.10300001,-0.035,-0.097,-0.615,4.5073485,0,nan,0.0,0.0,0.0,0,3,2,1,1,16,0,0,0
214654860,0,60.1876945,24.8325022,2.096,19.789,1743089303599973,11141125,0.31,3.1415925,1.08,1.7540001,0.69,1.02,68,13,0.095000006,-0.07700001,-0.055000003,-0.56600004,4.5073485,0,nan,0.0,0.0,0.0,0,3,2,1,1,16,0,0,0
214753985,0,60.187694799999996,24.8325021,2.121,19.814,1743089303699973,11141125,0.337,1.2326173,1.082,1.7590001,0.69,1.02,68,13,0.23700002,0.231,-0.053000003,-0.601,4.5073485,0,nan,0.0,0.0,0.0,0,3,2,1,1,16,0,0,0
214854860,0,60.187694799999996,24.832501999999998,2.168,19.861,1743089303799973,11141125,0.321,3.1415925,1.0830001,1.7630001,0.69,1.02,68,13,0.097,0.07,-0.067,-0.58100003,4.5073485,0,nan,0.0,0.0,0.0,0,3,2,1,1,16,0,0,0
214953976,0,60.187694699999994,24.8325019,2.232,19.925,1743089303899973,11141125,0.31500003,3.1415925,1.085,1.7680001,0.69,1.02,68,13,0.042000003,0.006,-0.041,-0.59000003,4.5073485,0,nan,0.0,0.0,0.0,0,3,2,1,1,16,0,0,0
215059859,0,60.187695,24.8325018,2.298,19.992,1743089303999974,11141125,0.335,1.3658532,1.0860001,1.7730001,0.69,1.02,68,17,0.216,0.209,-0.057000004,-0.60800004,4.5073485,0,nan,0.0,0.0,0.0,0,3,2,1,1,16,0,0,0
215154010,0,60.187695,24.8325018,2.349,20.042,1743089304099973,11141125,0.323,3.1415925,1.088,1.7780001,0.69,1.02,68,17,0.08400001,0.081,-0.025,-0.57900006,4.5073485,0,nan,0.0,0.0,0.0,0,3,2,1,1,16,0,0,0
215254862,0,60.1876952,24.8325019,2.3810000000000002,20.074,1743089304199973,11141125,0.33800003,1.5193621,1.0890001,1.7830001,0.69,1.02,68,17,0.19800001,0.194,0.035,-0.546,4.5073485,0,nan,0.0,0.0,0.0,0,3,2,1,1,16,0,0,0
215356127,0,60.187695399999996,24.832501999999998,2.419,20.112000000000002,1743089304299973,11141125,0.354,1.0714711,1.0910001,1.7880001,0.69,1.02,68,17,0.284,0.27800003,0.057000004,-0.55200005,4.5073485,0,nan,0.0,0.0,0.0,0,3,2,1,1,16,0,0,0
215454866,0,60.187695399999996,24.8325022,2.523,20.216,1743089304399973,11141125,0.32200003,3.1415925,1.093,1.792,0.69,1.02,68,17,0.104,0.046000004,0.094000004,-0.624,4.5073485,0,nan,0.0,0.0,0.0,0,3,2,1,1,16,0,0,0
215554001,0,60.1876957,24.8325024,2.59,20.284,1743089304499973,11141125,0.34,1.3885458,1.095,1.797,0.69,1.02,68,17,0.22100002,0.19700001,0.09900001,-0.61700004,4.5073485,0,nan,0.0,0.0,0.0,0,3,2,1,1,16,0,0,0
215656098,0,60.1876957,24.8325028,2.656,20.349,1743089304599973,11141125,0.33,1.6793532,1.097,1.802,0.69,1.02,68,17,0.22200002,0.097,0.2,-0.629,4.5073485,0,nan,0.0,0.0,0.0,0,3,2,1,1,16,0,0,0
215754862,0,60.1876957,24.832503,2.674,20.367,1743089304699973,11141125,0.33,2.3007333,1.098,1.807,0.69,1.02,68,17,0.15,0.097,0.115,-0.58500004,4.5073485,0,nan,0.0,0.0,0.0,0,3,2,1,1,16,0,0,0
215854861,0,60.187695899999994,24.832503199999998,2.7,20.393,1743089304799973,11141125,0.34300002,1.3415514,1.1,1.812,0.69,1.02,68,17,0.23900001,0.19100001,0.14500001,-0.58400005,4.5073485,0,nan,0.0,0.0,0.0,0,3,2,1,1,16,0,0,0
215954861,0,60.1876962,24.832503499999998,2.775,20.468,1743089304899973,11141125,0.35300002,1.040371,1.102,1.817,0.69,1.02,68,17,0.29200003,0.261,0.13000001,-0.587,4.5073485,0,nan,0.0,0.0,0.0,0,3,2,1,1,16,0,0,0
216062424,0,60.1876964,24.8325037,2.815,20.508,1743089304999974,11141125,0.35700002,0.9967589,1.1040001,1.8220001,0.69,1.02,63,15,0.30600002,0.277,0.13000001,-0.558,4.5073485,0,nan,0.0,0.0,0.0,0,3,2,1,1,16,0,0,0
216153986,0,60.187696499999994,24.8325042,2.873,20.567,1743089305099973,11141125,0.33900002,1.3214017,1.1060001,1.8260001,0.69,1.02,63,15,0.27,0.15300001,0.22200002,-0.565,4.5073485,0,nan,0.0,0.0,0.0,0,3,2,1,1,16,0,0,0
216257073,0,60.1876964,24.832504399999998,2.888,20.581,1743089305199973,11141125,0.321,2.7486598,1.108,1.83,0.69,1.02,63,15,0.14,0.030000001,0.13700001,-0.54200006,4.5073485,0,nan,0.0,0.0,0.0,0,3,2,1,1,16,0,0,0
216352607,0,60.187696499999994,24.8325043,2.963,20.656,1743089305299973,11141125,0.323,3.1415925,1.1090001,1.8340001,0.69,1.02,63,15,0.087000005,0.085,0.019000001,-0.53300005,4.5073485,0,nan,0.0,0.0,0.0,0,3,2,1,1,16,0,0,0
216452430,0,60.187696499999994,24.8325043,2.968,20.661,1743089305399973,11141125,0.32000002,3.1415925,1.1110001,1.838,0.69,1.02,63,15,0.071,0.071,0.007,-0.52500004,4.5073485,0,nan,0.0,0.0,0.0,0,3,2,1,1,16,0,0,0
216556083,0,60.1876964,24.832504099999998,3.0220000000000002,20.715,1743089305499973,11141125,0.30800003,3.1415925,1.1120001,1.8420001,0.69,1.02,63,15,0.101,-0.020000001,-0.09900001,-0.51000005,4.5073485,0,nan,0.0,0.0,0.0,0,3,2,1,1,16,0,0,0
216656116,0,60.1876964,24.8325037,3.041,20.734,1743089305599973,11141125,0.30600002,2.1468318,1.1140001,1.8460001,0.69,1.02,63,15,0.185,0.028,-0.18300001,-0.44000003,4.5073485,0,nan,0.0,0.0,0.0,0,3,2,1,1,16,0,0,0
216754861,0,60.1876963,24.8325031,3.057,20.75,1743089305699973,11141125,0.298,1.3096018,1.115,1.8490001,0.69,1.02,63,15,0.29500002,-0.036000002,-0.293,-0.43100002,4.5073485,0,nan,0.0,0.0,0.0,0,3,2,1,1,16,0,0,0
216852517,0,60.187695999999995,24.832502899999998,3.089,20.782,1743089305799973,11141125,0.305,1.2885375,1.1170001,1.8520001,0.69,1.02,63,15,0.24800001,-0.18300001,-0.16800001,-0.43,4.5073485,0,nan,0.0,0.0,0.0,0,3,2,1,1,16,0,0,0
216954862,0,60.187695899999994,24.8325024,3.09,20.783,1743089305899974,11141125,0.296,1.4689856,1.118,1.8560001,0.69,1.02,63,15,0.25100002,-0.07,-0.24200001,-0.326,4.5073485,0,nan,0.0,0.0,0.0,0,3,2,1,1,16,0,0,0
217062542,0,60.1876958,24.8325018,3.1270000000000002,20.82,1743089305999975,11141125,0.29900002,1.1076043,1.12,1.858,0.69,1.02,59,15,0.342,-0.105000004,-0.32500002,-0.372,4.5073485,0,nan,0.0,0.0,0.0,0,3,2,1,1,16,0,0,0
217154860,0,60.1876956,24.8325015,3.192,20.885,1743089306099974,11141125,0.3,1.2293549,1.121,1.8600001,0.69,1.02,59,15,0.289,-0.164,-0.238,-0.45200002,4.5073485,0,nan,0.0,0.0,0.0,0,3,2,1,1,16,0,0,0
217256106,0,60.1876956,24.832501099999998,3.154,20.847,1743089306199974,11141125,0.289,1.5042316,1.121,1.8550001,0.69,1.02,59,15,0.21400002,-0.012,-0.21400002,-0.38200003,4.5073485,0,nan,0.0,0.0,0.0,0,3,2,1,1,16,0,0,0
217352419,0,60.187695399999996,24.8325008,3.22,20.913,1743089306299974,11141125,0.29500002,1.0428903,1.121,1.853,0.69,1.02,59,15,0.28,-0.22500001,-0.16800001,-0.42800003,4.5073485,0,nan,0.0,0.0,0.0,0,3,2,1,1,16,0,0,0
217456124,0,60.187695299999994,24.8325009,3.262,20.955000000000002,1743089306399974,11141125,0.27800003,3.0105088,1.1220001,1.8520001,0.69,1.02,59,15,0.093,-0.087000005,-0.032,-0.356,4.5073485,0,nan,0.0,0.0,0.0,0,3,2,1,1,16,0,0,0
217556096,0,60.1876952,24.8325009,3.347,21.04,1743089306499974,11141125,0.272,1.9920678,1.1220001,1.8470001,0.69,1.02,59,15,0.128,-0.128,-0.008,-0.397,4.5073485,0,nan,0.0,0.0,0.0,0,3,2,1,1,16,0,0,0
217656102,0,60.187695299999994,24.8325009,3.407,21.1,1743089306599974,11141125,0.261,3.1415925,1.1220001,1.8440001,0.69,1.02,59,15,0.029000001,0.028,0.009000001,-0.44000003,4.5073485,0,nan,0.0,0.0,0.0,0,3,2,1,1,16,0,0,0
217756138,0,60.187695299999994,24.832501099999998,3.475,21.168,1743089306699974,11141125,0.25300002,2.8033783,1.1220001,1.8410001,0.69,1.02,59,15,0.093,0.076000005,0.055000003,-0.49500003,4.5073485,0,nan,0.0,0.0,0.0,0,3,2,1,1,16,0,0,0
217856094,0,60.1876952,24.832501099999998,3.535,21.228,1743089306799974,11141125,0.252,3.1415925,1.1220001,1.8390001,0.69,1.02,59,15,0.082,-0.079,0.023000002,-0.531,4.5073485,0,nan,0.0,0.0,0.0,0,3,2,1,1,16,0,0,0
217952426,0,60.1876949,24.8325005,3.641,21.334,1743089306899974,11141125,0.257,0.7879582,1.1220001,1.838,0.69,1.02,59,15,0.358,-0.22500001,-0.279,-0.554,4.5073485,0,nan,0.0,0.0,0.0,0,3,2,1,1,16,0,0,0
218062421,0,60.187694799999996,24.832499799999997,3.694,21.387,1743089306999975,11141125,0.266,0.7194798,1.1220001,1.838,0.69,1.02,63,23,0.407,-0.18100001,-0.365,-0.55,4.2513165,0,nan,0.0,0.0,0.0,0,3,2,1,1,16,0,0,0
218154861,0,60.1876945,24.832498899999997,3.738,21.431,1743089307099974,11141125,0.282,0.53445107,1.123,1.838,0.69,1.02,63,23,0.564,-0.24900001,-0.50600004,-0.55700004,4.2541084,0,nan,0.0,0.0,0.0,0,3,2,1,1,16,0,0,0
218254868,0,60.1876943,24.8324972,3.789,21.482,1743089307199974,11141125,0.293,0.36342397,1.1240001,1.8370001,0.69,1.02,63,23,0.83500004,-0.194,-0.81200004,-0.52400005,4.478226,0,nan,0.0,0.0,0.0,0,3,2,1,1,16,0,0,0
218356082,0,60.1876937,24.832495299999998,3.81,21.503,1743089307299974,11141125,0.28800002,0.2676846,1.1240001,1.8370001,0.69,1.02,63,23,1.103,-0.42900002,-1.016,-0.45000002,4.3130903,0,nan,0.0,0.0,0.0,0,3,2,1,1,16,0,0,0
218456092,0,60.1876933,24.832492499999997,3.84,21.533,1743089307399974,11141125,0.294,0.20265943,1.1240001,1.8370001,0.69,1.02,63,23,1.4890001,-0.47700003,-1.411,-0.448,4.386583,0,nan,0.0,0.0,0.0,0,3,2,1,1,16,0,0,0
218554866,0,60.187692899999995,24.8324903,3.852,21.545,1743089307499974,11141125,0.27100003,0.22294888,1.125,1.8360001,0.69,1.02,63,23,1.3560001,-0.402,-1.2950001,-0.40800002,4.4112062,0,nan,0.0,0.0,0.0,0,3,2,1,1,16,0,0,0
218652501,0,60.187692399999996,24.832487999999998,3.865,21.559,1743089307599974,11141125,0.30900002,0.22775447,1.126,1.8360001,0.69,1.02,63,23,1.417,-0.51900005,-1.3180001,-0.36900002,4.337489,0,nan,0.0,0.0,0.0,0,3,2,1,1,16,0,0,0
218754860,0,60.1876919,24.8324851,3.904,21.597,1743089307699974,11141125,0.28500003,0.19093622,1.126,1.835,0.69,1.02,63,23,1.649,-0.49400002,-1.5740001,-0.40600002,4.4081497,0,nan,0.0,0.0,0.0,0,3,2,1,1,16,0,0,0
218854861,0,60.1876914,24.8324818,3.989,21.682000000000002,1743089307799974,11141125,0.282,0.16852671,1.1270001,1.835,0.69,1.02,63,23,1.8750001,-0.56700003,-1.7880001,-0.48700002,4.405022,0,nan,0.0,0.0,0.0,0,3,2,1,1,16,0,0,0
218956080,0,60.1876907,24.8324794,4.023,21.716,1743089307899974,11141125,0.27800003,0.18082397,1.1270001,1.8340001,0.69,1.02,63,23,1.628,-0.674,-1.4820001,-0.499,4.2856336,0,nan,0.0,0.0,0.0,0,3,2,1,1,16,0,0,0
219062859,0,60.1876902,24.832476699999997,4.105,21.798000000000002,1743089307999975,11141125,0.27600002,0.1895658,1.128,1.8340001,0.69,1.02,63,9,1.6070001,-0.56700003,-1.503,-0.565,4.351702,0,nan,0.0,0.0,0.0,0,3,2,1,1,16,0,0,0
219153977,0,60.187689799999994,24.8324744,4.171,21.864,1743089308099974,11141125,0.29000002,0.22476508,1.1290001,1.8340001,0.69,1.02,63,9,1.386,-0.497,-1.294,-0.535,4.3459644,0,nan,0.0,0.0,0.0,0,3,2,1,1,16,0,0,0
219257085,0,60.187689299999995,24.832472,4.221,21.915,1743089308199974,11141125,0.284,0.2291591,1.1290001,1.8340001,0.69,1.02,63,9,1.3750001,-0.43500003,-1.304,-0.47100002,4.390483,0,nan,0.0,0.0,0.0,0,3,2,1,1,16,0,0,0
219357063,0,60.187688599999994,24.8324698,4.251,21.944,1743089308299974,11141125,0.31,0.21500798,1.13,1.8340001,0.69,1.02,63,9,1.4300001,-0.69900006,-1.2470001,-0.4,4.201307,0,nan,0.0,0.0,0.0,0,3,2,1,1,16,0,0,0
219454024,0,60.1876882,24.832467599999998,4.284,21.978,1743089308399974,11141125,0.28800002,0.23655355,1.131,1.8340001,0.69,1.02,63,9,1.312,-0.47700003,-1.222,-0.37,4.340555,0,nan,0.0,0.0,0.0,0,3,2,1,1,16,0,0,0
219552425,0,60.1876877,24.832465199999998,4.33,22.023,1743089308499974,11141125,0.291,0.22036004,1.1320001,1.8340001,0.69,1.02,63,9,1.3950001,-0.45600003,-1.3180001,-0.381,4.379433,0,nan,0.0,0.0,0.0,0,3,2,1,1,16,0,0,0
219654867,0,60.1876872,24.8324633,4.386,22.079,1743089308599974,11141125,0.29900002,0.23486756,1.1320001,1.8340001,0.69,1.02,63,9,1.279,-0.555,-1.1520001,-0.418,4.263357,0,nan,0.0,0.0,0.0,0,3,2,1,1,16,0,0,0
219754866,0,60.1876866,24.8324611,4.4030000000000005,22.096,1743089308699974,11141125,0.30600002,0.22756544,1.133,1.8340001,0.69,1.02,63,9,1.3510001,-0.601,-1.21,-0.358,4.2515225,0,nan,0.0,0.0,0.0,0,3,2,1,1,16,0,0,0
219856102,0,60.1876861,24.832459099999998,4.4510000000000005,22.145,1743089308799974,11141125,0.298,0.23684536,1.1340001,1.8340001,0.69,1.02,63,9,1.264,-0.53000003,-1.148,-0.36900002,4.279657,0,nan,0.0,0.0,0.0,0,3,2,1,1,16,0,0,0
219954861,0,60.187685599999995,24.8324568,4.471,22.164,1743089308899974,11141125,0.305,0.2242905,1.1340001,1.835,0.69,1.02,63,9,1.35,-0.505,-1.2520001,-0.35300002,4.329224,0,nan,0.0,0.0,0.0,0,3,2,1,1,16,0,0,0
220060874,0,60.187685099999996,24.8324546,4.521,22.214000000000002,1743089308999975,11141125,0.30900002,0.2239219,1.1350001,1.835,0.69,1.02,59,14,1.3490001,-0.513,-1.2470001,-0.35300002,4.3220563,0,nan,0.0,0.0,0.0,0,3,2,1,1,16,0,0,0
220154860,0,60.1876846,24.8324523,4.54,22.234,1743089309099974,11141125,0.296,0.233868,1.136,1.835,0.69,1.02,59,14,1.353,-0.48200002,-1.2650001,-0.294,4.348487,0,nan,0.0,0.0,0.0,0,3,2,1,1,16,0,0,0
220257065,0,60.1876843,24.8324504,4.521,22.214000000000002,1743089309199974,11141125,0.294,0.25838012,1.136,1.835,0.69,1.02,59,14,1.2090001,-0.42900002,-1.131,-0.223,4.349583,0,nan,0.0,0.0,0.0,0,3,2,1,1,16,0,0,0
220354862,0,60.187683899999996,24.8324484,4.501,22.195,1743089309299974,11141125,0.289,0.2432289,1.1370001,1.835,0.69,1.02,59,14,1.2190001,-0.45800003,-1.1290001,-0.16800001,4.3267903,0,nan,0.0,0.0,0.0,0,3,2,1,1,16,0,0,0
220456078,0,60.1876835,24.8324462,4.5360000000000005,22.229,1743089309399974,11141125,0.294,0.22822484,1.1370001,1.835,0.69,1.02,59,14,1.3130001,-0.46100003,-1.2290001,-0.19000001,4.3536224,0,nan,0.0,0.0,0.0,0,3,2,1,1,16,0,0,0
220656079,0,60.187682599999995,24.832441799999998,4.61,22.304000000000002,1743089309599975,11141125,0.30800003,0.2534387,1.139,1.835,0.69,1.02,59,14,1.215,-0.40500003,-1.1450001,-0.238,4.3726315,0,nan,0.0,0.0,0.0,0,3,2,1,1,16,0,0,0
221064084,0,60.187681299999994,24.832435399999998,4.718,22.411,1743089309999976,11141125,0.26700002,0.35947236,1.139,1.8340001,0.69,1.02,55,9,0.79800004,-0.30800003,-0.73600006,-0.284,4.3160295,0,nan,0.0,0.0,0.0,0,3,2,1,1,16,0,0,0
221157078,0,60.1876811,24.8324343,4.756,22.449,1743089310099975,11141125,0.28100002,0.41361213,1.139,1.8340001,0.69,1.02,55,9,0.70600003,-0.26500002,-0.65400004,-0.27100003,4.3272147,0,nan,0.0,0.0,0.0,0,3,2,1,1,16,0,0,0
221257860,0,60.187680699999994,24.832432999999998,4.761,22.454,1743089310199975,11141125,0.268,0.34926516,1.139,1.8330001,0.69,1.02,55,9,0.80600005,-0.34100002,-0.73,-0.24300002,4.27478,0,nan,0.0,0.0,0.0,0,3,2,1,1,16,0,0,0
221358861,0,60.1876806,24.832431999999997,4.772,22.466,1743089310299975,11141125,0.25100002,0.42958623,1.138,1.83,0.69,1.02,55,9,0.61600006,-0.179,-0.58900005,-0.22600001,4.4179745,0,nan,0.0,0.0,0.0,0,3,2,1,1,16,0,0,0
221458862,0,60.1876805,24.8324315,4.806,22.499,1743089310399975,11141125,0.25300002,0.6932825,1.1370001,1.8280001,0.69,1.02,55,9,0.38700002,-0.1,-0.374,-0.2,4.4497356,0,nan,0.0,0.0,0.0,0,3,2,1,1,16,0,0,0
221557867,0,60.1876804,24.832431099999997,4.799,22.493000000000002,1743089310499975,11141125,0.25500003,1.018525,1.1370001,1.825,0.69,1.02,55,9,0.24700001,-0.09200001,-0.22900002,-0.216,4.373434,0,nan,0.0,0.0,0.0,0,3,2,1,1,16,0,0,0
221658860,0,60.1876804,24.8324304,4.803,22.496000000000002,1743089310599975,11141125,0.245,0.69411796,1.136,1.8220001,0.69,1.02,55,9,0.36900002,-0.055000003,-0.365,-0.171,4.563708,0,nan,0.0,0.0,0.0,0,3,2,1,1,16,0,0,0
221758861,0,60.187680099999994,24.8324298,4.876,22.569,1743089310699975,11141125,0.24800001,0.7313455,1.1350001,1.82,0.69,1.02,55,9,0.342,-0.120000005,-0.32000002,-0.21200001,4.3533745,0,nan,0.0,0.0,0.0,0,3,2,1,1,16,0,0,0
221858861,0,60.187680199999996,24.832429599999998,4.852,22.545,1743089310799975,11141125,0.24000001,1.907176,1.1340001,1.817,0.69,1.02,55,9,0.134,-0.008,-0.134,-0.21000001,4.413919,0,nan,0.0,0.0,0.0,0,3,2,1,1,16,0,0,0
221958866,0,60.187680099999994,24.8324291,4.894,22.587,1743089310899975,11141125,0.24100001,1.0888798,1.1340001,1.8160001,0.69,1.02,55,9,0.24000001,-0.010000001,-0.24000001,-0.22700001,4.413919,0,nan,0.0,0.0,0.0,0,3,2,1,1,16,0,0,0
222062433,0,60.18768,24.8324292,4.923,22.616,1743089310999976,11141125,0.231,2.9097092,1.133,1.8140001,0.69,1.02,63,14,0.080000006,-0.078,0.019000001,-0.25100002,4.413919,0,nan,0.0,0.0,0.0,0,3,2,1,1,16,0,0,0
222157055,0,60.18768,24.8324289,4.938,22.631,1743089311099975,11141125,0.238,1.6963185,1.1320001,1.812,0.69,1.02,63,14,0.15100001,0.08400001,-0.125,-0.202,4.413919,0,nan,0.0,0.0,0.0,0,3,2,1,1,16,0,0,0
222257062,0,60.1876799,24.8324289,4.974,22.668,1743089311199975,11141125,0.23200001,3.1415925,1.1320001,1.8100001,0.69,1.02,63,14,0.060000002,-0.059000004,-0.006,-0.23600002,4.413919,0,nan,0.0,0.0,0.0,0,3,2,1,1,16,0,0,0
222357090,0,60.18768,24.8324288,5.025,22.718,1743089311299975,11141125,0.23400001,2.2297747,1.1320001,1.8080001,0.69,1.02,63,14,0.115,0.089,-0.07300001,-0.29900002,4.413919,0,nan,0.0,0.0,0.0,0,3,2,1,1,16,0,0,0
222457862,0,60.187680099999994,24.8324285,5.078,22.771,1743089311399975,11141125,0.23600002,1.3790799,1.131,1.807,0.69,1.02,63,14,0.18200001,0.157,-0.093,-0.30900002,4.413919,0,nan,0.0,0.0,0.0,0,3,2,1,1,16,0,0,0
222557860,0,60.18768,24.832428399999998,5.0760000000000005,22.77,1743089311499975,11141125,0.23400001,2.6394799,1.131,1.8050001,0.69,1.02,63,14,0.1,0.036000002,-0.093,-0.22000001,4.413919,0,nan,0.0,0.0,0.0,0,3,2,1,1,16,0,0,0
222658866,0,60.18768,24.832428099999998,5.078,22.771,1743089311599975,11141125,0.238,2.1734211,1.13,1.8030001,0.69,1.02,63,14,0.119,-0.003,-0.119,-0.18800001,4.413919,0,nan,0.0,0.0,0.0,0,3,2,1,1,16,0,0,0
222757861,0,60.18768,24.832428,5.13,22.823,1743089311699975,11141125,0.23200001,3.1415925,1.13,1.8010001,0.69,1.02,63,14,0.072000004,0.009000001,-0.072000004,-0.263,4.413919,0,nan,0.0,0.0,0.0,0,3,2,1,1,16,0,0,0
222857080,0,60.187680099999994,24.8324277,5.157,22.85,1743089311799975,11141125,0.23600002,1.739387,1.1290001,1.8000001,0.69,1.02,63,14,0.15400001,0.067,-0.13800001,-0.25800002,4.413919,0,nan,0.0,0.0,0.0,0,3,2,1,1,16,0,0,0
222957861,0,60.18768,24.8324274,5.163,22.857,1743089311899975,11141125,0.238,1.7538457,1.1290001,1.7990001,0.69,1.02,63,14,0.149,-0.021000002,-0.147,-0.24000001,4.413919,0,nan,0.0,0.0,0.0,0,3,2,1,1,16,0,0,0
223064051,0,60.1876798,24.832427,5.19,22.884,1743089311999976,11141125,0.24700001,1.0536813,1.1290001,1.797,0.69,1.02,63,18,0.23200001,-0.12900001,-0.192,-0.20700002,4.413919,0,nan,0.0,0.0,0.0,0,3,2,1,1,16,0,0,0
223156078,0,60.187679599999996,24.832427,5.238,22.932000000000002,1743089312099975,11141125,0.26200002,1.1779915,1.1290001,1.7960001,0.69,1.02,63,18,0.215,-0.208,-0.055000003,-0.26000002,4.413919,0,nan,0.0,0.0,0.0,0,3,2,1,1,16,0,0,0
223257859,0,60.187679499999994,24.8324267,5.279,22.972,1743089312199975,11141125,0.245,1.8467649,1.1290001,1.7950001,0.69,1.02,63,18,0.15900001,-0.123,-0.101,-0.26900002,4.413919,0,nan,0.0,0.0,0.0,0,3,2,1,1,16,0,0,0
223357860,0,60.1876792,24.832426599999998,5.309,23.002,1743089312299975,11141125,0.261,1.2775137,1.1290001,1.794,0.69,1.02,63,18,0.202,-0.194,-0.057000004,-0.26700002,4.413919,0,nan,0.0,0.0,0.0,0,3,2,1,1,16,0,0,0
223458861,0,60.187678899999995,24.8324264,5.323,23.017,1743089312399975,11141125,0.256,0.7497322,1.128,1.7930001,0.69,1.02,63,18,0.30600002,-0.277,-0.13000001,-0.23400001,3.5797393,0,nan,0.0,0.0,0.0,0,3,2,1,1,16,0,0,0
223558860,0,60.1876788,24.832425999999998,5.348,23.041,1743089312499975,11141125,0.25,0.8672122,1.128,1.7910001,0.69,1.02,63,18,0.27600002,-0.18,-0.21000001,-0.25100002,4.007178,0,nan,0.0,0.0,0.0,0,3,2,1,1,16,0,0,0
223657860,0,60.1876787,24.8324261,5.389,23.082,1743089312599975,11141125,0.23500001,2.1500938,1.1270001,1.7900001,0.69,1.02,63,18,0.105000004,-0.104,-0.016,-0.257,4.007178,0,nan,0.0,0.0,0.0,0,3,2,1,1,16,0,0,0
223757859,0,60.1876785,24.8324259,5.446,23.14,1743089312699975,11141125,0.24000001,1.4226247,1.1270001,1.7880001,0.69,1.02,63,18,0.15900001,-0.149,-0.056,-0.26000002,4.007178,0,nan,0.0,0.0,0.0,0,3,2,1,1,16,0,0,0
223857866,0,60.187678299999995,24.8324259,5.454,23.147000000000002,1743089312799975,11141125,0.24300002,1.1128229,1.126,1.7870001,0.69,1.02,63,18,0.20400001,-0.20300001,-0.013,-0.215,4.007178,0,nan,0.0,0.0,0.0,0,3,2,1,1,16,0,0,0
223957065,0,60.1876781,24.8324258,5.4910000000000005,23.184,1743089312899975,11141125,0.23700002,1.4382263,1.126,1.7850001,0.69,1.02,63,18,0.157,-0.14400001,-0.063,-0.27,4.007178,0,nan,0.0,0.0,0.0,0,3,2,1,1,16,0,0,0
224062859,0,60.1876781,24.8324256,5.524,23.217,1743089312999977,11141125,0.23300001,1.8915707,1.125,1.784,0.69,1.02,63,14,0.132,-0.054,-0.12100001,-0.289,4.007178,0,nan,0.0,0.0,0.0,0,3,2,1,1,16,0,0,0
224157062,0,60.1876781,24.8324255,5.535,23.229,1743089313099976,11141125,0.23400001,1.9171209,1.125,1.7830001,0.69,1.02,63,14,0.13100001,0.09900001,-0.086,-0.22700001,4.007178,0,nan,0.0,0.0,0.0,0,3,2,1,1,16,0,0,0
224258866,0,60.1876782,24.8324256,5.579,23.273,1743089313199976,11141125,0.238,3.1415925,1.125,1.7830001,0.69,1.02,63,14,0.071,0.058000002,0.041,-0.29900002,4.007178,0,nan,0.0,0.0,0.0,0,3,2,1,1,16,0,0,0
224357876,0,60.1876782,24.832425399999998,5.628,23.322,1743089313299976,11141125,0.25,2.0868053,1.125,1.7830001,0.69,1.02,63,14,0.14,0.09200001,-0.105000004,-0.36400002,4.007178,0,nan,0.0,0.0,0.0,0,3,2,1,1,16,0,0,0
224457861,0,60.187678299999995,24.832425399999998,5.649,23.342,1743089313399976,11141125,0.266,2.3858242,1.125,1.7830001,0.69,1.02,63,14,0.101,0.101,0.0,-0.26000002,4.007178,0,nan,0.0,0.0,0.0,0,3,2,1,1,16,0,0,0
224558860,0,60.1876782,24.8324255,5.666,23.359,1743089313499976,11141125,0.24000001,3.1415925,1.125,1.784,0.69,1.02,63,14,0.057000004,-0.032,0.048,-0.22000001,4.007178,0,nan,0.0,0.0,0.0,0,3,2,1,1,16,0,0,0
224657861,0,60.1876782,24.832425399999998,5.723,23.416,1743089313599976,11141125,0.254,3.1415925,1.125,1.784,0.69,1.02,63,14,0.034,0.009000001,-0.032,-0.286,4.007178,0,nan,0.0,0.0,0.0,0,3,2,1,1,16,0,0,0
224757860,0,60.187678399999996,24.8324253,5.752,23.446,1743089313699976,11141125,0.293,1.0584317,1.125,1.7850001,0.69,1.02,63,14,0.24200001,0.231,-0.071,-0.314,4.007178,0,nan,0.0,0.0,0.0,0,3,2,1,1,16,0,0,0
224857860,0,60.1876785,24.832425399999998,5.787,23.481,1743089313799976,11141125,0.31100002,1.2963295,1.125,1.7860001,0.69,1.02,63,14,0.187,0.18100001,0.044000003,-0.28300002,4.007178,0,nan,0.0,0.0,0.0,0,3,2,1,1,16,0,0,0
224957862,0,60.1876787,24.8324259,5.798,23.491,1743089313899976,11141125,0.314,0.90895206,1.126,1.7870001,0.69,1.02,63,14,0.294,0.201,0.215,-0.279,4.007178,0,nan,0.0,0.0,0.0,0,3,2,1,1,16,0,0,0
225062861,0,60.1876788,24.8324259,5.8580000000000005,23.551000000000002,1743089313999977,11141125,0.28800002,1.322864,1.126,1.7860001,0.69,1.02,63,20,0.17300001,0.165,0.053000003,-0.30600002,4.007178,0,nan,0.0,0.0,0.0,0,3,2,1,1,16,0,0,0
225152462,0,60.1876788,24.832425699999998,5.912,23.606,1743089314099976,11141125,0.257,3.1415925,1.126,1.7850001,0.69,1.02,63,20,0.046000004,0.041,-0.021000002,-0.294,4.007178,0,nan,0.0,0.0,0.0,0,3,2,1,1,16,0,0,0
225257858,0,60.1876786,24.8324258,5.9270000000000005,23.62,1743089314199976,11141125,0.24800001,3.1415925,1.126,1.7850001,0.69,1.02,63,20,0.095000006,-0.082,0.048,-0.25800002,4.007178,0,nan,0.0,0.0,0.0,0,3,2,1,1,16,0,0,0
225357081,0,60.1876787,24.832426299999998,5.971,23.664,1743089314299976,11141125,0.27,1.2631516,1.126,1.784,0.69,1.02,63,20,0.21400002,0.083000004,0.19800001,-0.316,4.007178,0,nan,0.0,0.0,0.0,0,3,2,1,1,16,0,0,0
225454865,0,60.1876788,24.832426299999998,5.992,23.686,1743089314399976,11141125,0.27600002,1.4855257,1.126,1.7830001,0.69,1.02,63,20,0.16000001,0.157,0.028,-0.266,4.007178,0,nan,0.0,0.0,0.0,0,3,2,1,1,16,0,0,0
225556214,0,60.187678899999995,24.8324262,6.026,23.719,1743089314499976,11141125,0.254,2.7507594,1.126,1.7830001,0.69,1.02,63,20,0.105000004,0.097,-0.039,-0.25800002,4.007178,0,nan,0.0,0.0,0.0,0,3,2,1,1,16,0,0,0
225656112,0,60.187678899999995,24.8324262,6.064,23.757,1743089314599976,11141125,0.256,2.7421322,1.126,1.7820001,0.69,1.02,63,20,0.082,0.076000005,0.031000001,-0.277,4.007178,0,nan,0.0,0.0,0.0,0,3,2,1,1,16,0,0,0
225754861,0,60.187678899999995,24.8324262,6.106,23.799,1743089314699976,11141125,0.245,3.1415925,1.126,1.7810001,0.69,1.02,63,20,0.024,0.024,-0.003,-0.29200003,4.007178,0,nan,0.0,0.0,0.0,0,3,2,1,1,16,0,0,0
225854862,0,60.1876791,24.8324262,6.118,23.812,1743089314799976,11141125,0.286,1.5889359,1.126,1.7810001,0.69,1.02,63,20,0.164,0.163,-0.016,-0.266,4.007178,0,nan,0.0,0.0,0.0,0,3,2,1,1,16,0,0,0
225956095,0,60.1876791,24.8324262,6.139,23.832,1743089314899976,11141125,0.27,3.1415925,1.1270001,1.7820001,0.69,1.02,63,20,0.068,0.067,0.007,-0.22500001,4.007178,0,nan,0.0,0.0,0.0,0,3,2,1,1,16,0,0,0
226062513,0,60.187678899999995,24.8324264,6.181,23.874,1743089314999977,11141125,0.24900001,1.7601775,1.1270001,1.7820001,0.69,1.02,63,14,0.17600001,-0.147,0.096,-0.287,4.007178,0,nan,0.0,0.0,0.0,0,3,2,1,1,16,0,0,0
226157071,0,60.1876787,24.8324265,6.214,23.907,1743089315099976,11141125,0.25,2.122944,1.128,1.7820001,0.69,1.02,63,14,0.147,-0.123,0.081,-0.23900001,4.007178,0,nan,0.0,0.0,0.0,0,3,2,1,1,16,0,0,0
226257861,0,60.1876788,24.8324267,6.258,23.951,1743089315199976,11141125,0.261,3.0730834,1.128,1.7820001,0.69,1.02,63,14,0.108,0.017,0.106000006,-0.21800001,4.007178,0,nan,0.0,0.0,0.0,0,3,2,1,1,16,0,0,0
226357040,0,60.1876787,24.832426899999998,6.2620000000000005,23.956,1743089315299976,11141125,0.25500003,3.1415925,1.128,1.7830001,0.69,1.02,63,14,0.087000005,-0.014,0.086,-0.22200002,4.007178,0,nan,0.0,0.0,0.0,0,3,2,1,1,16,0,0,0
226457860,0,60.1876786,24.832426899999998,6.2860000000000005,23.979,1743089315399976,11141125,0.25500003,2.7568955,1.1290001,1.7830001,0.69,1.02,63,14,0.098000005,-0.095000006,0.022000002,-0.266,4.007178,0,nan,0.0,0.0,0.0,0,3,2,1,1,16,0,0,0
226557859,0,60.187678399999996,24.8324273,6.33,24.023,1743089315499976,11141125,0.24800001,1.3151964,1.1290001,1.7830001,0.69,1.02,63,14,0.245,-0.15,0.19500001,-0.28300002,4.007178,0,nan,0.0,0.0,0.0,0,3,2,1,1,16,0,0,0
226656125,0,60.187678299999995,24.8324276,6.346,24.039,1743089315599976,11141125,0.24800001,1.5480453,1.1290001,1.7830001,0.69,1.02,63,14,0.21000001,-0.119,0.17300001,-0.194,4.007178,0,nan,0.0,0.0,0.0,0,3,2,1,1,16,0,0,0
226756291,0,60.187678399999996,24.832428,6.391,24.084,1743089315699976,11141125,0.26200002,1.6025891,1.1290001,1.7830001,0.69,1.02,63,14,0.201,0.030000001,0.19800001,-0.216,4.007178,0,nan,0.0,0.0,0.0,0,3,2,1,1,16,0,0,0
226857080,0,60.1876782,24.8324279,6.414,24.107,1743089315799976,11141125,0.263,1.8396921,1.13,1.7820001,0.69,1.02,63,14,0.13800001,-0.13800001,0.009000001,-0.25800002,4.007178,0,nan,0.0,0.0,0.0,0,3,2,1,1,16,0,0,0
226957077,0,60.1876782,24.8324282,6.434,24.128,1743089315899976,11141125,0.252,3.1415925,1.13,1.7810001,0.69,1.02,63,14,0.093,-0.027,0.089,-0.27,4.007178,0,nan,0.0,0.0,0.0,0,3,2,1,1,16,0,0,0
227064055,0,60.187678,24.8324283,6.433,24.126,1743089315999977,11141125,0.246,2.7434452,1.1290001,1.7800001,0.69,1.02,64,13,0.11100001,-0.067,0.089,-0.177,4.007178,0,nan,0.0,0.0,0.0,0,3,2,1,1,16,0,0,0
227157091,0,60.187678,24.8324285,6.449,24.142,1743089316099976,11141125,0.238,2.0413897,1.1290001,1.779,0.69,1.02,64,13,0.149,-0.065000005,0.135,-0.14600001,4.007178,0,nan,0.0,0.0,0.0,0,3,2,1,1,16,0,0,0
227257867,0,60.1876779,24.832428399999998,6.453,24.147000000000002,1743089316199976,11141125,0.24800001,3.1415925,1.1290001,1.7770001,0.69,1.02,64,13,0.018000001,0.001,-0.018000001,-0.11800001,4.007178,0,nan,0.0,0.0,0.0,0,3,2,1,1,16,0,0,0
227357859,0,60.187677799999996,24.832428399999998,6.492,24.186,1743089316299976,11141125,0.261,1.8421059,1.1290001,1.7760001,0.69,1.02,64,13,0.126,-0.112,-0.058000002,-0.216,4.007178,0,nan,0.0,0.0,0.0,0,3,2,1,1,16,0,0,0
227457861,0,60.187677699999995,24.8324283,6.5120000000000005,24.205000000000002,1743089316399976,11141125,0.24800001,2.8780253,1.128,1.774,0.69,1.02,64,13,0.083000004,-0.061000004,-0.057000004,-0.24400002,4.007178,0,nan,0.0,0.0,0.0,0,3,2,1,1,16,0,0,0
227557071,0,60.187677799999996,24.8324282,6.541,24.234,1743089316499976,11141125,0.23500001,3.1415925,1.128,1.7720001,0.69,1.02,64,13,0.041,0.040000003,-0.009000001,-0.19700001,4.007178,0,nan,0.0,0.0,0.0,0,3,2,1,1,16,0,0,0
227657059,0,60.187677699999995,24.832428399999998,6.5520000000000005,24.245,1743089316599977,11141125,0.22900002,2.6584811,1.1270001,1.771,0.69,1.02,64,13,0.102000006,-0.051000003,0.08800001,-0.143,4.007178,0,nan,0.0,0.0,0.0,0,3,2,1,1,16,0,0,0
227756346,0,60.1876776,24.8324283,6.595,24.288,1743089316699977,11141125,0.23900001,3.1415925,1.1270001,1.769,0.69,1.02,64,13,0.063,-0.059000004,-0.022000002,-0.20300001,4.007178,0,nan,0.0,0.0,0.0,0,3,2,1,1,16,0,0,0
227857859,0,60.1876775,24.832428099999998,6.647,24.34,1743089316799977,11141125,0.24100001,1.5500025,1.126,1.7670001,0.69,1.02,64,13,0.141,-0.115,-0.081,-0.305,4.007178,0,nan,0.0,0.0,0.0,0,3,2,1,1,16,0,0,0
227957859,0,60.1876773,24.8324279,6.66,24.353,1743089316899977,11141125,0.24400002,1.1696993,1.126,1.7650001,0.69,1.02,64,13,0.186,-0.142,-0.120000005,-0.25300002,4.007178,0,nan,0.0,0.0,0.0,0,3,2,1,1,16,0,0,0
228064077,0,60.1876773,24.832427799999998,6.699,24.393,1743089316999978,11141125,0.223,3.1415925,1.125,1.7630001,0.69,1.02,64,21,0.066,0.0050000004,-0.066,-0.26200002,4.007178,0,nan,0.0,0.0,0.0,0,3,2,1,1,16,0,0,0
228156107,0,60.1876773,24.8324276,6.697,24.39,1743089317099977,11141125,0.22800002,2.542033,1.1240001,1.761,0.69,1.02,64,21,0.09900001,-0.030000001,-0.094000004,-0.18300001,4.007178,0,nan,0.0,0.0,0.0,0,3,2,1,1,16,0,0,0
228257867,0,60.1876773,24.8324277,6.731,24.425,1743089317199977,11141125,0.224,3.1415925,1.1240001,1.7600001,0.69,1.02,64,21,0.026,-0.018000001,0.019000001,-0.17600001,4.007178,0,nan,0.0,0.0,0.0,0,3,2,1,1,16,0,0,0
228357871,0,60.1876773,24.8324273,6.759,24.453,1743089317299977,11141125,0.22200002,1.5834322,1.123,1.7590001,0.69,1.02,64,21,0.16700001,0.015000001,-0.16600001,-0.21200001,4.007178,0,nan,0.0,0.0,0.0,0,3,2,1,1,16,0,0,0
