timestamp,timestamp_sample,ref_timestamp,ref_lat,ref_lon,x,y,z,delta_xy[0],delta_xy[1],delta_z,vx,vy,vz,z_deriv,delta_vxy[0],delta_vxy[1],delta_vz,ax,ay,az,heading,heading_var,unaided_heading,delta_heading,tilt_var,ref_alt,dist_bottom,eph,epv,evh,evv,vxy_max,vz_max,hagl_min,hagl_max,xy_valid,z_valid,v_xy_valid,v_z_valid,xy_reset_counter,z_reset_counter,vxy_reset_counter,vz_reset_counter,heading_reset_counter,heading_good_for_control,xy_global,z_global,dist_bottom_valid,dist_bottom_sensor_bitfield,dead_reckoning
200543960,200543649,42042860,60.1877325,24.832678599999998,0.044576548,-0.9838985,-3.1123836,0.22263904,0.116216525,-4.172325e-07,-0.00035099263,-0.012577697,0.03175233,0.057414114,-0.025598146,0.051155806,0.014507944,-0.100163944,-0.15402685,-0.056240764,-2.181374,0.050064493,-0.004570925,0.0065030004,6.515291e-05,-9.697216,0.094623804,0.23995483,0.22704144,0.10834228,0.06463104,inf,inf,inf,inf,1,1,1,1,3,2,3,2,2,0,1,1,1,0,0
201044011,201043648,42042860,60.1877325,24.832678599999998,0.042442683,-0.9923727,-3.0843782,0.22263904,0.116216525,-4.172325e-07,-0.0015640971,-0.009784699,0.034592416,0.05818346,-0.025598146,0.051155806,0.014507944,-0.011438252,-0.0013194499,-0.19404384,-2.1809123,0.05006198,-0.004542303,0.0065030004,6.51633e-05,-9.697216,0.09177065,0.24031964,0.22769539,0.10838039,0.06468643,inf,inf,inf,inf,1,1,1,1,3,2,3,2,2,0,1,1,1,0,0
201543924,201543648,42042860,60.1877325,24.832678599999998,0.03622912,-0.9996703,-3.0570483,0.22263904,0.116216525,-4.172325e-07,-0.005840485,-0.009831246,0.038284812,0.05905839,-0.025598146,0.051155806,0.014507944,0.1671595,0.10340412,-0.18201265,-2.1803536,0.05006027,-0.0045063896,0.0065030004,6.516998e-05,-9.697216,0.08968973,0.24064963,0.22785829,0.10838556,0.064685464,inf,inf,inf,inf,1,1,1,1,3,2,3,2,2,0,1,1,1,0,0
202043934,202043647,42042860,60.1877325,24.832678599999998,0.031429157,-1.0023396,-3.0369442,0.22263904,0.116216525,-4.172325e-07,-0.010621289,-0.0047442564,0.038932435,0.051575728,-0.025598146,0.051155806,0.014507944,-0.16273911,0.17864509,0.2042716,-2.1800048,0.05005767,-0.0045459056,0.0065030004,6.5187436e-05,-9.697216,0.08534598,0.24098574,0.22801203,0.10842696,0.06468868,inf,inf,inf,inf,1,1,1,1,3,2,3,2,2,0,1,1,1,0,0
202543929,202543647,42042860,60.1877325,24.832678599999998,0.022270866,-1.0057089,-3.0179691,0.22263904,0.116216525,-4.172325e-07,-0.014165233,-0.0020863004,0.0399827,0.047947418,-0.025598146,0.051155806,0.014507944,-0.043349747,0.035112903,0.14800923,-2.1796174,0.050050642,-0.004560594,0.0065030004,6.518694e-05,-9.697216,0.08915973,0.24124667,0.22860225,0.10839271,0.06472805,inf,inf,inf,inf,1,1,1,1,3,2,3,2,2,0,1,1,1,0,0
203043938,203043647,42042860,60.1877325,24.832678599999998,0.012680149,-1.0094972,-2.9991772,0.22263904,0.116216525,-4.172325e-07,-0.015637364,0.000533521,0.03959461,0.04435438,-0.025598146,0.051155806,0.014507944,0.0101987915,-0.088997915,0.20982042,-2.1792617,0.050044402,-0.0046016746,0.0065030004,6.5208806e-05,-9.697216,0.090854645,0.24153174,0.22870535,0.10844299,0.064728454,inf,inf,inf,inf,1,1,1,1,3,2,3,2,2,0,1,1,1,0,0
203543927,203543648,42042860,60.1877325,24.832678599999998,0.0012751955,-1.016489,-2.9782622,0.22263904,0.116216525,-4.172325e-07,-0.016818905,0.000306003,0.04137735,0.045503873,-0.025598146,0.051155806,0.014507944,0.09268361,-0.07160776,-0.057969436,-2.1787026,0.05003747,-0.0046702963,0.0065030004,6.520185e-05,-9.697216,0.091094494,0.24173872,0.22876604,0.10838021,0.06471113,inf,inf,inf,inf,1,1,1,1,3,2,3,2,2,0,1,1,1,0,0
204043934,204043648,42042860,60.1877325,24.832678599999998,-0.010901091,-1.0167024,-2.9527545,0.22263904,0.116216525,-4.172325e-07,-0.027035614,0.006963702,0.04412927,0.05122399,-0.025598146,0.051155806,0.014507944,-0.39920416,0.7389642,0.85720104,-2.1782355,0.050029796,-0.0046034674,0.0065030004,6.522401e-05,-9.697216,0.09567666,0.24203381,0.22936504,0.10844225,0.06476602,inf,inf,inf,inf,1,1,1,1,3,2,3,2,2,0,1,1,1,0,0
204543926,204543647,42042860,60.1877325,24.832678599999998,-0.020742381,-1.0058135,-2.922802,0.22263904,0.116216525,-4.172325e-07,-0.029290035,0.013128033,0.039448943,0.049472455,-0.025598146,0.051155806,0.014507944,-0.026831854,1.5015124,-2.7646415,-2.1784072,0.050008375,-0.0046705846,0.0065030004,6.5246146e-05,-9.697216,0.09257078,0.2422872,0.2294667,0.10850239,0.06476393,inf,inf,inf,inf,1,1,1,1,3,2,3,2,2,0,1,1,0,0,0
205043926,205043648,42042860,60.1877325,24.832678599999998,-0.022341106,-1.0081,-2.903078,0.22263904,0.116216525,-4.172325e-07,-0.02819106,0.013149196,0.025366561,0.03159663,-0.025598146,0.051155806,0.014507944,-3.2170556,0.62149924,-0.20613539,-2.1780052,0.04998366,-0.004686275,0.0065030004,6.526688e-05,-9.697216,0.09050965,0.24251474,0.22953866,0.108572416,0.06475852,inf,inf,inf,inf,1,1,1,1,3,2,3,2,2,0,1,1,0,0,0
205543955,205543648,42042860,60.1877325,24.832678599999998,-0.004355336,-1.0221529,-2.912433,0.22263904,0.116216525,-4.172325e-07,0.11297345,-0.054899562,-0.075788505,-0.076959826,-0.025598146,0.051155806,0.014507944,1.1170923,0.23885523,-2.3214521,-2.1725817,0.049931467,0.00045673267,0.0065030004,6.525246e-05,-9.697216,0.106036186,0.24273595,0.22960648,0.109005705,0.06475341,inf,inf,inf,inf,1,1,1,1,3,2,3,2,2,0,1,1,0,0,0
206043925,206043648,42042860,60.1877325,24.832678599999998,0.086201765,-1.0566666,-3.0294323,0.22263904,0.116216525,-4.172325e-07,0.19472672,-0.03295239,-0.35786977,-0.35797024,-0.025598146,0.051155806,0.014507944,-0.9124069,0.25572518,-0.83029795,-2.104455,0.04719683,0.062946245,0.0065030004,6.4972264e-05,-9.697216,0.22303557,0.24290155,0.23014656,0.114542134,0.064792134,inf,inf,inf,inf,1,1,1,1,3,2,3,2,2,0,1,1,0,0,0
207043963,207043648,42042860,60.1877325,24.832678599999998,0.19100502,-1.0339046,-3.5782976,0.22263904,0.116216525,-4.172325e-07,-0.06616681,0.04993637,-0.79421645,-0.77495325,-0.025598146,0.051155806,0.014507944,1.0983319,1.3029547,-2.4977143,-2.0474792,0.04171905,0.108663395,0.0065030004,6.4083724e-05,-9.697216,0.7719009,0.24328934,0.23014699,0.11202575,0.06477182,inf,inf,inf,inf,1,1,1,1,3,2,3,2,2,0,1,1,0,0,0
207543929,207543648,42042860,60.1877325,24.832678599999998,0.13422745,-1.0307487,-3.9943113,0.22263904,0.116216525,-4.172325e-07,-0.17092581,0.05689223,-0.9501576,-0.9247169,-0.025598146,0.051155806,0.014507944,1.8583006,0.007661148,-2.2736843,-2.0664167,0.037710488,0.080097005,0.0065030004,6.3561776e-05,-9.697216,1.1879146,0.24347852,0.23060815,0.114414245,0.06482279,inf,inf,inf,inf,1,1,1,1,3,2,3,2,2,0,1,1,0,0,0
208043926,208043647,42042860,60.1877325,24.832678599999998,0.04347648,-1.0113642,-4.4928617,0.22263904,0.116216525,-4.172325e-07,-0.17772432,0.07562856,-1.0983517,-1.0716119,-0.025598146,0.051155806,0.014507944,-1.8468165,0.39641097,0.3846326,-2.1383767,0.034033947,-0.0015996962,0.0065030004,6.3400046e-05,-9.697216,1.686465,0.24375886,0.23058511,0.11471074,0.06484708,inf,inf,inf,inf,1,1,1,1,3,2,3,2,2,0,1,1,0,0,0
208543928,208543648,42042860,60.1877325,24.832678599999998,-0.0053879917,-0.9978034,-5.0516176,0.22263904,0.116216525,-4.172325e-07,-0.09118806,-0.018568441,-1.1737128,-1.1519302,-0.025598146,0.051155806,0.014507944,-0.28891826,2.8422012,-3.2799733,-2.2162771,0.06621367,-0.049944874,-0.03642802,6.330411e-05,-9.697216,2.245221,0.24403791,0.23054728,0.11187452,0.06486492,inf,inf,inf,inf,1,1,1,1,3,2,3,2,3,0,1,1,0,0,0
209043923,209043648,42042860,60.1877325,24.832678599999998,-0.09004139,-1.0661212,-5.6613717,0.22263904,0.116216525,-4.172325e-07,-0.28171176,-0.3334158,-1.2486461,-1.2440411,-0.025598146,0.051155806,0.014507944,0.40019402,-0.84540814,1.9111348,-2.1995628,0.060404032,-0.041085348,-0.03642802,6.345288e-05,-9.697216,2.854975,0.24429673,0.23098823,0.12114484,0.06494033,inf,inf,inf,inf,1,1,1,1,3,2,3,2,3,0,1,1,0,0,0
209543954,209543648,42042860,60.1877325,24.832678599999998,-0.29621434,-1.3547202,-6.3399477,0.22263904,0.116216525,-4.172325e-07,-0.5711293,-0.8154405,-1.3653293,-1.3784393,-0.025598146,0.051155806,0.014507944,-3.235452,0.45538637,1.4620019,-2.093827,0.036958475,0.037717618,-0.03642802,6.4420674e-05,-9.697216,3.533551,0.24451962,0.2309103,0.15345497,0.06499688,inf,inf,inf,inf,1,1,1,1,3,2,3,2,3,1,1,1,0,0,0
210043923,210043648,42042860,60.1877325,24.832678599999998,-0.6493864,-1.921096,-7.0551233,0.22263904,0.116216525,-4.172325e-07,-0.8903551,-1.4347115,-1.4174474,-1.439224,-0.025598146,0.051155806,0.014507944,2.343288,1.4958451,0.81682855,-1.9962904,0.016496576,0.1278267,-0.03642802,6.608309e-05,-9.697216,4.248727,0.24478097,0.23082252,0.15864217,0.06507286,inf,inf,inf,inf,1,1,1,1,3,2,3,2,3,1,1,1,0,0,0
210543962,210543647,42042860,60.1877325,24.832678599999998,-1.1692191,-2.7838364,-7.8023243,0.22263904,0.116216525,-4.172325e-07,-1.1843047,-1.9899167,-1.4306896,-1.4643556,-0.025598146,0.051155806,0.014507944,-2.4970553,-0.86844164,0.8206183,-1.996785,0.007947592,0.122562975,-0.03642802,6.769149e-05,-9.697216,4.995928,0.24501096,0.23070157,0.14834087,0.065164916,inf,inf,inf,inf,1,1,1,1,3,2,3,2,3,1,1,1,0,0,0
211543923,211543648,42042860,60.1877325,24.832678599999998,-2.4134395,-5.2129474,-9.393379,0.22263904,0.116216525,-4.172325e-07,-1.2219852,-2.6362062,-1.7588034,-1.7915224,-0.025598146,0.051155806,0.014507944,1.3392595,4.4435496,0.4410116,-1.9414581,0.0038622918,0.1869402,-0.03642802,7.10973e-05,-9.697216,6.5869827,0.24550845,0.23095354,0.1215466,0.06521915,inf,inf,inf,inf,1,1,1,1,3,2,3,2,3,1,1,1,0,0,0
212043963,212043648,42042860,60.1877325,24.832678599999998,-3.0055974,-6.5452394,-10.246106,0.22263904,0.116216525,-4.172325e-07,-1.1219769,-2.6114771,-1.2867954,-1.3083581,-0.025598146,0.051155806,0.014507944,1.129579,0.033018373,2.12142,-1.9728009,0.00357375,0.15358832,-0.03642802,7.251937e-05,-9.697216,7.4397097,0.24575108,0.23083545,0.11253615,0.06513907,inf,inf,inf,inf,1,1,1,1,3,2,3,2,3,1,1,1,0,0,0
212543936,212543648,42042860,60.1877325,24.832678599999998,-3.5559013,-7.818087,-10.670976,0.22263904,0.116216525,-4.172325e-07,-1.0014975,-2.452124,-0.7066434,-0.74004763,-0.025598146,0.051155806,0.014507944,1.338771,-1.0069078,-0.18925387,-1.975406,0.0035361925,0.15185334,-0.03642802,7.38331e-05,-9.697216,7.864579,0.2459335,0.23126376,0.107723944,0.065129116,inf,inf,inf,inf,1,1,1,1,3,2,3,2,3,1,1,1,0,0,0
213043927,213043647,42042860,60.1877325,24.832678599999998,-3.976759,-8.872284,-11.079462,0.22263904,0.116216525,-4.172325e-07,-0.5501641,-1.6887498,-0.7089734,-0.7769835,-0.025598146,0.051155806,0.014507944,3.0805218,4.673588,-2.8658779,-1.9697708,0.0033812865,0.15682103,-0.03642802,7.319468e-05,-9.697216,8.273066,0.24626634,0.23136953,0.11667209,0.0651169,inf,inf,inf,inf,1,1,1,1,3,2,3,2,3,1,1,1,0,0,0
213543926,213543648,42042860,60.1877325,24.832678599999998,-4.1795483,-9.521215,-11.436796,0.22263904,0.116216525,-4.172325e-07,-0.23192167,-0.95135486,-0.630872,-0.6960299,-0.025598146,0.051155806,0.014507944,1.8309457,0.64737487,0.1996128,-1.9440767,0.0025612307,0.18417265,-0.03642802,6.8697576e-05,-9.697216,8.6304,0.24684693,0.23172504,0.13358141,0.06528118,inf,inf,inf,inf,1,1,1,1,3,2,3,2,3,1,1,1,0,0,0
214043928,214043647,42042860,60.1877325,24.832678599999998,-4.248012,-9.84575,-11.75516,0.22263904,0.116216525,-4.172325e-07,-0.054569125,-0.435914,-0.64896,-0.6857653,-0.025598146,0.051155806,0.014507944,-0.501637,-1.9341973,0.7218619,-1.9207047,0.001796346,0.20556727,-0.03642802,6.5499364e-05,-9.697216,8.948764,0.24729763,0.23261927,0.13163604,0.06538446,inf,inf,inf,inf,1,1,1,1,3,2,3,2,3,1,1,1,0,0,0
214543930,214543648,42042860,60.1877325,24.832678599999998,-4.2301536,-9.91156,-12.07991,0.22263904,0.116216525,-4.172325e-07,0.048452277,-0.06496168,-0.72272396,-0.7240762,-0.025598146,0.051155806,0.014507944,-2.1237748,-2.6968665,0.6935259,-1.9107739,0.0013819333,0.21490347,-0.03642802,6.445507e-05,-9.697216,9.273514,0.24857824,0.2333942,0.12769435,0.06559917,inf,inf,inf,inf,1,1,1,1,3,2,3,2,3,1,1,1,0,0,0
215043924,215043647,42042860,60.1877325,24.832678599999998,-4.1995625,-9.896545,-12.394099,0.22263904,0.116216525,-4.172325e-07,0.09172535,-0.023685439,-0.7126334,-0.67824477,-0.025598146,0.051155806,0.014507944,0.7836114,2.678647,-0.17507903,-1.9146489,0.0011828596,0.2075445,-0.03642802,6.440868e-05,-9.697216,9.587703,0.25068936,0.23457813,0.121250324,0.065849714,inf,inf,inf,inf,1,1,1,1,3,2,3,2,3,1,1,1,0,0,0
215543964,215543648,42042860,60.1877325,24.832678599999998,-4.134403,-9.8426,-12.700894,0.22263904,0.116216525,-4.172325e-07,0.09987707,0.1832852,-0.7547395,-0.6890021,-0.025598146,0.051155806,0.014507944,-2.0148664,-2.657234,-1.0259556,-1.9318897,0.0011011625,0.19240075,-0.03642802,6.481872e-05,-9.697216,9.894498,0.25372365,0.23622712,0.11949682,0.066303305,inf,inf,inf,inf,1,1,1,1,3,2,3,2,3,1,1,1,0,0,0
216043929,216043648,42042860,60.1877325,24.832678599999998,-4.0502915,-9.730203,-12.999375,0.22263904,0.116216525,-4.172325e-07,0.07126714,0.22357973,-0.6955311,-0.6096238,-0.025598146,0.051155806,0.014507944,-0.01886504,-1.4165404,1.4477859,-1.9612975,0.0010552828,0.16435961,-0.03642802,6.528168e-05,-9.697216,10.192979,0.25690562,0.23861443,0.11891852,0.06685427,inf,inf,inf,inf,1,1,1,1,3,2,3,2,3,1,1,1,0,0,0
216543921,216543648,42042860,60.1877325,24.832678599999998,-4.0136538,-9.702039,-13.256831,0.22263904,0.116216525,-4.172325e-07,-0.05658702,-0.08787577,-0.60808074,-0.5037446,-0.025598146,0.051155806,0.014507944,1.9195205,0.50893265,-0.17014462,-1.959142,0.0010401465,0.16813639,-0.03642802,6.546003e-05,-9.697216,10.450435,0.25910613,0.24027799,0.116324596,0.067061804,inf,inf,inf,inf,1,1,1,1,3,2,3,2,3,1,1,1,0,0,0
217043951,217043648,42042860,60.1877325,24.832678599999998,-4.05942,-9.832123,-13.457006,0.22263904,0.116216525,-4.172325e-07,-0.117051736,-0.21488261,-0.6285446,-0.49509,-0.025598146,0.051155806,0.014507944,3.2125256,-0.12242001,-0.59795177,-1.9521837,0.0010394224,0.17769729,-0.03642802,6.504316e-05,-9.697216,10.65061,0.25879776,0.24109268,0.11344872,0.066774905,inf,inf,inf,inf,1,1,1,1,3,2,3,2,3,1,1,1,0,0,0
217543927,217543647,42042860,60.1877325,24.832678599999998,-4.0689797,-9.8813715,-13.66661,0.22263904,0.116216525,-4.172325e-07,0.012771556,0.05196094,-0.66115767,-0.4963275,-0.025598146,0.051155806,0.014507944,-1.2572304,-5.6274877,-1.1495801,-1.9377466,0.0010396289,0.19126347,-0.03642802,6.467236e-05,-9.697216,10.860213,0.25827444,0.2421745,0.11155962,0.066557944,inf,inf,inf,inf,1,1,1,1,3,2,3,2,3,1,1,1,0,0,0
218043922,218043647,42042860,60.1877325,24.832678599999998,-4.134293,-9.928178,-13.879748,0.22263904,0.116216525,-4.172325e-07,-0.2466348,-0.517648,-0.6799902,-0.49830118,-0.025598146,0.051155806,0.014507944,-1.1122172,-1.625557,-2.7677803,-1.9209594,0.001041526,0.21349597,-0.03642802,6.445297e-05,-9.697216,11.073352,0.25787786,0.2423502,0.11072722,0.06635777,inf,inf,inf,inf,1,1,1,1,3,2,3,2,3,1,1,1,0,0,0
218543938,218543647,42042860,60.1877325,24.832678599999998,-4.3796673,-10.498351,-14.096229,0.22263904,0.116216525,-4.172325e-07,-0.6020008,-1.5222952,-0.5999464,-0.43362567,-0.025598146,0.051155806,0.014507944,-3.1696453,-2.462734,0.15146475,-1.9377009,0.0009922024,0.18705158,-0.03642802,6.3855914e-05,-9.697216,11.289832,0.25752184,0.24233803,0.1167138,0.06628916,inf,inf,inf,inf,1,1,1,1,3,2,3,2,3,1,1,1,0,0,0
219043938,219043648,42042860,60.1877325,24.832678599999998,-4.645073,-11.249876,-14.366636,0.22263904,0.116216525,-4.172325e-07,-0.50338423,-1.3388016,-0.74012536,-0.5772423,-0.025598146,0.051155806,0.014507944,-0.40742522,0.91335076,2.2826438,-1.9574041,0.00090421597,0.16367795,-0.03642802,6.336419e-05,-9.697216,11.56024,0.2573364,0.24285363,0.1153069,0.06628197,inf,inf,inf,inf,1,1,1,1,3,2,3,2,3,1,1,1,0,0,0
219543933,219543648,42042860,60.1877325,24.832678599999998,-4.9074945,-11.89465,-14.569187,0.22263904,0.116216525,-4.172325e-07,-0.47315526,-1.1903003,-0.47101828,-0.31352508,-0.025598146,0.051155806,0.014507944,0.21804124,2.9841096,0.230035,-1.9575546,0.00087931973,0.16441993,-0.03642802,6.319479e-05,-9.697216,11.762791,0.2573117,0.24272366,0.1109041,0.06622429,inf,inf,inf,inf,1,1,1,1,3,2,3,2,3,1,1,1,0,0,0
220043928,220043648,42042860,60.1877325,24.832678599999998,-5.1700993,-12.508945,-14.732739,0.22263904,0.116216525,-4.172325e-07,-0.46348035,-1.2488215,-0.36785415,-0.22860217,-0.025598146,0.051155806,0.014507944,0.031606767,-1.518121,-1.5022377,-1.9495791,0.0008736225,0.1702842,-0.03642802,6.325643e-05,-9.697216,11.926343,0.2574186,0.24257857,0.11009481,0.06626258,inf,inf,inf,inf,1,1,1,1,3,2,3,2,3,1,1,1,0,0,0
221044106,221043648,42042860,60.1877325,24.832678599999998,-5.628584,-13.590953,-14.988042,0.22263904,0.116216525,-4.172325e-07,-0.27175406,-0.74209255,-0.43634197,-0.30710274,-0.025598146,0.051155806,0.014507944,2.1804333,5.2678337,-1.3901362,-1.953164,0.0008774367,0.1691539,-0.03642802,6.327311e-05,-9.697216,12.181645,0.2576919,0.24279706,0.10962304,0.06634184,inf,inf,inf,inf,1,1,1,1,3,2,3,2,3,1,1,1,0,0,0
221544385,221543648,42042860,60.1877325,24.832678599999998,-5.7346034,-13.851446,-15.105706,0.22263904,0.116216525,-4.172325e-07,-0.07518995,-0.38720885,-0.37096128,-0.2360524,-0.025598146,0.051155806,0.014507944,-0.6815596,-1.658131,-2.779765,-1.9144123,0.00087704643,0.2074887,-0.03642802,6.301778e-05,-9.697216,12.29931,0.25761658,0.2424986,0.11002974,0.06621447,inf,inf,inf,inf,1,1,1,1,3,2,3,2,3,1,1,1,0,0,0
222044396,222043648,42042860,60.1877325,24.832678599999998,-5.756522,-13.905362,-15.231653,0.22263904,0.116216525,-4.172325e-07,0.029204106,-0.10881387,-0.47224,-0.3259411,-0.025598146,0.051155806,0.014507944,1.83182,2.316463,-1.5152173,-1.8944486,0.0008662307,0.22711237,-0.03642802,6.275587e-05,-9.697216,12.425257,0.25743097,0.24206178,0.110982224,0.066129215,inf,inf,inf,inf,1,1,1,1,3,2,3,2,3,1,1,1,0,0,0
223044099,223043647,42042860,60.1877325,24.832678599999998,-5.7849164,-13.983131,-15.477788,0.22263904,0.116216525,-4.172325e-07,-0.13962652,-0.13933869,-0.4454177,-0.27083603,-0.025598146,0.051155806,0.014507944,-0.74274445,2.4605787,2.2771614,-1.947393,0.0008584753,0.17179935,-0.03642802,6.242222e-05,-9.697216,12.6713915,0.2570629,0.24158259,0.10944467,0.06583981,inf,inf,inf,inf,1,1,1,1,3,2,3,2,3,1,1,1,0,0,0
223544367,223543648,42042860,60.1877325,24.832678599999998,-5.8813343,-14.018699,-15.610722,0.22263904,0.116216525,-4.172325e-07,-0.19911273,-0.09576432,-0.4427975,-0.2659617,-0.025598146,0.051155806,0.014507944,-1.0564125,-1.1258225,0.9184001,-1.922036,0.0008628709,0.1983476,-0.03642802,6.230463e-05,-9.697216,12.804325,0.25685403,0.24099095,0.10936604,0.06567339,inf,inf,inf,inf,1,1,1,1,3,2,3,2,3,1,1,1,0,0,0
224044093,224043648,42042860,60.1877325,24.832678599999998,-5.9482913,-14.041958,-15.720598,0.22263904,0.116216525,-4.172325e-07,-0.003151327,-0.030134685,-0.433434,-0.25195462,-0.025598146,0.051155806,0.014507944,3.033876,0.35454902,-2.8625348,-1.9068217,0.00086833,0.21364462,-0.03642802,6.2235486e-05,-9.697216,12.914202,0.25665426,0.2409502,0.10912768,0.065597735,inf,inf,inf,inf,1,1,1,1,3,2,3,2,3,1,1,1,0,0,0
224544096,224543648,42042860,60.1877325,24.832678599999998,-5.927478,-14.032089,-15.862563,0.22263904,0.116216525,-4.172325e-07,0.10223909,0.044229496,-0.47301093,-0.3005106,-0.025598146,0.051155806,0.014507944,1.0305904,-0.90306944,-1.3935777,-1.9572941,0.00087391434,0.16304839,-0.03642802,6.214193e-05,-9.697216,13.056167,0.25642574,0.2403423,0.10925928,0.06550452,inf,inf,inf,inf,1,1,1,1,3,2,3,2,3,1,1,1,0,0,0
225044096,225043648,42042860,60.1877325,24.832678599999998,-5.894739,-13.999283,-16.012894,0.22263904,0.116216525,-4.172325e-07,0.059210684,0.10656325,-0.46317038,-0.29412118,-0.025598146,0.051155806,0.014507944,0.25574407,-0.16159503,1.5109813,-1.9911844,0.00087963755,0.12955594,-0.03642802,6.21559e-05,-9.697216,13.206497,0.2566401,0.2399763,0.10974411,0.06554911,inf,inf,inf,inf,1,1,1,1,3,2,3,2,3,1,1,1,0,0,0
226044104,226043648,42042860,60.1877325,24.832678599999998,-5.8537154,-13.959806,-16.281534,0.22263904,0.116216525,-4.172325e-07,-0.08254348,0.10886822,-0.3486418,-0.19103509,-0.025598146,0.051155806,0.014507944,-3.046373,-0.34987134,0.5696198,-1.952797,0.00089272036,0.16735786,-0.03642802,6.197256e-05,-9.697216,13.475138,0.2563964,0.23962931,0.1092951,0.065446705,inf,inf,inf,inf,1,1,1,1,3,2,3,2,3,1,1,1,0,0,0
226544098,226543648,42042860,60.1877325,24.832678599999998,-5.908236,-13.90733,-16.417704,0.22263904,0.116216525,-4.172325e-07,-0.09192421,0.14632656,-0.35428274,-0.20819964,-0.025598146,0.051155806,0.014507944,-1.5420083,-0.8149685,1.4009839,-1.9338592,0.00089859514,0.18603453,-0.03642802,6.193402e-05,-9.697216,13.611307,0.25634223,0.2392329,0.10935916,0.06542157,inf,inf,inf,inf,1,1,1,1,3,2,3,2,3,1,1,1,0,0,0
227044122,227043648,42042860,60.1877325,24.832678599999998,-5.9617095,-13.868431,-16.5247,0.22263904,0.116216525,-4.172325e-07,-0.056425557,0.061447006,-0.24081515,-0.10201699,-0.025598146,0.051155806,0.014507944,3.1252065,0.7442069,2.3583827,-1.9581947,0.00090465095,0.16278414,-0.03642802,6.1919556e-05,-9.697216,13.718304,0.25635722,0.23888431,0.10908584,0.065415986,inf,inf,inf,inf,1,1,1,1,3,2,3,2,3,1,1,1,0,0,0
227544112,227543648,42042860,60.1877325,24.832678599999998,-5.9849973,-13.85039,-16.633858,0.22263904,0.116216525,-4.172325e-07,-0.020207157,0.03174926,-0.3309073,-0.20431615,-0.025598146,0.051155806,0.014507944,0.79426414,-3.3113766,0.21710452,-1.9927988,0.0009103629,0.1274916,-0.03642802,6.192981e-05,-9.697216,13.827461,0.2563237,0.23906113,0.10923043,0.06546149,inf,inf,inf,inf,1,1,1,1,3,2,3,2,3,1,1,1,0,0,0
228044093,228043648,42042860,60.1877325,24.832678599999998,-6.0260367,-13.873255,-16.770845,0.22263904,0.116216525,-4.172325e-07,-0.0354935,-0.059640378,-0.3106716,-0.18949027,-0.025598146,0.051155806,0.014507944,-2.8034062,-1.8016686,-0.3018515,-1.9729013,0.00091599976,0.14844948,-0.03642802,6.182772e-05,-9.697216,13.964449,0.25626314,0.23864157,0.10949117,0.06548632,inf,inf,inf,inf,1,1,1,1,3,2,3,2,3,1,1,1,0,0,0
228544116,228543648,42042860,60.1877325,24.832678599999998,-5.992829,-13.953333,-16.890371,0.22263904,0.116216525,-4.172325e-07,0.24624705,-0.17064337,-0.2986598,-0.17608552,-0.025598146,0.051155806,0.014507944,-2.168932,0.57354987,0.8158101,-1.8958204,0.00092021644,0.22294265,-0.03642802,6.172751e-05,-9.697216,14.083975,0.2561212,0.23816605,0.10958125,0.06546246,inf,inf,inf,inf,1,1,1,1,3,2,3,2,3,1,1,1,0,0,0
229044385,229043648,42042860,60.1877325,24.832678599999998,-5.89974,-14.045416,-16.999008,0.22263904,0.116216525,-4.172325e-07,0.13993083,-0.11626306,-0.27515554,-0.14939626,-0.025598146,0.051155806,0.014507944,1.2253668,0.85437644,0.15499797,-1.9353082,0.00092301273,0.18277535,-0.03642802,6.1627026e-05,-9.697216,14.192612,0.255922,0.23819864,0.109270886,0.065461725,inf,inf,inf,inf,1,1,1,1,3,2,3,2,3,1,1,1,0,0,0
229544097,229543648,42042860,60.1877325,24.832678599999998,-5.8899245,-14.111938,-17.104038,0.22263904,0.116216525,-4.172325e-07,0.07537848,-0.070249006,-0.28333,-0.16178684,-0.025598146,0.051155806,0.014507944,-0.7928285,-2.3127854,0.37944093,-1.9172332,0.0009303075,0.20188393,-0.03642802,6.1596635e-05,-9.697216,14.297642,0.25567687,0.23765376,0.108901076,0.06543639,inf,inf,inf,inf,1,1,1,1,3,2,3,2,3,1,1,1,0,0,0
230044093,230043647,42042860,60.1877325,24.832678599999998,-5.877704,-14.165152,-17.219944,0.22263904,0.116216525,-4.172325e-07,0.06457688,-0.03900898,-0.27553815,-0.15776813,-0.025598146,0.051155806,0.014507944,-1.3049965,1.5493594,1.2916093,-1.9317136,0.0009386653,0.18733366,-0.03642802,6.155831e-05,-9.697216,14.4135475,0.25545755,0.23711239,0.10895228,0.06539946,inf,inf,inf,inf,1,1,1,1,3,2,3,2,3,1,1,1,0,0,0
230544390,230543648,42042860,60.1877325,24.832678599999998,-5.8696365,-14.189,-17.328106,0.22263904,0.116216525,-4.172325e-07,0.067619875,-0.033596028,-0.38284588,-0.274434,-0.025598146,0.051155806,0.014507944,0.3859477,-1.7513252,0.47253576,-1.9495776,0.000947508,0.16963689,-0.03642802,6.155223e-05,-9.697216,14.521709,0.2552143,0.2371005,0.10877548,0.065419264,inf,inf,inf,inf,1,1,1,1,3,2,3,2,3,1,1,1,0,0,0
231044110,231043647,42042860,60.1877325,24.832678599999998,-5.8542147,-14.179035,-17.500372,0.22263904,0.116216525,-4.172325e-07,0.079513475,0.04592795,-0.41083425,-0.30790967,-0.025598146,0.051155806,0.014507944,0.40464303,0.9658004,-3.216553,-1.9460641,0.0009567117,0.17315571,-0.03642802,6.1429484e-05,-9.697216,14.693975,0.25491685,0.23653817,0.10916692,0.06536885,inf,inf,inf,inf,1,1,1,1,3,2,3,2,3,1,1,1,0,0,0
231543930,231543647,42042860,60.1877325,24.832678599999998,-5.8231277,-14.161267,-17.648859,0.22263904,0.116216525,-4.172325e-07,0.08462192,-0.019830177,-0.40394294,-0.29948977,-0.025598146,0.051155806,0.014507944,0.69452,-1.2110728,0.94033206,-1.955931,0.0009659082,0.16247337,-0.03642802,6.1378494e-05,-9.697216,14.842463,0.25465885,0.23599117,0.108837076,0.06530467,inf,inf,inf,inf,1,1,1,1,3,2,3,2,3,1,1,1,0,0,0
232044140,232043648,42042860,60.1877325,24.832678599999998,-5.790238,-14.180254,-17.800224,0.22263904,0.116216525,-4.172325e-07,0.09156001,-0.07399633,-0.3857051,-0.28387094,-0.025598146,0.051155806,0.014507944,1.1481177,0.41714403,0.68623257,-1.95059,0.0009752596,0.16787155,-0.03642802,6.132462e-05,-9.697216,14.993828,0.2543677,0.2354368,0.10881528,0.065234676,inf,inf,inf,inf,1,1,1,1,3,2,3,2,3,1,1,1,0,0,0
232543928,232543647,42042860,60.1877325,24.832678599999998,-5.762529,-14.16873,-17.949205,0.22263904,0.116216525,-4.172325e-07,0.08025007,0.022864835,-0.3607696,-0.26270366,-0.025598146,0.051155806,0.014507944,-0.46254167,1.306652,-0.50552994,-1.9222591,0.0009848701,0.19629149,-0.03642802,6.1305414e-05,-9.697216,15.142809,0.25408384,0.23540883,0.108744286,0.06521906,inf,inf,inf,inf,1,1,1,1,3,2,3,2,3,1,1,1,0,0,0
233043927,233043647,42042860,60.1877325,24.832678599999998,-5.767215,-14.150222,-18.074379,0.22263904,0.116216525,-4.172325e-07,-0.09468362,0.044475716,-0.29375368,-0.20022455,-0.025598146,0.051155806,0.014507944,0.1442411,-0.19489305,1.063014,-1.9473592,0.0009947038,0.16996907,-0.03642802,6.133996e-05,-9.697216,15.2679825,0.25381616,0.23485982,0.10866753,0.065171905,inf,inf,inf,inf,1,1,1,1,3,2,3,2,3,1,1,1,0,0,0
233543955,233543647,42042860,60.1877325,24.832678599999998,-5.851221,-14.103817,-18.185938,0.22263904,0.116216525,-4.172325e-07,-0.1630163,0.11642301,-0.24854086,-0.15451147,-0.025598146,0.051155806,0.014507944,0.3575429,-0.15417404,1.3079114,-1.9897964,0.0010029977,0.12903005,-0.03642802,6.143395e-05,-9.697216,15.379541,0.25353965,0.23431589,0.108826816,0.065151244,inf,inf,inf,inf,1,1,1,1,3,2,3,2,3,1,1,1,0,0,0
235043924,235043648,42042860,60.1877325,24.832678599999998,-5.924469,-14.004139,-18.521585,0.22263904,0.116216525,-4.172325e-07,0.21962674,-0.0094938055,-0.29964197,-0.1940352,-0.025598146,0.051155806,0.014507944,1.284107,2.7757604,-2.3642602,-1.9172996,0.001029933,0.20258486,-0.03642802,6.140568e-05,-9.697216,15.715189,0.25278363,0.23329784,0.10864879,0.065113276,inf,inf,inf,inf,1,1,1,1,3,2,3,2,3,1,1,1,0,0,0
235543924,235543647,42042860,60.1877325,24.832678599999998,-5.8368063,-14.002586,-18.605457,0.22263904,0.116216525,-4.172325e-07,0.13896964,-0.070177995,-0.29825485,-0.20085077,-0.025598146,0.051155806,0.014507944,-0.69366497,-3.9087949,-0.12517998,-1.933941,0.0010375566,0.18461107,-0.03642802,6.143987e-05,-9.697216,15.799061,0.2525379,0.23331435,0.10865563,0.065105006,inf,inf,inf,inf,1,1,1,1,3,2,3,2,3,1,1,1,0,0,0
236043930,236043648,42042860,60.1877325,24.832678599999998,-5.814689,-14.070686,-18.727907,0.22263904,0.116216525,-4.172325e-07,0.10582818,-0.18325108,-0.33372018,-0.24639161,-0.025598146,0.051155806,0.014507944,-0.56848085,-0.14126378,-1.7675164,-1.8874782,0.0010468457,0.2325333,-0.03642802,6.141777e-05,-9.697216,15.921511,0.25232735,0.23283625,0.10870875,0.065071575,inf,inf,inf,inf,1,1,1,1,3,2,3,2,3,1,1,1,0,0,0
236544110,236543647,42042860,60.1877325,24.832678599999998,-5.7751603,-14.142822,-18.840837,0.22263904,0.116216525,-4.172325e-07,0.043328155,-0.108602926,-0.3118264,-0.23011348,-0.025598146,0.051155806,0.014507944,0.19099592,0.9043246,-3.4503067,-1.9346906,0.0010561297,0.18371351,-0.03642802,6.138415e-05,-9.697216,16.034441,0.25207794,0.23233764,0.10848357,0.064999215,inf,inf,inf,inf,1,1,1,1,3,2,3,2,3,1,1,1,0,0,0
237043954,237043648,42042860,60.1877325,24.832678599999998,-5.776953,-14.164984,-18.97582,0.22263904,0.116216525,-4.172325e-07,0.051188413,-0.0462592,-0.33128795,-0.2589173,-0.025598146,0.051155806,0.014507944,-2.1110394,0.30877432,0.538726,-1.9445828,0.0010669534,0.1747008,-0.03642802,6.137909e-05,-9.697216,16.169424,0.25184795,0.23183475,0.10857422,0.06496145,inf,inf,inf,inf,1,1,1,1,3,2,3,2,3,1,1,1,0,0,0
237543926,237543648,42042860,60.1877325,24.832678599999998,-5.7600117,-14.201172,-19.122267,0.22263904,0.116216525,-4.172325e-07,0.013019041,-0.083597116,-0.35657558,-0.28449905,-0.025598146,0.051155806,0.014507944,-0.7290751,-1.2935117,1.8516657,-1.9245193,0.0010780748,0.1934763,-0.03642802,6.1331324e-05,-9.697216,16.31587,0.25156972,0.2318159,0.10880975,0.064946935,inf,inf,inf,inf,1,1,1,1,3,2,3,2,3,1,1,1,0,0,0
238043925,238043647,42042860,60.1877325,24.832678599999998,-5.752529,-14.236505,-19.260525,0.22263904,0.116216525,-4.172325e-07,0.002149746,-0.07305305,-0.37078774,-0.2874147,-0.025598146,0.051155806,0.014507944,0.42557037,-3.7186658,-0.37536612,-1.8941016,0.0010894514,0.22384001,-0.03642802,6.12942e-05,-9.697216,16.454128,0.25132063,0.23128794,0.10873426,0.0648921,inf,inf,inf,inf,1,1,1,1,3,2,3,2,3,1,1,1,0,0,0
238543985,238543648,42042860,60.1877325,24.832678599999998,-5.7724705,-14.243444,-19.396994,0.22263904,0.116216525,-4.172325e-07,-0.10261586,0.06126135,-0.4101379,-0.3152355,-0.025598146,0.051155806,0.014507944,-0.34743506,0.6353117,-0.19510183,-1.9034175,0.0011008618,0.21445075,-0.03642802,6.124377e-05,-9.697216,16.590597,0.25101796,0.23073621,0.108714655,0.06483816,inf,inf,inf,inf,1,1,1,1,3,2,3,2,3,1,1,1,0,0,0
239043927,239043647,42042860,60.1877325,24.832678599999998,-5.8139973,-14.189512,-19.506882,0.22263904,0.116216525,-4.172325e-07,-0.08420205,0.20698051,-0.29520527,-0.1987467,-0.025598146,0.051155806,0.014507944,-0.0073054996,1.9071476,-0.67061716,-1.9182248,0.0011105068,0.19953492,-0.03642802,6.125886e-05,-9.697216,16.700485,0.2507319,0.23069242,0.108491726,0.06486466,inf,inf,inf,inf,1,1,1,1,3,2,3,2,3,1,1,1,0,0,0
239543930,239543648,42042860,60.1877325,24.832678599999998,-5.768133,-14.122012,-19.467104,0.22263904,0.116216525,-4.172325e-07,0.45807138,0.1368408,0.4692739,0.56131446,-0.025598146,0.051155806,0.014507944,3.436339,2.4489224,0.25630426,-1.9318393,0.0011190875,0.18145874,-0.03642802,6.140537e-05,-9.697216,16.660707,0.25043836,0.23015413,0.10747415,0.064823635,inf,inf,inf,inf,1,1,1,1,3,2,3,2,3,1,1,1,0,0,0
240044110,240043647,42042860,60.1877325,24.832678599999998,-5.237852,-14.112771,-19.20679,0.22263904,0.116216525,-4.172325e-07,1.4904613,0.02443655,0.37281767,0.43981546,-0.025598146,0.051155806,0.014507944,2.7215729,1.3351027,-0.87652534,-1.9723905,0.0010928689,0.14997754,-0.03642802,6.1934545e-05,-9.697216,16.400394,0.2500585,0.22961488,0.11192322,0.064910054,inf,inf,inf,inf,1,1,1,1,3,2,3,2,3,1,1,1,0,0,0
240543926,240543648,42042860,60.1877325,24.832678599999998,-4.422919,-14.148044,-19.03638,0.22263904,0.116216525,-4.172325e-07,1.6893907,-0.045647413,0.19402425,0.26197228,-0.025598146,0.051155806,0.014507944,1.9376043,1.7685661,-0.42523983,-1.9821234,0.0010198372,0.14231972,-0.03642802,6.2278166e-05,-9.697216,16.229984,0.24975881,0.22959413,0.113319494,0.065011516,inf,inf,inf,inf,1,1,1,1,3,2,3,2,3,1,1,1,0,0,0
241043934,241043648,42042860,60.1877325,24.832678599999998,-3.6246042,-14.196105,-18.913513,0.22263904,0.116216525,-4.172325e-07,1.4073519,-0.04319052,0.022468891,0.11666387,-0.025598146,0.051155806,0.014507944,-0.32032683,-0.00889496,0.220962,-1.9747931,0.0009882405,0.1476898,-0.03642802,6.239434e-05,-9.697216,16.107117,0.24946098,0.2290943,0.110181555,0.06495335,inf,inf,inf,inf,1,1,1,1,3,2,3,2,3,1,1,1,0,0,0
241543925,241543648,42042860,60.1877325,24.832678599999998,-3.0410867,-14.221258,-18.844181,0.22263904,0.116216525,-4.172325e-07,0.8833507,-0.013667104,-0.07876312,0.041991524,-0.025598146,0.051155806,0.014507944,-3.3781762,-2.8539772,-0.95213,-1.9616487,0.0009924273,0.15960632,-0.03642802,6.216214e-05,-9.697216,16.037785,0.2491754,0.22860019,0.109133,0.064891785,inf,inf,inf,inf,1,1,1,1,3,2,3,2,3,1,1,1,0,0,0
242043956,242043647,42042860,60.1877325,24.832678599999998,-2.7138047,-14.23016,-18.82018,0.22263904,0.116216525,-4.172325e-07,0.40337747,0.010123548,-0.12062983,0.011953088,-0.025598146,0.051155806,0.014507944,-3.7668042,0.7062503,1.2775956,-1.9427322,0.0009915627,0.17792684,-0.03642802,6.165882e-05,-9.697216,16.013784,0.24885674,0.22810294,0.11058111,0.064862244,inf,inf,inf,inf,1,1,1,1,3,2,3,2,3,1,1,1,0,0,0
242543928,242543648,42042860,60.1877325,24.832678599999998,-2.6126738,-14.219845,-18.802908,0.22263904,0.116216525,-4.172325e-07,0.03169519,-0.009746866,-0.11108885,0.018692294,-0.025598146,0.051155806,0.014507944,0.78215724,-1.8197705,-1.7649627,-1.926921,0.00096986094,0.19691049,-0.03642802,6.1205195e-05,-9.697216,15.996511,0.24848013,0.22805914,0.11173279,0.064871445,inf,inf,inf,inf,1,1,1,1,3,2,3,2,3,1,1,1,0,0,0
243043925,243043647,42042860,60.1877325,24.832678599999998,-2.6642451,-14.219466,-18.803442,0.22263904,0.116216525,-4.172325e-07,-0.187564,-0.029539471,-0.12849313,-0.010351048,-0.025598146,0.051155806,0.014507944,-0.21012752,-0.5965597,2.0716436,-1.9518925,0.0009420203,0.1740919,-0.03642802,6.1006824e-05,-9.697216,15.9970455,0.24816461,0.22754872,0.11160817,0.06483578,inf,inf,inf,inf,1,1,1,1,3,2,3,2,3,1,1,1,0,0,0
243543958,243543648,42042860,60.1877325,24.832678599999998,-3.0121772,-14.210773,-18.8552,0.22263904,0.116216525,-4.172325e-07,-1.2907028,-0.018748304,-0.19039717,-0.08317579,-0.025598146,0.051155806,0.014507944,-1.602317,-0.018710906,0.83062184,-1.9441823,0.0009108972,0.1622226,-0.03642802,6.0956983e-05,-9.697216,16.048803,0.24782729,0.22701804,0.113938965,0.06485932,inf,inf,inf,inf,1,1,1,1,3,2,3,2,3,1,1,1,0,0,0
244043925,244043647,42042860,60.1877325,24.832678599999998,-3.8630939,-14.212661,-18.885008,0.22263904,0.116216525,-4.172325e-07,-1.8536748,0.0019047725,-0.17483135,-0.070953734,-0.025598146,0.051155806,0.014507944,0.53960514,0.20516513,1.6376553,-1.9344202,0.0008251659,0.1913462,-0.03642802,6.138572e-05,-9.697216,16.078611,0.24757439,0.226977,0.117257185,0.065012075,inf,inf,inf,inf,1,1,1,1,3,2,3,2,3,1,1,1,0,0,0
244543921,244543647,42042860,60.1877325,24.832678599999998,-4.779779,-14.20643,-18.917255,0.22263904,0.116216525,-4.172325e-07,-1.6429667,0.021337457,-0.083747804,0.009178637,-0.025598146,0.051155806,0.014507944,-1.5181397,-3.7554195,1.2338654,-1.9385084,0.0007763964,0.1900218,-0.03642802,6.201827e-05,-9.697216,16.110859,0.24732096,0.2264524,0.1116595,0.06483566,inf,inf,inf,inf,1,1,1,1,3,2,3,2,3,1,1,1,0,0,0
245043932,245043648,42042860,60.1877325,24.832678599999998,-5.4836526,-14.169677,-18.928679,0.22263904,0.116216525,-4.172325e-07,-1.0622718,0.07974242,-0.07357051,0.0059401677,-0.025598146,0.051155806,0.014507944,0.5844389,2.1567638,1.8216087,-1.9304901,0.0007775014,0.19920419,-0.03642802,6.239824e-05,-9.697216,16.122282,0.24708632,0.22593641,0.10829262,0.06464891,inf,inf,inf,inf,1,1,1,1,3,2,3,2,3,1,1,1,0,0,0
245543925,245543648,42042860,60.1877325,24.832678599999998,-5.873042,-14.145041,-18.921854,0.22263904,0.116216525,-4.172325e-07,-0.46989352,-0.0020432188,-0.044399206,0.03341411,-0.025598146,0.051155806,0.014507944,0.6224127,0.49063075,1.5748916,-1.9446653,0.00078264275,0.1848655,-0.03642802,6.221255e-05,-9.697216,16.115458,0.24676308,0.22586668,0.10947515,0.064615466,inf,inf,inf,inf,1,1,1,1,3,2,3,2,3,1,1,1,0,0,0
246043935,246043648,42042860,60.1877325,24.832678599999998,-5.991041,-14.15013,-18.903324,0.22263904,0.116216525,-4.172325e-07,-0.043055262,-0.063550666,-0.049448386,0.027048854,-0.025598146,0.051155806,0.014507944,1.2615921,-1.4059536,-0.42723212,-1.9589372,0.0007666448,0.16913694,-0.03642802,6.1727784e-05,-9.697216,16.096928,0.2464672,0.22535451,0.1116461,0.0646054,inf,inf,inf,inf,1,1,1,1,3,2,3,2,3,1,1,1,0,0,0
246543927,246543647,42042860,60.1877325,24.832678599999998,-5.9313326,-14.182379,-18.899837,0.22263904,0.116216525,-4.172325e-07,0.29535544,-0.093712196,-0.042641934,0.029946048,-0.025598146,0.051155806,0.014507944,1.0697417,-2.8429706,0.91843486,-1.957407,0.00073853915,0.16948153,-0.03642802,6.123142e-05,-9.697216,16.093441,0.24618085,0.22485434,0.11216894,0.06459048,inf,inf,inf,inf,1,1,1,1,3,2,3,2,3,1,1,1,0,0,0
247044151,247043647,42042860,60.1877325,24.832678599999998,-5.4787903,-14.250199,-18.916721,0.22263904,0.116216525,-4.172325e-07,1.4684397,-0.12431499,-0.11438704,-0.041546017,-0.025598146,0.051155806,0.014507944,0.24306364,-0.41326532,1.3713516,-1.9724686,0.0006966657,0.15570223,-0.03642802,6.0761842e-05,-9.697216,16.110325,0.24591157,0.22436443,0.11629605,0.06467141,inf,inf,inf,inf,1,1,1,1,3,2,3,2,3,1,1,1,0,0,0
248043931,248043647,42042860,60.1877325,24.832678599999998,-3.9738054,-14.348489,-19.174519,0.22263904,0.116216525,-4.172325e-07,0.94706976,0.006647907,-0.5256001,-0.44623217,-0.025598146,0.051155806,0.014507944,-0.6292406,2.2634044,-1.3263183,-1.973907,0.00060325087,0.15688223,-0.03642802,6.0293285e-05,-9.697216,16.368122,0.24557318,0.22394703,0.11051075,0.06459791,inf,inf,inf,inf,1,1,1,1,3,2,3,2,3,1,1,1,0,0,0
248543967,248543648,42042860,60.1877325,24.832678599999998,-3.6769328,-14.340122,-19.413095,0.22263904,0.116216525,-4.172325e-07,0.13970184,0.06184543,-0.57991815,-0.5005286,-0.025598146,0.051155806,0.014507944,-2.1880133,-0.12847269,0.73347306,-1.9686643,0.0006079603,0.1619844,-0.03642802,5.9970946e-05,-9.697216,16.606699,0.24537489,0.22352216,0.10922747,0.06451207,inf,inf,inf,inf,1,1,1,1,3,2,3,2,3,1,1,1,0,0,0
249044114,249043648,42042860,60.1877325,24.832678599999998,-3.746936,-14.315099,-19.676727,0.22263904,0.116216525,-4.172325e-07,-0.47099963,0.08457335,-0.64482105,-0.56721336,-0.025598146,0.051155806,0.014507944,-0.518601,1.8404349,0.35493714,-1.9299875,0.0006060798,0.20178497,-0.03642802,5.963585e-05,-9.697216,16.87033,0.24512629,0.22354425,0.11062465,0.064567134,inf,inf,inf,inf,1,1,1,1,3,2,3,2,3,1,1,1,0,0,0
249543936,249543648,42042860,60.1877325,24.832678599999998,-4.0990624,-14.296596,-19.964876,0.22263904,0.116216525,-4.172325e-07,-0.90112025,0.08455471,-0.63028884,-0.5599684,-0.025598146,0.051155806,0.014507944,-1.7972509,-2.1287692,-0.44576022,-1.9254577,0.00059380237,0.20646277,-0.03642802,5.9477476e-05,-9.697216,17.15848,0.24491234,0.22313468,0.11141144,0.064588934,inf,inf,inf,inf,1,1,1,1,3,2,3,2,3,1,1,1,0,0,0
250043931,250043648,42042860,60.1877325,24.832678599999998,-4.6176906,-14.26281,-20.246176,0.22263904,0.116216525,-4.172325e-07,-1.1069367,0.1740136,-0.61317784,-0.55057406,-0.025598146,0.051155806,0.014507944,-0.939159,2.9264908,-0.46782586,-1.9308017,0.00058140355,0.20095478,-0.03642802,5.9568498e-05,-9.697216,17.43978,0.24473175,0.22273242,0.11062574,0.06455852,inf,inf,inf,inf,1,1,1,1,3,2,3,2,3,1,1,1,0,0,0
250544110,250543648,42042860,60.1877325,24.832678599999998,-5.1774483,-14.180727,-20.49417,0.22263904,0.116216525,-4.172325e-07,-0.9800561,0.2028625,-0.40192208,-0.35177326,-0.025598146,0.051155806,0.014507944,1.1924525,-0.5162306,1.3520321,-1.9198952,0.00057732605,0.21217299,-0.03642802,5.9827886e-05,-9.697216,17.687773,0.24453665,0.22276625,0.108784035,0.06451399,inf,inf,inf,inf,1,1,1,1,3,2,3,2,3,1,1,1,0,0,0
251043927,251043647,42042860,60.1877325,24.832678599999998,-5.6196113,-14.117723,-20.639023,0.22263904,0.116216525,-4.172325e-07,-0.6296088,0.14396398,-0.18317628,-0.15387101,-0.025598146,0.051155806,0.014507944,-0.0411571,1.08003,-1.539902,-1.9237165,0.00058304763,0.2079487,-0.03642802,6.0266444e-05,-9.697216,17.832626,0.24438879,0.22237524,0.107275106,0.06443555,inf,inf,inf,inf,1,1,1,1,3,2,3,2,3,1,1,1,0,0,0
251544117,251543648,42042860,60.1877325,24.832678599999998,-5.8495145,-14.069154,-20.69722,0.22263904,0.116216525,-4.172325e-07,-0.24083288,0.08914158,-0.01304159,-0.0023692218,-0.025598146,0.051155806,0.014507944,-0.2610384,-0.48650742,-0.1610929,-1.9304222,0.000590501,0.20075284,-0.03642802,6.067448e-05,-9.697216,17.890823,0.24418369,0.22199526,0.10734484,0.06437835,inf,inf,inf,inf,1,1,1,1,3,2,3,2,3,1,1,1,0,0,0
252043926,252043647,42042860,60.1877325,24.832678599999998,-5.907492,-14.05083,-20.700445,0.22263904,0.116216525,-4.172325e-07,0.0075042457,0.03701173,0.004271617,0.009543878,-0.025598146,0.051155806,0.014507944,1.694288,2.7320898,-1.9626884,-1.9388645,0.0005935267,0.19215713,-0.03642802,6.1003262e-05,-9.697216,17.894049,0.24400678,0.22208555,0.10802362,0.064404465,inf,inf,inf,inf,1,1,1,1,3,2,3,2,3,1,1,1,0,0,0
252544111,252543648,42042860,60.1877325,24.832678599999998,-5.8828635,-14.05251,-20.686647,0.22263904,0.116216525,-4.172325e-07,0.04742136,0.0067031626,0.044429313,0.055677824,-0.025598146,0.051155806,0.014507944,-0.63157165,-0.5777642,1.5195785,-1.9634303,0.00059449894,0.16700031,-0.03642802,6.122948e-05,-9.697216,17.88025,0.2438582,0.22176245,0.10830768,0.06439066,inf,inf,inf,inf,1,1,1,1,3,2,3,2,3,1,1,1,0,0,0
253043930,253043648,42042860,60.1877325,24.832678599999998,-5.8179274,-14.071262,-20.64732,0.22263904,0.116216525,-4.172325e-07,0.12429488,-0.044151783,0.061742347,0.088345714,-0.025598146,0.051155806,0.014507944,-0.48661232,-1.4546435,1.7429402,-1.963471,0.0005972418,0.16701496,-0.03642802,6.142442e-05,-9.697216,17.840923,0.24384513,0.22150677,0.108341545,0.06439459,inf,inf,inf,inf,1,1,1,1,3,2,3,2,3,1,1,1,0,0,0
253543954,253543648,42042860,60.1877325,24.832678599999998,-5.6251626,-14.120577,-20.364721,0.22263904,0.116216525,-4.172325e-07,0.5190192,-0.12520052,0.7130964,0.7500714,-0.025598146,0.051155806,0.014507944,-0.03503341,-1.2133993,2.2134793,-1.9554144,0.0005999879,0.17736356,-0.03642802,6.180213e-05,-9.697216,17.558325,0.24384381,0.22128075,0.10735652,0.06442393,inf,inf,inf,inf,1,1,1,1,3,2,3,2,3,1,1,1,0,0,0
254043923,254043647,42042860,60.1877325,24.832678599999998,-5.3123665,-14.18901,-19.992805,0.22263904,0.116216525,-4.172325e-07,0.5674156,-0.117612444,0.7227667,0.75341964,-0.025598146,0.051155806,0.014507944,1.4800267,-0.8649399,-3.4210365,-1.9180173,0.0005993806,0.21254444,-0.03642802,6.2378254e-05,-9.697216,17.186409,0.24389328,0.22156274,0.107949555,0.06449334,inf,inf,inf,inf,1,1,1,1,3,2,3,2,3,1,1,1,0,0,0
254543929,254543647,42042860,60.1877325,24.832678599999998,-5.0604506,-14.211392,-19.61733,0.22263904,0.116216525,-4.172325e-07,0.24740276,0.007925004,0.7161643,0.7519031,-0.025598146,0.051155806,0.014507944,-0.9176416,-4.093784,2.376052,-1.9250449,0.00060341624,0.20218489,-0.03642802,6.272095e-05,-9.697216,16.810934,0.24396712,0.22143684,0.107692465,0.06445777,inf,inf,inf,inf,1,1,1,1,3,2,3,2,3,1,1,1,0,0,0
255043935,255043648,42042860,60.1877325,24.832678599999998,-5.0117664,-14.194223,-19.248491,0.22263904,0.116216525,-4.172325e-07,-0.22007342,0.06281592,0.5573017,0.60994583,-0.025598146,0.051155806,0.014507944,-0.060366053,2.251169,0.84821224,-1.9443421,0.00061051216,0.18414943,-0.03642802,6.283661e-05,-9.697216,16.442095,0.2441123,0.22136757,0.10833829,0.06444918,inf,inf,inf,inf,1,1,1,1,3,2,3,2,3,1,1,1,0,0,0
255543923,255543647,42042860,60.1877325,24.832678599999998,-5.135199,-14.16767,-18.987452,0.22263904,0.116216525,-4.172325e-07,-0.41668984,0.003951715,0.23575316,0.31584188,-0.025598146,0.051155806,0.014507944,0.5700083,-0.7473439,-1.7419864,-1.9696158,0.0006140852,0.16300316,-0.03642802,6.262697e-05,-9.697216,16.181055,0.24430883,0.22178908,0.109859295,0.06451219,inf,inf,inf,inf,1,1,1,1,3,2,3,2,3,1,1,1,0,0,0
256043934,256043648,42042860,60.1877325,24.832678599999998,-5.2735767,-14.118221,-18.832851,0.22263904,0.116216525,-4.172325e-07,-0.36447465,-0.0031200578,0.035081014,0.1471356,-0.025598146,0.051155806,0.014507944,-1.1741259,-0.89619493,-2.5129871,-1.9818256,0.0006177848,0.15393151,-0.03642802,6.215816e-05,-9.697216,16.026455,0.24470726,0.2218593,0.11013475,0.06449568,inf,inf,inf,inf,1,1,1,1,3,2,3,2,3,1,1,1,0,0,0
256543929,256543648,42042860,60.1877325,24.832678599999998,-5.388058,-14.126014,-18.75257,0.22263904,0.116216525,-4.172325e-07,-0.28786516,-0.043443516,-0.11001697,0.027673893,-0.025598146,0.051155806,0.014507944,-0.7463629,-0.012210263,-0.8794517,-1.9589709,0.000624594,0.17552379,-0.03642802,6.174826e-05,-9.697216,15.946173,0.2458911,0.22221243,0.110713355,0.06463207,inf,inf,inf,inf,1,1,1,1,3,2,3,2,3,1,1,1,0,0,0
257543924,257543648,42042860,60.1877325,24.832678599999998,-5.609483,-14.159728,-18.70824,0.22263904,0.116216525,-4.172325e-07,-0.11659296,0.007041133,-0.04258656,0.08671515,-0.025598146,0.051155806,0.014507944,0.8348321,-0.8227094,0.2818061,-1.9183033,0.0006414016,0.2163992,-0.03642802,6.110226e-05,-9.697216,15.901844,0.25001687,0.22414784,0.11173467,0.06518716,inf,inf,inf,inf,1,1,1,1,3,2,3,2,3,1,1,1,0,0,0
258043929,258043648,42042860,60.1877325,24.832678599999998,-5.652016,-14.150901,-18.730457,0.22263904,0.116216525,-4.172325e-07,0.061755165,0.0699921,-0.55074394,-0.43579727,-0.025598146,0.051155806,0.014507944,1.6803012,-7.529456,-3.438967,-1.9215146,0.0006494023,0.21348673,-0.03642802,6.06702e-05,-9.697216,15.924061,0.250062,0.2241892,0.11055518,0.064993545,inf,inf,inf,inf,1,1,1,1,3,2,3,2,3,1,1,1,0,0,0
258543954,258543647,42042860,60.1877325,24.832678599999998,-5.5692167,-14.0495405,-18.97683,0.22263904,0.116216525,-4.172325e-07,0.2853977,0.33718207,-0.504137,-0.3867809,-0.025598146,0.051155806,0.014507944,0.8593015,-0.47824562,0.25000352,-1.9465848,0.000654134,0.18974991,-0.03642802,5.9842612e-05,-9.697216,16.170433,0.2500515,0.22421631,0.11133321,0.064876124,inf,inf,inf,inf,1,1,1,1,3,2,3,2,3,1,1,1,0,0,0
259043930,259043648,42042860,60.1877325,24.832678599999998,-5.445072,-13.827088,-19.090847,0.22263904,0.116216525,-4.172325e-07,0.2895602,0.60586256,-0.2403511,-0.12730397,-0.025598146,0.051155806,0.014507944,-0.13262968,2.2367384,1.3893155,-1.9505386,0.00065571273,0.18586689,-0.03642802,5.954662e-05,-9.697216,16.28445,0.25006816,0.22470866,0.10960313,0.06482687,inf,inf,inf,inf,1,1,1,1,3,2,3,2,3,1,1,1,0,0,0
259543926,259543648,42042860,60.1877325,24.832678599999998,-5.316558,-13.463454,-19.14965,0.22263904,0.116216525,-4.172325e-07,0.19780172,0.8545216,-0.07256877,0.009367231,-0.025598146,0.051155806,0.014507944,-1.3204648,1.3909448,-1.4048563,-1.947183,0.0006565812,0.18940207,-0.03642802,5.965067e-05,-9.697216,16.343254,0.2500055,0.2246936,0.10884813,0.064750455,inf,inf,inf,inf,1,1,1,1,3,2,3,2,3,1,1,1,0,0,0
260044128,260043647,42042860,60.1877325,24.832678599999998,-5.228047,-13.020221,-19.141088,0.22263904,0.116216525,-4.172325e-07,0.0704081,0.9173499,0.06258287,0.1153047,-0.025598146,0.051155806,0.014507944,0.7353301,-0.3942135,1.563607,-1.9352258,0.00065886864,0.20114139,-0.03642802,5.996763e-05,-9.697216,16.334692,0.24982472,0.22458762,0.107953414,0.0646427,inf,inf,inf,inf,1,1,1,1,3,2,3,2,3,1,1,1,0,0,0
260544112,260543648,42042860,60.1877325,24.832678599999998,-5.2361484,-12.570137,-19.070595,0.22263904,0.116216525,-4.172325e-07,-0.07378709,0.88381404,0.1418142,0.17575087,-0.025598146,0.051155806,0.014507944,-2.4750464,-2.9004102,0.37164596,-1.9602602,0.00066414813,0.17636606,-0.03642802,6.0392624e-05,-9.697216,16.264198,0.24964859,0.22490169,0.107414335,0.06461057,inf,inf,inf,inf,1,1,1,1,3,2,3,2,3,1,1,1,0,0,0
261043924,261043647,42042860,60.1877325,24.832678599999998,-5.304726,-12.151411,-18.984268,0.22263904,0.116216525,-4.172325e-07,-0.22096784,0.8554816,0.22326995,0.2515001,-0.025598146,0.051155806,0.014507944,-2.2813194,0.38031206,-0.53420854,-1.9818431,0.00067116175,0.1529317,-0.03642802,6.075793e-05,-9.697216,16.177872,0.24950397,0.22472905,0.10762997,0.06454869,inf,inf,inf,inf,1,1,1,1,3,2,3,2,3,1,1,1,0,0,0
261543931,261543648,42042860,60.1877325,24.832678599999998,-5.459736,-11.731113,-18.876556,0.22263904,0.116216525,-4.172325e-07,-0.38366377,0.79629356,0.1464247,0.17882265,-0.025598146,0.051155806,0.014507944,0.3909992,-0.14819649,-2.506108,-1.9401954,0.00067809277,0.19793214,-0.03642802,6.1066305e-05,-9.697216,16.07016,0.2493122,0.22450301,0.10806861,0.06449019,inf,inf,inf,inf,1,1,1,1,3,2,3,2,3,1,1,1,0,0,0
262043927,262043648,42042860,60.1877325,24.832678599999998,-5.6413918,-11.395808,-18.81166,0.22263904,0.116216525,-4.172325e-07,-0.32701978,0.5350346,0.0049626064,0.049753424,-0.025598146,0.051155806,0.014507944,0.42822817,-0.64107454,-1.1466297,-1.9393327,0.0006844307,0.20169163,-0.03642802,6.117545e-05,-9.697216,16.005264,0.24918422,0.22471908,0.1087219,0.064495705,inf,inf,inf,inf,1,1,1,1,3,2,3,2,3,1,1,1,0,0,0
262544114,262543647,42042860,60.1877325,24.832678599999998,-5.747434,-11.191377,-18.791128,0.22263904,0.116216525,-4.172325e-07,-0.12889953,0.30579692,-0.054649647,0.007308137,-0.025598146,0.051155806,0.014507944,1.2967778,0.12406838,1.8743225,-1.9235643,0.0006885977,0.21638484,-0.03642802,6.1018014e-05,-9.697216,15.984732,0.24908656,0.22445862,0.10931707,0.06446569,inf,inf,inf,inf,1,1,1,1,3,2,3,2,3,1,1,1,0,0,0
263043924,263043648,42042860,60.1877325,24.832678599999998,-5.784826,-11.123819,-18.768755,0.22263904,0.116216525,-4.172325e-07,-0.0044232723,0.006991531,-0.043340243,0.02919759,-0.025598146,0.051155806,0.014507944,1.8480368,-3.591016,-0.08868602,-1.9059285,0.00068860076,0.23374651,-0.03642802,6.0834787e-05,-9.697216,15.962358,0.24905948,0.22420728,0.10983144,0.06446851,inf,inf,inf,inf,1,1,1,1,3,2,3,2,3,1,1,1,0,0,0
263543957,263543648,42042860,60.1877325,24.832678599999998,-5.744397,-11.184559,-18.757063,0.22263904,0.116216525,-4.172325e-07,0.11910536,-0.20177369,-0.061339762,0.013953681,-0.025598146,0.051155806,0.014507944,-1.0573162,2.1592338,1.2608174,-1.892151,0.00068488147,0.24481033,-0.03642802,6.068638e-05,-9.697216,15.950666,0.24903949,0.22395334,0.110194,0.06447161,inf,inf,inf,inf,1,1,1,1,3,2,3,2,3,1,1,1,0,0,0
264043931,264043648,42042860,60.1877325,24.832678599999998,-5.69959,-11.278267,-18.766754,0.22263904,0.116216525,-4.172325e-07,0.06774157,-0.18753383,-0.118248574,-0.048486542,-0.025598146,0.051155806,0.014507944,-0.86530215,-2.5862272,-1.5629338,-1.9041888,0.000682416,0.23228617,-0.03642802,6.0600032e-05,-9.697216,15.960358,0.24910338,0.22419204,0.10956843,0.06450718,inf,inf,inf,inf,1,1,1,1,3,2,3,2,3,1,1,1,0,0,0
264543928,264543648,42042860,60.1877325,24.832678599999998,-5.6447253,-11.486029,-18.853132,0.22263904,0.116216525,-4.172325e-07,0.146817,-0.7199343,-0.1875926,-0.119508624,-0.025598146,0.051155806,0.014507944,-0.91725814,0.3668845,3.781932,-1.949711,0.0006835009,0.18864068,-0.03642802,6.044416e-05,-9.697216,16.046736,0.24916217,0.22398424,0.11013708,0.06451226,inf,inf,inf,inf,1,1,1,1,3,2,3,2,3,1,1,1,0,0,0
265043956,265043648,42042860,60.1877325,24.832678599999998,-5.5880337,-11.9517765,-18.880531,0.22263904,0.116216525,-4.172325e-07,0.082685165,-1.1308311,-0.059039917,0.015294133,-0.025598146,0.051155806,0.014507944,1.7636058,-1.2777388,-1.1514323,-1.9583497,0.00067655655,0.17836425,-0.03642802,6.0494687e-05,-9.697216,16.074135,0.2492678,0.22381487,0.11024133,0.06455003,inf,inf,inf,inf,1,1,1,1,3,2,3,2,3,1,1,1,0,0,0
265543930,265543647,42042860,60.1877325,24.832678599999998,-5.5642395,-12.568484,-18.848862,0.22263904,0.116216525,-4.172325e-07,0.0007570149,-1.339473,-0.053014413,0.021418964,-0.025598146,0.051155806,0.014507944,-0.34212357,-1.5733793,-0.6202047,-1.9524068,0.00067015033,0.17985071,-0.03642802,6.081516e-05,-9.697216,16.042465,0.24938148,0.22412494,0.10951049,0.06461446,inf,inf,inf,inf,1,1,1,1,3,2,3,2,3,1,1,1,0,0,0
266043924,266043647,42042860,60.1877325,24.832678599999998,-5.604372,-13.230203,-18.847889,0.22263904,0.116216525,-4.172325e-07,-0.078419946,-1.2781615,-0.094793476,-0.01756883,-0.025598146,0.051155806,0.014507944,0.78724897,-1.2873079,-0.31696498,-1.9452202,0.0006703944,0.18698886,-0.03642802,6.1083e-05,-9.697216,16.041492,0.24948078,0.22398752,0.10886888,0.06459222,inf,inf,inf,inf,1,1,1,1,3,2,3,2,3,1,1,1,0,0,0
266543934,266543648,42042860,60.1877325,24.832678599999998,-5.6604347,-13.796864,-18.841875,0.22263904,0.116216525,-4.172325e-07,-0.06152143,-0.94752127,-0.10316829,-0.015459579,-0.025598146,0.051155806,0.014507944,1.1618876,-1.0007404,-1.0178248,-1.9461316,0.0006770734,0.18645519,-0.03642802,6.1162355e-05,-9.697216,16.035479,0.24956326,0.22385387,0.10851523,0.06454378,inf,inf,inf,inf,1,1,1,1,3,2,3,2,3,1,1,1,0,0,0
267043925,267043647,42042860,60.1877325,24.832678599999998,-5.719346,-14.176442,-18.843918,0.22263904,0.116216525,-4.172325e-07,-0.07160313,-0.53088903,-0.11186207,-0.01712542,-0.025598146,0.051155806,0.014507944,-1.9165089,1.2101861,1.1777036,-1.9567622,0.00068097375,0.17551628,-0.03642802,6.1004284e-05,-9.697216,16.037521,0.2496627,0.2242049,0.109410524,0.06456375,inf,inf,inf,inf,1,1,1,1,3,2,3,2,3,1,1,1,0,0,0
267543923,267543647,42042860,60.1877325,24.832678599999998,-5.7656407,-14.354267,-18.848608,0.22263904,0.116216525,-4.172325e-07,-0.082281604,-0.18117456,-0.1496961,-0.047542848,-0.025598146,0.051155806,0.014507944,0.17264731,0.6251139,0.027438441,-1.9386599,0.0006748008,0.19365324,-0.03642802,6.0719754e-05,-9.697216,16.042212,0.24976823,0.22411533,0.11066376,0.06455971,inf,inf,inf,inf,1,1,1,1,3,2,3,2,3,1,1,1,0,0,0
268043924,268043648,42042860,60.1877325,24.832678599999998,-5.807101,-14.373652,-18.855911,0.22263904,0.116216525,-4.172325e-07,-0.042094808,0.0727072,-0.1331592,-0.022956837,-0.025598146,0.051155806,0.014507944,-1.014309,-0.39606714,4.2109203,-1.9296749,0.0006623952,0.20257825,-0.03642802,6.0465623e-05,-9.697216,16.049515,0.24987403,0.22403434,0.1110763,0.064550504,inf,inf,inf,inf,1,1,1,1,3,2,3,2,3,1,1,1,0,0,0
268543964,268543648,42042860,60.1877325,24.832678599999998,-5.811193,-14.307169,-18.86835,0.22263904,0.116216525,-4.172325e-07,0.0035836813,0.15143032,-0.14265388,-0.025562061,-0.025598146,0.051155806,0.014507944,-1.9969149,0.79312575,-0.6199585,-1.9438809,0.00065117964,0.18920277,-0.03642802,6.0322036e-05,-9.697216,16.061953,0.24994723,0.22392014,0.11061331,0.06451667,inf,inf,inf,inf,1,1,1,1,3,2,3,2,3,1,1,1,0,0,0
269043928,269043648,42042860,60.1877325,24.832678599999998,-5.8039565,-14.180271,-18.873808,0.22263904,0.116216525,-4.172325e-07,0.043817855,0.38818324,-0.19702764,-0.079416014,-0.025598146,0.051155806,0.014507944,2.0736094,-0.4360492,-1.9745061,-1.8990957,0.000646176,0.23673816,-0.03642802,6.031637e-05,-9.697216,16.067411,0.25000972,0.2242521,0.10983966,0.06453868,inf,inf,inf,inf,1,1,1,1,3,2,3,2,3,1,1,1,0,0,0
269543930,269543648,42042860,60.1877325,24.832678599999998,-5.770556,-13.828203,-18.89388,0.22263904,0.116216525,-4.172325e-07,0.11621496,0.8153968,-0.10744187,0.0067197527,-0.025598146,0.051155806,0.014507944,0.5122977,0.52566004,-1.3042854,-1.5474585,0.00063889765,0.5843283,-0.03642802,6.0335402e-05,-9.697216,16.087484,0.2500726,0.22412422,0.11084836,0.064546995,inf,inf,inf,inf,1,1,1,1,3,2,3,2,3,1,1,1,0,0,0
270043954,270043647,42042860,60.1877325,24.832678599999998,-5.7402024,-13.396316,-18.894985,0.22263904,0.116216525,-4.172325e-07,0.15130588,0.7615064,-0.09913903,0.0048255357,-0.025598146,0.051155806,0.014507944,-0.62740666,-0.56353116,-0.9958099,-1.102231,0.0006345159,1.0278072,-0.03642802,6.022927e-05,-9.697216,16.088589,0.25017792,0.22401085,0.11018988,0.06451205,inf,inf,inf,inf,1,1,1,1,3,2,3,2,3,1,1,1,0,0,0
270543951,270543683,42042860,60.1877325,24.832678599999998,-5.701336,-13.043293,-18.895323,0.22263904,0.116216525,-4.172325e-07,0.14837883,0.5624937,-0.10097901,-0.00071046536,-0.025598146,0.051155806,0.014507944,1.9410089,-2.1610794,0.66422164,-0.5953016,0.00064101693,1.533613,-0.03642802,5.8765618e-05,-9.697216,16.088926,0.25023913,0.22432934,0.112372585,0.06451428,inf,inf,inf,inf,1,1,1,1,3,2,3,2,3,1,1,1,0,0,0
271043919,271043648,42042860,60.1877325,24.832678599999998,-5.67602,-12.813683,-18.89429,0.22263904,0.116216525,-4.172325e-07,0.09425888,0.38641328,-0.095571265,0.0035453,-0.025598146,0.051155806,0.014507944,1.5573324,-0.6099519,3.0873559,-0.069535695,0.0006508257,2.0595345,-0.03642802,5.4404467e-05,-9.697216,16.087894,0.25030825,0.22418365,0.11881018,0.06451824,inf,inf,inf,inf,1,1,1,1,3,2,3,2,3,1,1,1,0,0,0
272043965,272043647,42042860,60.1877325,24.832678599999998,-5.6560087,-12.716451,-18.916313,0.22263904,0.116216525,-4.172325e-07,0.027687307,0.13394113,-0.06395331,0.027797848,-0.025598146,0.051155806,0.014507944,-1.2964615,-0.82752186,1.0567073,0.9000674,0.00066544337,3.0282393,-0.03642802,3.8556267e-05,-9.697216,16.109917,0.25071427,0.22436844,0.13224415,0.06467964,inf,inf,inf,inf,1,1,1,1,3,2,3,2,3,1,1,1,0,0,0
272543922,272543648,42042860,60.1877325,24.832678599999998,-5.6230264,-12.7370205,-18.911325,0.22263904,0.116216525,-4.172325e-07,0.027636008,0.08220544,-0.09389255,-0.0074756844,-0.025598146,0.051155806,0.014507944,1.3121141,-1.3075591,-1.9248674,1.3775619,0.000673254,-2.7787788,-0.03642802,3.1153504e-05,-9.697216,16.104929,0.25085258,0.22421582,0.13304551,0.06463825,inf,inf,inf,inf,1,1,1,1,3,2,3,2,3,1,1,1,0,0,0
273043943,273043648,42042860,60.1877325,24.832678599999998,-5.603743,-12.787101,-18.919312,0.22263904,0.116216525,-4.172325e-07,-0.0059985486,0.06550861,-0.056239657,0.018127706,-0.025598146,0.051155806,0.014507944,1.9459335,1.0799611,-1.6074868,1.8719574,0.0006818603,-2.284816,-0.03642802,2.5940788e-05,-9.697216,16.112915,0.2511187,0.22412494,0.13109398,0.064619005,inf,inf,inf,inf,1,1,1,1,3,2,3,2,3,1,1,1,0,0,0
274043923,274043647,42042860,60.1877325,24.832678599999998,-5.596191,-12.796653,-18.921782,0.22263904,0.116216525,-4.172325e-07,-0.02896867,0.055118833,-0.05941495,-0.008215816,-0.025598146,0.051155806,0.014507944,-1.466284,-1.2397612,-0.8941562,2.7879696,0.000698768,-1.3687435,-0.03642802,2.105723e-05,-9.697216,16.115385,0.25406712,0.22550362,0.12522039,0.06508054,inf,inf,inf,inf,1,1,1,1,3,2,3,2,3,1,1,1,0,0,0
274543927,274543647,42042860,60.1877325,24.832678599999998,-5.611964,-12.778435,-18.924536,0.22263904,0.116216525,-4.172325e-07,-0.03345683,0.011957666,-0.08153211,-0.022169197,-0.025598146,0.051155806,0.014507944,-1.9520441,-1.5376188,0.7414683,-2.998109,0.00070622005,-0.87135834,-0.03642802,2.012097e-05,-9.697216,16.11814,0.2553432,0.22605346,0.12137402,0.06525405,inf,inf,inf,inf,1,1,1,1,3,2,3,2,3,1,1,1,0,0,0
275043955,275043647,42042860,60.1877325,24.832678599999998,-5.612915,-12.767839,-18.930935,0.22263904,0.116216525,-4.172325e-07,0.011034041,-0.022054516,-0.083639525,-0.021733781,-0.025598146,0.051155806,0.014507944,1.8345886,0.12703046,-1.5181404,-2.4702673,0.00071258197,-0.34313172,-0.03642802,1.9790654e-05,-9.697216,16.124538,0.25705916,0.22689955,0.118163005,0.06553491,inf,inf,inf,inf,1,1,1,1,3,2,3,2,3,1,1,1,0,0,0
275543926,275543648,42042860,60.1877325,24.832678599999998,-5.598157,-12.792999,-18.944761,0.22263904,0.116216525,-4.172325e-07,0.037332874,-0.08960994,-0.10833991,-0.043973498,-0.025598146,0.051155806,0.014507944,-1.7698053,1.6967367,1.8334677,-1.9421896,0.0007177301,0.1852084,-0.03642802,1.947314e-05,-9.697216,16.138365,0.25702208,0.2277717,0.113097094,0.06545449,inf,inf,inf,inf,1,1,1,1,3,2,3,2,3,1,1,1,0,0,0
276043937,276043647,42042860,60.1877325,24.832678599999998,-5.6203685,-12.849787,-18.943954,0.22263904,0.116216525,-4.172325e-07,0.0008003757,-0.100989476,-0.07948319,-0.0038295076,-0.025598146,0.051155806,0.014507944,-1.4358624,-2.00264,-2.997322,-1.4895314,0.0007224122,0.6391599,-0.03642802,1.9587864e-05,-9.697216,16.137558,0.25848198,0.22876851,0.11150401,0.065717034,inf,inf,inf,inf,1,1,1,1,3,2,3,2,3,1,1,1,0,0,0
276543922,276543647,42042860,60.1877325,24.832678599999998,-5.6413784,-12.896327,-18.936693,0.22263904,0.116216525,-4.172325e-07,0.019701853,-0.03412685,-0.07694405,0.0039441977,-0.025598146,0.051155806,0.014507944,1.7110678,-1.5666068,-0.36775264,-0.98649263,0.0007281618,1.1435355,-0.03642802,1.9689945e-05,-9.697216,16.130297,0.25969532,0.22968218,0.11060868,0.06587929,inf,inf,inf,inf,1,1,1,1,3,2,3,2,3,1,1,1,0,0,0
277043920,277043648,42042860,60.1877325,24.832678599999998,-5.6408634,-12.918701,-18.92366,0.22263904,0.116216525,-4.172325e-07,0.015621745,-0.0068906345,-0.09423428,-0.008052232,-0.025598146,0.051155806,0.014507944,2.2917016,1.2145678,-2.9246445,-0.48344335,0.0007355984,1.647706,-0.03642802,1.9626455e-05,-9.697216,16.117264,0.25963312,0.23051326,0.10921382,0.06575535,inf,inf,inf,inf,1,1,1,1,3,2,3,2,3,1,1,1,0,0,0
