timestamp,accel_device_id,gyro_device_id,accel_clipping[0],accel_clipping[1],accel_clipping[2],gyro_clipping[0],gyro_clipping[1],gyro_clipping[2],accel_error_count,gyro_error_count,accel_rate_hz,gyro_rate_hz,accel_raw_rate_hz,gyro_raw_rate_hz,accel_vibration_metric,gyro_vibration_metric,delta_angle_coning_metric,mean_accel[0],mean_accel[1],mean_accel[2],mean_gyro[0],mean_gyro[1],mean_gyro[2],var_accel[0],var_accel[1],var_accel[2],var_gyro[0],var_gyro[1],var_gyro[2],temperature_accel,temperature_gyro
200898784,3407890,3407890,0,0,0,0,0,0,0,0,800.0,800.0,6412.373,6412.373,0.33055016,0.0051447656,1.9641815e-10,-0.1226811,0.3739101,-9.922067,-0.010190833,-0.0033554786,-0.001046982,3.40151,1.2914387,0.8389669,0.0013356494,0.00050911185,0.00027640947,22.715847,22.715847
201938796,3407890,3407890,0,0,0,0,0,0,0,0,800.0,800.0,6412.3613,6412.3613,0.42483652,0.006765166,2.2970174e-10,-0.0672922,0.36845642,-9.936682,-0.010919409,-0.0027382185,-0.00051398313,3.9761167,1.1130452,2.341527,0.0008566124,0.0005962722,0.00014858256,22.720568,22.720568
202973788,3407890,3407890,0,0,0,0,0,0,0,0,800.0,800.0,6412.363,6412.363,0.4898317,0.0081572635,2.7820987e-10,-0.119769454,0.37166098,-9.917447,-0.011949466,-0.0029747623,-0.0008611522,4.2617183,1.3016148,1.8033243,0.00092924153,0.00057771575,0.00013695698,22.738941,22.738941
203908782,3407890,3407890,0,0,0,0,0,0,0,0,800.0,800.0,6412.377,6412.377,0.6544209,0.011843272,9.305132e-10,-0.04463548,0.37869573,-9.912805,-0.009963916,-0.0027667775,-0.00060386304,10.140167,17.528723,2.4783452,0.0041613327,0.0008885667,0.00037847695,22.740667,22.740667
204953790,3407890,3407890,0,0,0,0,0,0,0,0,800.0,800.0,6412.3906,6412.3906,3.578318,0.052102897,6.624358e-09,-0.0976402,0.19313736,-9.85631,-0.006427738,-0.0045762407,0.0016023668,32.945145,23.35752,29.971308,0.008799795,0.010658029,0.0016186967,22.747799,22.747799
205993780,3407890,3407890,0,0,0,0,0,0,0,0,800.0,800.0,6412.3984,6412.3984,3.9801471,0.06082046,3.9495763e-08,-0.10315101,0.23307225,-10.071329,-0.1715892,-0.1284744,0.11814513,80.47835,39.370625,59.800396,0.05588712,0.027826546,0.008760813,22.727861,22.727861
206938780,3407890,3407890,0,0,0,0,0,0,0,0,800.0,800.0,6412.3857,6412.3857,4.6512437,0.078394346,3.407677e-08,0.040873762,0.18790966,-10.56828,0.05858002,-0.017548954,0.03845533,109.79037,51.823227,73.829956,0.034466162,0.036299456,0.005466137,22.761148,22.761148
207978778,3407890,3407890,0,0,0,0,0,0,0,0,800.0,800.0,6412.4033,6412.4033,3.7052386,0.06176222,4.7346987e-08,-0.06275502,0.1422145,-10.086302,0.13368173,0.02154735,-0.17050762,54.03604,41.35977,33.329346,0.03252543,0.012116994,0.004645413,22.738369,22.738369
208923778,3407890,3407890,0,0,0,0,0,0,0,0,800.0,800.0,6412.398,6412.398,4.2641935,0.07420063,5.050364e-08,-0.30406696,-0.12675957,-10.184973,-0.004786305,-0.19181284,0.018502695,95.34743,39.708218,56.813473,0.029575635,0.020033574,0.00328755,22.748573,22.748573
209968793,3407890,3407890,0,0,0,0,0,0,0,0,800.0,800.0,6412.4053,6412.4053,3.9604576,0.06408359,5.0449582e-08,-0.5119368,0.016649067,-10.077476,-0.016229546,0.13176283,0.120410115,114.17761,58.24266,71.39975,0.028393876,0.0501782,0.014403172,22.738934,22.738934
211953787,3407890,3407890,0,0,0,0,0,0,0,0,800.0,800.0,6412.399,6412.399,4.6883497,0.07101011,5.0774116e-08,-0.35675824,0.069929376,-8.050931,-0.0780161,-0.06212461,-0.078190774,170.10252,82.75231,71.37354,0.03872554,0.031473625,0.007414908,22.74811,22.74811
212898779,3407890,3407890,0,0,0,0,0,0,0,0,800.0,800.0,6412.39,6412.39,4.879458,0.080020666,7.389666e-08,-0.8639828,0.44437134,-10.57857,-0.033455122,0.13032322,-0.020846607,357.66882,206.62648,234.99324,0.13556857,0.10994317,0.021010105,22.770521,22.770521
213933781,3407890,3407890,0,0,0,0,0,0,0,0,800.0,800.0,6412.3896,6412.3896,4.325883,0.07193841,3.3283165e-08,-0.3184299,0.24966905,-9.958625,0.038972594,-0.064854555,0.04512482,137.79881,56.840206,84.23008,0.058451448,0.041243453,0.005155778,22.760014,22.760014
214973781,3407890,3407890,0,0,0,0,0,0,0,0,800.0,800.0,6412.407,6412.407,4.1505055,0.067435786,3.8315996e-08,-0.45450506,0.003393352,-10.006219,-0.03004644,0.040441312,-0.027669081,207.92917,132.26424,105.60429,0.1032866,0.05142228,0.00995887,22.754475,22.754475
215913780,3407890,3407890,0,0,0,0,0,0,0,0,800.0,800.0,6412.399,6412.399,5.5513005,0.0783533,9.966841e-08,-0.6569777,-0.0012416169,-9.830744,-0.1663639,-0.04199952,-0.13771623,920.54767,188.50073,279.73566,0.09060129,0.18159418,0.00954213,22.756344,22.756344
216953782,3407890,3407890,0,0,0,0,0,0,0,0,800.0,800.0,6412.399,6412.399,6.153591,0.09651822,1.8392497e-07,-0.893494,0.27776638,-10.030136,0.054433376,0.43809256,0.013130204,851.0683,257.66916,216.80278,0.17506212,0.21323358,0.03572365,22.765154,22.765154
217898779,3407890,3407890,0,0,0,0,0,0,0,0,800.0,800.0,6412.386,6412.386,7.849171,0.11517706,3.2982976e-07,-0.43447706,0.38350135,-10.143125,0.019955102,-0.8170546,0.008077877,813.3759,368.62695,240.90962,0.21637383,0.14277346,0.024363836,22.751173,22.751173
218943778,3407890,3407890,0,0,0,0,0,0,0,0,800.0,800.0,6412.4053,6412.4053,7.377592,0.11334533,9.40512e-08,-1.0415819,0.40818527,-10.573451,-0.05791973,-0.07076559,-0.06651552,691.47144,409.51324,309.38446,0.22475383,0.20545326,0.038870208,22.769669,22.769669
219983782,3407890,3407890,0,0,0,0,0,0,0,0,800.0,800.0,6412.4116,6412.4116,6.8774767,0.10364996,9.379691e-08,-1.4171147,0.13259602,-9.146469,-0.12652667,-0.13129424,-0.0056760185,770.1484,172.83252,293.61337,0.16232757,0.17022488,0.017731749,22.761948,22.761948
220923782,3407890,3407890,0,0,0,0,0,0,0,0,800.0,800.0,6412.412,6412.412,6.788426,0.109178685,8.412581e-08,-0.30899513,0.09473267,-9.759276,0.06552024,0.16515595,0.015606904,470.78937,309.06442,255.07202,0.17564611,0.12595797,0.026529817,22.76994,22.76994
221973784,3407890,3407890,0,0,0,0,0,0,0,0,800.0,800.0,6412.41,6412.41,6.0503945,0.08984932,6.0509336e-08,-0.3087485,0.51097864,-10.221101,0.103933334,-0.0900735,0.07031884,371.4462,161.29631,227.65068,0.13283513,0.05491665,0.018666297,22.761656,22.761656
222913806,3407890,3407890,0,0,0,0,0,0,0,0,799.9995,799.9995,6412.4185,6412.4185,4.4086914,0.06960009,3.3502314e-08,-0.28829882,0.005349405,-9.826879,-0.081283204,0.039463542,-0.056380406,90.56094,31.307287,88.67566,0.027795553,0.038836822,0.0037444548,22.769627,22.769627
223953829,3407890,3407890,0,0,0,0,0,0,0,0,800.0,800.0,6412.4155,6412.4155,4.150179,0.06363033,5.987906e-08,-0.02242823,0.14033133,-9.775669,-0.13667043,-0.08750065,-0.06808575,117.43957,66.63224,89.85738,0.040235046,0.045572326,0.00581438,22.76769,22.76769
224998780,3407890,3407890,0,0,0,0,0,0,0,0,800.0,800.0,6412.4023,6412.4023,3.8163915,0.060669415,2.0064563e-08,-0.38930243,0.0840951,-9.908404,0.053995524,-0.037962988,-0.025757257,145.27643,26.849916,99.4237,0.030077858,0.04855646,0.004591049,22.774885,22.774885
225938788,3407890,3407890,0,0,0,0,0,0,0,0,800.0,800.0,6412.4136,6412.4136,3.7022245,0.062011342,3.0290483e-08,-0.44678864,-0.07097249,-10.261011,0.096217275,0.06149474,-0.023034712,110.13335,38.979477,69.466805,0.035269275,0.06390511,0.007454642,22.774624,22.774624
226988782,3407890,3407890,0,0,0,0,0,0,0,0,800.0,800.0,6412.4097,6412.4097,4.3332243,0.07159554,4.233923e-08,-0.39840057,-0.30627626,-9.902498,-0.010311897,0.121598616,-0.09044393,175.63367,45.452244,90.04029,0.03389289,0.06878343,0.00810048,22.765608,22.765608
227928812,3407890,3407890,0,0,0,0,0,0,0,0,800.0,800.0,6412.4126,6412.4126,4.433057,0.0793248,4.433787e-08,-0.48801315,-0.41831142,-9.887186,0.07357824,-0.006014831,0.08302083,202.24294,83.500206,93.336716,0.074017674,0.0558677,0.005893694,22.764383,22.764383
228978779,3407890,3407890,0,0,0,0,0,0,0,0,800.0,800.0,6412.399,6412.399,4.3221617,0.074686706,6.4629404e-08,-0.22536805,0.02857817,-9.961167,0.029481553,0.05106857,-0.1364426,223.98961,45.57476,119.9726,0.08337209,0.06707404,0.008224984,22.747501,22.747501
229923778,3407890,3407890,0,0,0,0,0,0,0,0,800.0,800.0,6412.396,6412.396,4.352424,0.07556225,3.4592645e-08,-0.5092131,-0.06267215,-10.137232,-0.036550723,-0.05068787,-0.056752574,208.5811,53.157223,112.238205,0.045293316,0.082285605,0.011786025,22.747744,22.747744
230968784,3407890,3407890,0,0,0,0,0,0,0,0,800.0,800.0,6412.4004,6412.4004,4.500265,0.074868985,1.4667326e-07,-0.67109436,0.10726091,-8.673199,0.07796896,0.33311233,0.034161873,259.17245,74.716675,133.50954,0.06457256,0.16584216,0.0068011093,22.74534,22.74534
231908782,3407890,3407890,0,0,0,0,0,0,0,0,800.0,800.0,6412.411,6412.411,4.0376573,0.06674629,3.5966572e-08,-0.16708031,0.20716114,-9.73513,-0.067712024,0.052152436,0.006347757,228.54553,56.05903,126.66051,0.09631836,0.09092317,0.010241681,22.729715,22.729715
232953783,3407890,3407890,0,0,0,0,0,0,0,0,800.0,800.0,6412.404,6412.404,3.8323529,0.06580073,5.0840143e-08,-0.4763319,-0.10429103,-9.286324,-0.005156761,0.18724732,-0.075807676,76.06169,46.87814,54.188217,0.048898563,0.05072164,0.0047047255,22.737007,22.737007
234948784,3407890,3407890,0,0,0,0,0,0,0,0,800.0,800.0,6412.3896,6412.3896,4.0049763,0.07158006,8.924098e-08,0.33059692,-0.12194684,-10.106586,-0.0432318,0.09915037,0.003072644,151.82408,53.605915,84.253235,0.038596705,0.20648965,0.0072437343,22.731686,22.731686
235993797,3407890,3407890,0,0,0,0,0,0,0,0,800.0,800.0,6412.388,6412.388,4.188125,0.072662845,6.373823e-08,-0.008107118,0.08106841,-10.297152,0.039333045,-0.14694944,0.093827836,133.8994,91.36416,92.707184,0.048200905,0.05689187,0.007860368,22.727474,22.727474
236933780,3407890,3407890,0,0,0,0,0,0,0,0,800.0,800.0,6412.388,6412.388,4.3464994,0.07591786,1.11628296e-07,0.27842855,0.11043983,-9.924052,0.06884709,0.22058626,0.020408222,160.21216,72.04998,96.53955,0.09089826,0.22108583,0.010489869,22.73565,22.73565
237983807,3407890,3407890,0,0,0,0,0,0,0,0,800.0,800.0,6412.386,6412.386,3.9792473,0.064487696,4.50928e-08,-0.28930664,0.17148912,-10.106503,-0.08748285,-0.061381802,0.029207874,145.07234,99.03069,124.018715,0.08395767,0.041770283,0.008143951,22.7199,22.7199
238928780,3407890,3407890,0,0,0,0,0,0,0,0,800.0,800.0,6412.3984,6412.3984,4.126814,0.06306671,7.751057e-08,-0.16439848,-0.46996665,-9.736883,0.04150437,-0.033531364,-0.07086615,150.40804,102.50554,87.368546,0.1078731,0.06502747,0.006298811,22.736027,22.736027
239978818,3407890,3407890,0,0,0,0,0,0,0,0,799.99963,799.99963,6412.4004,6412.4004,3.8546216,0.06744969,1.05677124e-07,-0.32693642,-0.14506261,-10.682857,-0.3462456,-0.078373626,-0.05256072,115.06744,43.375397,110.842125,0.048158895,0.073145956,0.005845591,22.704159,22.704159
240923778,3407890,3407890,0,0,0,0,0,0,0,0,800.0,800.0,6412.394,6412.394,3.4539132,0.06043479,6.662149e-08,-0.103495866,-0.15488504,-10.160648,-0.20302482,-0.041422933,0.016225085,162.85912,32.035095,96.467125,0.037167273,0.06711195,0.004301996,22.721035,22.721035
241973782,3407890,3407890,0,0,0,0,0,0,0,0,800.0,800.0,6412.389,6412.389,3.2663503,0.057480317,1.5432278e-08,-0.1350509,0.18344527,-9.936931,-0.03512886,0.024660112,0.021853277,108.6073,64.40858,121.447495,0.033127684,0.03642113,0.0075752526,22.698986,22.698986
242908785,3407890,3407890,0,0,0,0,0,0,0,0,800.0,800.0,6412.395,6412.395,3.1933684,0.058106348,3.3099685e-08,-0.29242814,0.16798025,-10.239577,0.025484636,0.04815654,-0.04802767,70.17417,53.380016,75.60909,0.055886634,0.03827885,0.005485987,22.702288,22.702288
243958785,3407890,3407890,0,0,0,0,0,0,0,0,800.0,800.0,6412.397,6412.397,4.5113044,0.08144879,1.8651347e-07,-0.42415234,0.4778224,-10.223072,0.32081535,0.13021636,0.027491868,333.05594,123.15825,238.33035,0.12108413,0.13941622,0.011791778,22.687449,22.687449
244903782,3407890,3407890,0,0,0,0,0,0,0,0,800.0,800.0,6412.3857,6412.3857,4.748794,0.074628435,4.969078e-08,-0.29009062,0.35389227,-9.812702,0.057257947,0.00014689437,0.024293859,297.49075,126.28111,142.42743,0.087166324,0.11082342,0.01664212,22.677494,22.677494
245953782,3407890,3407890,0,0,0,0,0,0,0,0,800.0,800.0,6412.3877,6412.3877,4.1297975,0.065477036,4.548813e-08,-0.15099609,0.19531327,-9.920216,-0.08181525,-0.025779795,-0.010701684,196.0329,47.317448,129.23041,0.045368217,0.08639082,0.008843969,22.700792,22.700792
246993780,3407890,3407890,0,0,0,0,0,0,0,0,800.0768,800.0768,6410.4297,6410.4297,3.8915935,0.07878997,1.9498297e-07,-0.054168556,-0.13363941,-10.161473,-0.74973726,-0.27942407,-0.043637,133.52797,29.236654,112.85384,0.04156658,0.0573377,0.0030668399,22.659363,22.659363
247938786,3407890,3407890,0,0,0,0,0,0,0,0,800.01447,800.01447,6412.113,6412.113,3.1882985,0.0553957,2.4829877e-08,-0.28039995,-0.124392755,-10.523697,-0.112071335,-0.046257596,-0.019654812,94.26502,35.739616,82.7758,0.028678423,0.038749762,0.002140311,22.667585,22.667585
248988783,3407890,3407890,0,0,0,0,0,0,0,0,800.00757,800.00757,6412.421,6412.421,3.328636,0.054793738,1.6871631e-08,-0.1876826,0.10038589,-10.0409355,0.023092281,0.010549223,0.063867815,33.142616,18.886906,36.036057,0.011786401,0.010826845,0.003452382,22.65928,22.65928
249928812,3407890,3407890,0,0,0,0,0,0,0,0,800.0053,800.0053,6412.375,6412.375,3.6246078,0.055926543,2.7205019e-08,-0.5177754,0.11852677,-9.952917,0.019062268,0.09230945,-0.017699836,100.51432,51.38329,85.73455,0.03509254,0.032267846,0.008955835,22.654764,22.654764
250978783,3407890,3407890,0,0,0,0,0,0,0,0,800.0042,800.0042,6412.481,6412.481,4.0284324,0.05553284,2.2205395e-08,-0.37428203,0.09690855,-9.61046,0.031219298,-0.009411421,0.0045499415,204.0724,31.513233,138.03687,0.036782704,0.07423312,0.008340607,22.654112,22.654112
251923778,3407890,3407890,0,0,0,0,0,0,0,0,800.0033,800.0033,6412.4707,6412.4707,3.8031645,0.060145583,3.1835253e-08,-0.60226744,-0.006223783,-9.883276,0.020765098,-0.0013071093,0.011056221,238.46832,93.49688,150.91875,0.059833456,0.06765193,0.015131519,22.676771,22.676771
252973779,3407890,3407890,0,0,0,0,0,0,0,0,800.00275,800.00275,6412.2974,6412.2974,4.0219636,0.062212996,3.3453396e-08,-0.55214,-0.09813,-10.1939125,-0.024475334,0.022810861,0.023215283,205.15921,58.293285,178.39897,0.06667395,0.081811,0.011079729,22.638586,22.638586
253908813,3407890,3407890,0,0,0,0,0,0,0,0,800.0023,800.0023,6412.417,6412.417,4.5793996,0.064440496,5.6845657e-08,-0.22861476,-0.028519481,-10.043241,-0.18145104,-0.049862027,0.07400074,208.75629,79.798355,175.54796,0.07756618,0.04657441,0.014439295,22.639942,22.639942
254953782,3407890,3407890,0,0,0,0,0,0,0,0,800.002,800.002,6412.35,6412.35,4.9184217,0.06881272,4.786533e-08,-0.53965914,0.17510632,-10.511724,0.10835305,0.017434945,-0.033820868,496.32123,249.43817,272.39508,0.092423156,0.0921685,0.024083657,22.640821,22.640821
255983778,3407890,3407890,0,0,0,0,0,0,0,0,800.0019,800.0019,6412.318,6412.318,6.1941166,0.09290757,4.964518e-08,-0.5506348,0.38296044,-10.449444,0.10764065,-0.0006056158,-0.0046599256,245.68034,175.3054,184.57162,0.13422997,0.079560004,0.021674838,22.646238,22.646238
257968789,3407890,3407890,0,0,0,0,0,0,0,0,800.00146,800.00146,6412.291,6412.291,5.594769,0.0908106,2.0330552e-07,-0.7690588,0.012558997,-12.39437,0.42120948,0.2806632,0.0074159764,1214.4277,243.5902,351.78827,0.10389697,0.12132643,0.06837516,22.614834,22.614834
258903778,3407890,3407890,0,0,0,0,0,0,0,0,800.00146,800.00146,6412.3413,6412.3413,4.069973,0.06947207,4.051233e-08,-0.43413526,-0.06913461,-9.584451,-0.072478645,0.04353288,-0.016834976,166.39449,58.285366,100.90383,0.06367713,0.048756983,0.009950401,22.61237,22.61237
259953783,3407890,3407890,0,0,0,0,0,0,0,0,800.0012,800.0012,6412.3267,6412.3267,3.830189,0.0641766,2.6365525e-08,-0.5509068,0.2855881,-9.973103,-0.007388275,-0.051643882,0.011745714,289.49747,33.804726,237.08273,0.04055564,0.11260654,0.0061822548,22.615744,22.615744
260898780,3407890,3407890,0,0,0,0,0,0,0,0,800.00116,800.00116,6412.405,6412.405,4.579821,0.07558704,8.900601e-08,-0.4200552,0.48539785,-9.4540415,-0.15081502,0.01652667,-0.043923844,347.11118,89.69717,161.45186,0.10150884,0.15365867,0.011130637,22.612507,22.612507
261943785,3407890,3407890,0,0,0,0,0,0,0,0,800.0011,800.0011,6412.4097,6412.4097,4.1908135,0.07248859,5.5631006e-08,-0.38772395,0.13820659,-10.09558,0.093694754,-0.060147285,0.009320529,183.27324,59.542946,145.33852,0.059094492,0.09327589,0.010948697,22.600563,22.600563
262993781,3407890,3407890,0,0,0,0,0,0,0,0,800.00104,800.00104,6412.398,6412.398,4.4018965,0.07057459,3.7965574e-08,-0.9090047,0.41934255,-9.973857,-0.011299809,0.082287244,0.02992811,215.0431,106.50055,153.07982,0.0992486,0.0803354,0.010668623,22.607334,22.607334
263938780,3407890,3407890,0,0,0,0,0,0,0,0,800.00104,800.00104,6412.392,6412.392,4.9866834,0.076772705,4.0933948e-08,-0.38297406,0.2801718,-9.577454,0.041733295,-0.04247944,-0.044812184,247.69325,84.641655,188.3716,0.094848245,0.08900537,0.006894525,22.593521,22.593521
264978782,3407890,3407890,0,0,0,0,0,0,0,0,800.0009,800.0009,6412.4272,6412.4272,4.5061703,0.077145904,2.968267e-08,-0.7757136,-0.08986938,-9.457694,0.050829448,0.018693054,0.03190495,268.54617,71.24011,208.7275,0.09559373,0.09559779,0.0100549115,22.586487,22.586487
265913781,3407890,3407890,0,0,0,0,0,0,0,0,800.00085,800.00085,6412.4185,6412.4185,4.5143204,0.07635098,5.6797802e-08,-0.88680685,0.0710267,-10.0986185,-0.0035572844,0.14981204,0.013726257,256.10486,111.12269,177.28279,0.09453456,0.067024045,0.01409251,22.585043,22.585043
266958781,3407890,3407890,0,0,0,0,0,0,0,0,800.00085,800.00085,6412.452,6412.452,4.51001,0.075286515,2.9374695e-08,-0.51216084,0.123718545,-10.078276,0.029106151,-0.0004772325,-0.00998218,178.07422,48.948444,182.70966,0.09906674,0.08326279,0.0053780437,22.552359,22.552359
267903780,3407890,3407890,0,0,0,0,0,0,0,0,800.0008,800.0008,6412.4497,6412.4497,3.5953388,0.061565567,3.989143e-08,-0.18047279,0.3360279,-10.10614,-0.0051273284,-0.09657815,0.00956006,122.062614,50.68197,124.02781,0.056204945,0.059302602,0.00536597,22.580153,22.580153
268943795,3407890,3407890,0,0,0,0,0,0,0,0,800.0008,800.0008,6412.46,6412.46,3.9098244,0.06829979,2.9153767e-07,0.13060054,0.63060665,-10.3212595,-0.24562213,1.0239272,0.18238956,237.83717,112.66827,237.70795,0.058593933,0.14007923,0.019190716,22.581394,22.581394
269993780,3407890,3407890,0,0,0,0,0,0,0,0,800.00073,800.00073,6412.4517,6412.4517,4.088155,0.063972734,2.9728338e-07,0.14579304,0.28825578,-9.959757,-0.05465106,-0.080787934,0.93953216,71.18084,30.18351,50.035484,0.04786636,0.030260174,0.009765215,22.560398,22.560398
270933781,3407890,3407890,0,0,0,0,0,0,0,0,800.00073,800.00073,6412.5063,6412.5063,3.7255387,0.06653162,3.6944562e-07,0.26723292,0.098931976,-9.998907,-0.05264502,-0.026917068,1.0528858,60.59565,40.057957,59.371796,0.030273618,0.055497292,0.0066617345,22.572971,22.572971
271983779,3407890,3407890,0,0,0,0,0,0,0,0,800.00073,800.00073,6412.4937,6412.4937,3.75821,0.064739436,5.7233086e-07,0.32696348,0.081315145,-9.704445,-0.03609311,-0.015046021,0.9297799,154.50264,79.197334,79.307556,0.057620857,0.13609047,0.004625275,22.550169,22.550169
272928782,3407890,3407890,0,0,0,0,0,0,0,0,800.0006,800.0006,6412.484,6412.484,3.8971176,0.060846347,3.8098185e-07,0.5657683,-0.1920012,-9.729929,-0.007036114,-0.03439415,0.9940011,145.87126,62.086918,140.66449,0.043547254,0.07093065,0.007834218,22.551584,22.551584
273978782,3407890,3407890,0,0,0,0,0,0,0,0,800.0006,800.0006,6412.473,6412.473,3.9753008,0.063658044,3.9513435e-07,0.09410758,-0.23929083,-9.856311,-0.0047594397,0.0051272945,0.9146408,218.41096,96.73536,172.38081,0.051065143,0.07934325,0.007991534,22.549068,22.549068
274918791,3407890,3407890,0,0,0,0,0,0,0,0,800.0006,800.0006,6412.502,6412.502,3.639673,0.060115673,3.603776e-07,-0.13455415,-0.17836559,-9.741446,-0.043388166,-0.03286237,1.0541893,100.44709,63.28994,98.13501,0.056832474,0.039696734,0.004644547,22.530552,22.530552
275968781,3407890,3407890,0,0,0,0,0,0,0,0,800.00055,800.00055,6412.437,6412.437,4.191795,0.06154076,4.145261e-07,-0.11964485,0.11931672,-10.093033,0.035737317,0.0452626,0.9112168,219.93274,94.6596,166.68233,0.0824344,0.10252243,0.014948298,22.5232,22.5232
276908791,3407890,3407890,0,0,0,0,0,0,0,0,800.00055,800.00055,6412.4355,6412.4355,4.4893436,0.07476662,5.7249764e-07,-0.025892511,0.36812925,-10.037898,0.0033208814,0.021051377,0.98576444,376.7188,60.40886,159.49118,0.0729152,0.13586599,0.0072353403,22.532331,22.532331
277958790,3407890,3407890,0,0,0,0,0,0,0,0,800.00055,800.00055,6412.436,6412.436,4.653964,0.07706799,3.3147323e-08,0.31958324,0.034984253,-9.912571,0.049206592,0.051577225,0.033966262,188.89827,88.80525,112.11903,0.07179983,0.065096036,0.0127557395,22.516663,22.516663
278898779,3407890,3407890,0,0,0,0,0,0,0,0,800.00055,800.00055,6412.423,6412.423,4.5232844,0.06724571,5.19973e-08,0.31976658,0.34098884,-9.994667,-0.06343236,0.011556818,-0.0494919,297.14658,119.12416,125.23915,0.07871309,0.098579526,0.012222419,22.496773,22.496773
280988782,3407890,3407890,0,0,0,0,0,0,0,0,800.0005,800.0005,6412.42,6412.42,5.7875266,0.08504672,4.6739892e-08,0.9861022,0.42008397,-10.085862,-0.040978413,0.04088265,0.037511658,681.06604,154.91824,235.85071,0.08212734,0.106115565,0.017571844,22.506672,22.506672
281933785,3407890,3407890,0,0,0,0,0,0,0,0,800.00037,800.00037,6412.4355,6412.4355,5.6572165,0.082181476,3.588021e-08,0.55624795,0.451953,-9.8979225,-0.02562683,0.04410687,-0.004886087,715.06934,127.541985,190.96483,0.13110586,0.09594932,0.016636267,22.477634,22.477634
282978779,3407890,3407890,0,0,0,0,0,0,0,0,800.0005,800.0005,6412.4053,6412.4053,5.454691,0.07981992,3.427803e-08,0.5840061,0.2652073,-9.776195,0.02913882,-0.028988741,0.009221217,352.74704,110.841606,85.60812,0.085451804,0.086283475,0.021913156,22.456814,22.456814
283918787,3407890,3407890,0,0,0,0,0,0,0,0,800.0005,800.0005,6412.3965,6412.3965,8.760253,0.13329217,1.6586256e-06,0.31615666,0.46627912,-10.166469,-0.08013584,0.32579648,-2.2626398,584.3593,1585.7325,277.19025,0.12849149,0.15001349,0.09145803,22.436878,22.436878
284968781,3407890,3407890,0,0,0,0,0,0,0,0,800.0005,800.0005,6412.3936,6412.3936,6.8307724,0.10769018,8.706822e-08,-0.6591429,0.5750546,-9.628558,0.08482338,0.048832055,-0.1624295,257.10583,154.14592,208.103,0.06056769,0.12950596,0.027880805,22.427082,22.427082
285908782,3407890,3407890,0,0,0,0,0,0,0,0,800.00037,800.00037,6412.426,6412.426,6.541787,0.103908524,8.9970364e-08,-0.48297927,0.23726821,-9.987945,-0.06921632,0.015638767,0.09333931,698.08673,164.9003,270.6207,0.17656814,0.1509626,0.016535468,22.438581,22.438581
286958782,3407890,3407890,0,0,0,0,0,0,0,0,800.00037,800.00037,6412.398,6412.398,6.6746607,0.09335481,5.0977153e-08,-0.14672297,0.6618995,-9.846815,-0.054533042,0.063630484,0.014182959,803.5537,256.56985,268.0614,0.1178386,0.106490165,0.042106457,22.449938,22.449938
287903781,3407890,3407890,0,0,0,0,0,0,0,0,800.00037,800.00037,6412.4097,6412.4097,6.359301,0.092392355,4.8292016e-08,-0.57410157,0.9640578,-9.822233,-0.034027934,0.038161784,-0.034531508,427.8167,239.18178,300.12085,0.117135264,0.09842742,0.035293475,22.446625,22.446625
288953783,3407890,3407890,0,0,0,0,0,0,0,0,800.00037,800.00037,6412.394,6412.394,5.267959,0.086719505,6.219813e-08,-0.45209074,0.42977455,-9.761766,-0.048970662,-0.092603594,-0.06538981,234.28525,126.51583,176.6453,0.091279835,0.06750892,0.0073127076,22.41558,22.41558
289998779,3407890,3407890,0,0,0,0,0,0,0,0,800.00037,800.00037,6412.375,6412.375,5.9876094,0.0905551,2.2042967e-07,-1.0383064,0.3528207,-11.370184,0.3312853,0.26275092,-0.045028128,560.7455,216.8103,253.56087,0.16611847,0.081284076,0.087877676,22.403118,22.403118
290943780,3407890,3407890,0,0,0,0,0,0,0,0,800.00037,800.00037,6412.361,6412.361,4.842502,0.07582584,2.9624896e-08,-0.35374367,0.26011354,-9.608614,-0.005758418,0.06725178,-0.048592728,92.28726,80.37762,77.021675,0.060521096,0.05835226,0.006022286,22.387022,22.387022
291983793,3407890,3407890,0,0,0,0,0,0,0,0,800.00037,800.00037,6412.377,6412.377,4.1659026,0.074116096,8.9574385e-08,-0.34943694,0.122038245,-9.999022,0.07774707,0.16329378,-0.012514234,264.1579,77.89868,154.39574,0.16785812,0.10551789,0.0066365814,22.358204,22.358204
292923779,3407890,3407890,0,0,0,0,0,0,0,0,800.00037,800.00037,6412.3774,6412.3774,6.0813184,0.09317824,5.7424224e-08,0.13852736,0.48959658,-10.167149,-0.08225,-0.016188065,0.024446573,427.0955,184.71222,245.33685,0.12598309,0.18976429,0.03210066,22.363398,22.363398
293963781,3407890,3407890,0,0,0,0,0,0,0,0,800.00037,800.00037,6412.377,6412.377,5.545205,0.09016826,3.1216516e-08,-0.2897265,0.052500308,-10.108259,-0.025207203,-0.054624103,0.06581546,137.70688,61.04425,119.67824,0.058657564,0.062087044,0.013164193,22.340366,22.340366
294898780,3407890,3407890,0,0,0,0,0,0,0,0,800.0003,800.0003,6412.365,6412.365,4.3899436,0.073887534,4.0877715e-08,-0.16410562,0.2919469,-10.359806,-0.036766518,0.018198052,0.025838021,239.63922,90.3139,141.21024,0.095945686,0.08373958,0.008759803,22.316746,22.316746
295948782,3407890,3407890,0,0,0,0,0,0,0,0,800.0003,800.0003,6412.3633,6412.3633,3.6338093,0.06834825,1.14074815e-07,0.022890583,-0.17042646,-10.0748415,-0.51245534,-0.0688319,-0.008396217,114.24838,47.886658,99.34971,0.057317186,0.042288452,0.004614252,22.319519,22.319519
296998779,3407890,3407890,0,0,0,0,0,0,0,0,800.0003,800.0003,6412.3394,6412.3394,6.2250104,0.09101187,2.1149178e-07,0.16680889,0.8300487,-10.29882,0.48965093,-0.15083778,-0.050924655,929.7056,207.24008,184.66779,0.11565336,0.07192679,0.028854644,22.304195,22.304195
298973795,3407890,3407890,0,0,0,0,0,0,0,0,800.0003,800.0003,6412.3545,6412.3545,7.5273175,0.09698211,1.16230545e-07,-0.6008675,0.8630719,-9.21416,-0.021438928,0.100703575,-0.004709559,968.8433,507.85715,331.93466,0.1971042,0.16692221,0.04279998,22.262638,22.262638
299903784,3407890,3407890,0,0,0,0,0,0,0,0,800.0003,800.0003,6412.367,6412.367,8.060709,0.10911972,2.2902444e-07,-1.2717054,0.76871806,-9.637724,0.1541006,0.34460452,-0.064291544,716.76337,718.5351,254.45259,0.16110249,0.15690047,0.051902205,22.274946,22.274946
300928791,3407890,3407890,0,0,0,0,0,0,0,0,800.0003,800.0003,6412.3584,6412.3584,6.4936695,0.090579174,3.854453e-08,-0.06885721,0.31299126,-9.5713005,0.027752433,-0.05793274,0.008095667,1103.6915,219.74808,243.61017,0.11905959,0.25589794,0.014085579,22.25842,22.25842
301958787,3407890,3407890,0,0,0,0,0,0,0,0,800.0003,800.0003,6412.3633,6412.3633,6.5088315,0.08405249,5.692093e-08,-0.25244567,0.5013535,-9.090241,0.031491134,-0.00401505,0.012914392,709.90564,265.88055,259.937,0.1931167,0.18210867,0.017502883,22.238916,22.238916
302983801,3407890,3407890,0,0,0,0,0,0,0,0,800.0003,800.0003,6412.376,6412.376,6.440063,0.08096344,6.856878e-08,-0.51788527,0.26909116,-9.144563,0.033272862,-0.028504375,0.0062566563,932.3337,543.09265,204.18282,0.17741497,0.24452531,0.037380893,22.19552,22.19552
303918779,3407890,3407890,0,0,0,0,0,0,0,0,800.0003,800.0003,6412.376,6412.376,8.178429,0.12346389,1.0941803e-07,-0.19325644,0.07223884,-9.643799,0.040904578,-0.19655247,0.02125234,1225.5654,495.63364,463.87106,0.29867998,0.19078179,0.060600918,22.209433,22.209433
304958779,3407890,3407890,0,0,0,0,0,0,0,0,800.0003,800.0003,6412.361,6412.361,6.8604207,0.12250104,1.21038e-07,0.7621975,0.45605657,-10.190457,0.20445402,-0.14260969,0.07635882,805.85956,361.354,362.62726,0.2636066,0.17854409,0.030196188,22.198471,22.198471
305898787,3407890,3407890,0,0,0,0,0,0,0,0,800.0003,800.0003,6412.3784,6412.3784,6.40605,0.10356567,1.0320805e-07,-0.45103133,-0.22048722,-10.06545,-0.18745393,0.021570329,-0.051836956,556.4553,186.76988,244.46933,0.15850551,0.14958392,0.016778927,22.172577,22.172577
306938804,3407890,3407890,0,0,0,0,0,0,0,0,800.00024,800.00024,6412.381,6412.381,7.068288,0.111988805,8.024589e-08,-0.8068624,0.3211204,-10.458495,-0.07197794,-0.015546302,-0.087983556,528.62225,358.3065,412.4989,0.29372284,0.123278126,0.041354086,22.160748,22.160748
307988783,3407890,3407890,0,0,0,0,0,0,0,0,800.00024,800.00024,6412.3857,6412.3857,9.128886,0.14789459,8.5561474e-08,-0.42966476,-0.11827479,-9.474392,-0.15247376,0.018224435,0.012096685,484.5115,102.036575,193.86018,0.11442066,0.15947133,0.020609254,22.158419,22.158419
308933782,3407890,3407890,0,0,0,0,0,0,0,0,800.00024,800.00024,6412.3687,6412.3687,7.604485,0.12499127,6.399952e-08,0.5039082,-0.15623817,-13.940164,-0.08944427,-0.09004423,0.08739705,758.38385,327.77435,179.55232,0.04786629,0.057770554,0.05095811,22.150084,22.150084
309968781,3407890,3407890,0,0,0,0,0,0,0,0,800.00024,800.00024,6412.3833,6412.3833,8.568324,0.1356002,1.6753916e-07,-0.54482096,-0.9541581,-11.056446,-0.30615598,0.23288581,-0.07232961,1183.121,338.6422,316.82175,0.14041166,0.17383304,0.06335442,22.138737,22.138737
310913782,3407890,3407890,0,0,0,0,0,0,0,0,800.00024,800.00024,6412.3857,6412.3857,5.797768,0.09039841,6.65501e-08,-0.33959228,-0.1808438,-8.096734,-0.22028525,0.11784163,0.038984615,128.84395,67.64101,72.52429,0.046622276,0.04698704,0.0032025082,22.119562,22.119562
311958784,3407890,3407890,0,0,0,0,0,0,0,0,800.00024,800.00024,6412.377,6412.377,6.260183,0.071125716,1.14398624e-07,-0.60353196,0.33103958,-9.059989,0.27469465,-0.093380876,-0.024750995,158.24557,77.18703,94.6093,0.08249831,0.06683591,0.008727489,22.104258,22.104258
312903799,3407890,3407890,0,0,0,0,0,0,0,0,800.00024,800.00024,6412.3633,6412.3633,5.3552847,0.07986818,1.4082407e-07,-0.26251435,0.56705207,-9.622088,-0.29757348,-0.017006692,0.059089184,490.91376,172.16994,203.02962,0.12740329,0.15982693,0.023839427,22.092434,22.092434
313943780,3407890,3407890,0,0,0,0,0,0,0,0,800.00024,800.00024,6412.3716,6412.3716,4.6801534,0.090259224,7.440422e-08,-0.19287546,0.66721743,-10.020741,-0.024160583,0.040716026,-0.019393347,267.06354,122.930244,204.19081,0.15996301,0.10420794,0.020464813,22.05887,22.05887
314988783,3407890,3407890,0,0,0,0,0,0,0,0,800.00024,800.00024,6412.367,6412.367,5.392719,0.09008667,6.126904e-08,-0.24012268,0.6779551,-9.94445,0.17758545,0.011714946,-0.018918889,216.65276,109.632454,173.56723,0.08863422,0.050543915,0.013422376,22.05327,22.05327
315923804,3407890,3407890,0,0,0,0,0,0,0,0,800.00024,800.00024,6412.376,6412.376,4.761087,0.08192085,1.195316e-07,0.07782763,0.8359577,-9.822338,-0.15037602,-0.043118764,0.048833404,470.3766,89.38584,268.7635,0.09580786,0.15741745,0.017487774,22.050266,22.050266
316968781,3407890,3407890,0,0,0,0,0,0,0,0,800.00024,800.00024,6412.3745,6412.3745,5.150315,0.085562885,4.26718e-08,-0.17364721,0.5312812,-9.741127,-0.11800057,0.017275421,0.01646528,226.91359,177.39774,199.41525,0.1016216,0.05276385,0.016621899,22.019894,22.019894
317908781,3407890,3407890,0,0,0,0,0,0,0,0,800.00024,800.00024,6412.3896,6412.3896,6.0708823,0.0894967,7.7721666e-08,0.10855481,0.51150465,-10.271242,-0.07975938,0.07801403,-0.041758403,403.6111,278.0121,128.75171,0.20411064,0.11819005,0.036924627,22.042341,22.042341
318953784,3407890,3407890,0,0,0,0,0,0,0,0,800.00024,800.00024,6412.4126,6412.4126,5.7818804,0.093258746,7.220532e-08,0.02882284,0.19513242,-9.421875,0.033008862,0.06517698,-0.07135936,542.5729,174.33197,336.06622,0.114091285,0.15577185,0.017355347,21.996355,21.996355
319998780,3407890,3407890,0,0,0,0,0,0,0,0,800.00024,800.00024,6412.4116,6412.4116,5.9237556,0.09498862,1.0633324e-07,-0.10879357,0.50014436,-9.946144,0.007058325,0.1323713,0.087465525,727.6184,232.9133,301.65964,0.14166027,0.16773595,0.027141249,22.00401,22.00401
320943782,3407890,3407890,0,0,0,0,0,0,0,0,800.00024,800.00024,6412.417,6412.417,8.372856,0.12386688,2.2586137e-07,-0.16548866,0.7821324,-10.668148,0.10580309,0.14845872,0.20264482,1740.9495,716.1765,520.50854,0.21278642,0.22679432,0.11939715,21.979746,21.979746
321993780,3407890,3407890,0,0,0,0,0,0,0,0,800.00024,800.00024,6412.406,6412.406,8.3806715,0.119032145,2.4190533e-07,0.36923105,0.5349886,-10.161565,0.16069974,0.28926566,-0.071397096,428.00717,338.52417,265.27878,0.22302744,0.15109965,0.055468984,21.98058,21.98058
322938792,3407890,3407890,0,0,0,0,0,0,0,0,800.00024,800.00024,6412.417,6412.417,7.315103,0.11595738,1.0111736e-07,-0.6821764,0.78238344,-10.604852,0.017972972,0.03033183,-0.08486666,801.44916,315.48807,412.6186,0.25028828,0.21042731,0.025010375,21.956472,21.956472
323973782,3407890,3407890,0,0,0,0,0,0,0,0,800.00024,800.00024,6412.409,6412.409,5.250778,0.08351395,4.6603382e-08,-0.07441354,0.06120318,-9.787928,-0.08511694,-0.070008,0.067063294,126.01127,107.29193,153.90176,0.0615056,0.06502032,0.007866527,21.95865,21.95865
324918779,3407890,3407890,0,0,0,0,0,0,0,0,800.00024,800.00024,6412.4214,6412.4214,3.9081967,0.06436909,2.4105095e-08,-0.21866882,0.044991586,-9.618968,-0.025088081,-0.023366123,-0.039021112,127.85745,64.987076,114.2989,0.027874412,0.051053043,0.0027949782,21.93788,21.93788
325963778,3407890,3407890,0,0,0,0,0,0,0,0,800.00024,800.00024,6412.431,6412.431,3.3166835,0.058838557,6.5956954e-08,-0.24570408,-0.010781895,-10.23639,-0.025796331,-0.27998176,-0.022298975,98.36073,46.69717,112.62163,0.05420863,0.045261245,0.004305272,21.914768,21.914768
326898793,3407890,3407890,0,0,0,0,0,0,0,0,800.00024,800.00024,6412.424,6412.424,3.8174086,0.07036424,1.8800808e-08,-0.10639773,-0.19117504,-10.105473,0.031841654,0.029282406,0.0075468207,189.33281,76.78154,136.57434,0.045740828,0.058508493,0.010335415,21.903988,21.903988
327948786,3407890,3407890,0,0,0,0,0,0,0,0,800.00024,800.00024,6412.429,6412.429,4.4383693,0.07571454,3.93334e-08,-0.26113856,-0.37571922,-9.915548,0.029700205,0.028610267,-0.01599303,153.54698,95.38944,133.61662,0.07907605,0.088251635,0.0073416214,21.90696,21.90696
328988790,3407890,3407890,0,0,0,0,0,0,0,0,800.0,800.0,6410.894,6410.894,3.6342468,0.062646456,6.671455e-08,-0.10879138,-0.21427622,-10.045036,-0.0906347,0.15769014,0.024052361,97.53414,62.16411,98.98333,0.083450265,0.044461556,0.006595645,21.865993,21.865993
329928787,3407890,3407890,0,0,0,0,0,0,0,0,800.0,800.0,6412.4775,6412.4775,3.5539062,0.06367709,1.04242325e-07,-0.24605286,-0.4560899,-10.373418,-0.22507049,0.18359672,-0.07770156,106.705925,39.951088,115.9918,0.09001639,0.07909441,0.009265977,21.884045,21.884045
330963783,3407890,3407890,0,0,0,0,0,0,0,0,800.0,800.0,6412.3643,6412.3643,3.796963,0.066766664,1.2529839e-07,-0.42407075,-0.48850632,-9.831217,-0.4343937,0.04767219,-0.06494057,195.37016,96.16432,119.92657,0.095236264,0.05922146,0.0120904185,21.867512,21.867512
331903781,3407890,3407890,0,0,0,0,0,0,0,0,800.00024,800.00024,6412.3306,6412.3306,3.7735145,0.065286376,3.497738e-08,-0.24091326,-0.48212832,-10.232753,-0.06459674,-0.00036135362,0.03592994,111.71018,57.21714,138.07016,0.044019856,0.06159396,0.00859667,21.860285,21.860285
332948789,3407890,3407890,0,0,0,0,0,0,0,0,799.9998,799.9998,6412.262,6412.262,4.109645,0.06912524,2.897493e-08,-0.06055495,-0.04384367,-9.622577,0.0704143,-0.053727783,0.006211241,171.84283,59.52931,127.07395,0.039428484,0.09212796,0.0057200445,21.820766,21.820766
333983783,3407890,3407890,0,0,0,0,0,0,0,0,800.0,800.0,6412.4585,6412.4585,4.3509097,0.072971605,8.209154e-08,-0.36010903,-0.44553697,-10.069493,0.053029433,-0.022778805,0.17295955,129.26746,64.0229,142.8855,0.1393146,0.06190316,0.012076701,21.834385,21.834385
334923784,3407890,3407890,0,0,0,0,0,0,0,0,800.0,800.0,6412.4136,6412.4136,4.275527,0.073016725,7.013823e-08,-0.18945502,0.39573258,-10.447493,-0.01816357,-0.12024859,-0.02611186,338.1905,85.20931,156.752,0.11617617,0.09095432,0.01730123,21.803623,21.803623
335958788,3407890,3407890,0,0,0,0,0,0,0,0,800.0,800.0,6412.468,6412.468,5.256908,0.08697593,1.0888095e-07,-0.42169297,0.0034027845,-9.378323,-0.0063766507,0.23504965,0.086879216,389.4272,98.219894,180.76129,0.10417753,0.11704333,0.0052096006,21.807364,21.807364
336903781,3407890,3407890,0,0,0,0,0,0,0,0,799.99994,799.99994,6412.542,6412.542,5.2994514,0.07378266,8.256971e-08,-0.3301195,0.2774242,-9.489,-0.116724245,-0.05708856,0.10750607,227.56374,275.85532,145.16278,0.057388566,0.07302026,0.015642574,21.795536,21.795536
337948788,3407890,3407890,0,0,0,0,0,0,0,0,799.99994,799.99994,6412.4883,6412.4883,5.133806,0.10463618,1.5764041e-07,-0.21675955,-3.0002565,-9.764919,0.32053697,-0.25126308,0.35307157,211.72502,116.671,81.41014,0.023359636,0.046296295,0.009780834,21.776031,21.776031
339923779,3407890,3407890,0,0,0,0,0,0,0,0,800.00006,800.00006,6412.5444,6412.5444,4.8744493,0.08213316,8.443674e-09,0.036588427,0.40539056,-10.014504,-0.009772459,0.0076033217,-8.6495136e-05,6.3637037,9.725197,30.879007,0.0056890366,0.00809826,0.00052642863,21.7447,21.7447
340968786,3407890,3407890,0,0,0,0,0,0,0,0,800.0,800.0,6412.524,6412.524,3.8523817,0.075435854,1.0595826e-08,0.03863892,0.39203393,-9.835159,-0.010258632,-0.0043326714,-0.0040425197,51.28403,24.651367,38.867817,0.010029293,0.0057896376,0.0032527384,21.738808,21.738808
341908791,3407890,3407890,0,0,0,0,0,0,0,0,800.0,800.0,6412.532,6412.532,2.9865384,0.046981297,6.2085888e-09,0.06888363,0.35461712,-10.0085745,-0.012993989,-0.0093195,0.00039260258,3.8066092,4.011159,30.487572,0.002651738,0.0072649517,0.00021352991,21.726187,21.726187
342958784,3407890,3407890,0,0,0,0,0,0,0,0,800.0,800.0,6412.4536,6412.4536,2.8807576,0.050060976,7.962554e-09,0.099414214,0.43196657,-9.984768,-0.011440292,-0.010400453,0.00042934006,4.6361647,4.2996826,44.18841,0.0021191067,0.012381016,0.00021467115,21.7321,21.7321
343903799,3407890,3407890,0,0,0,0,0,0,0,0,800.00006,800.00006,6412.443,6412.443,3.255032,0.058235075,5.4361475e-09,0.082206324,0.45886105,-9.797494,-0.011297615,-0.0055095674,0.00021677138,2.332862,4.807238,28.39125,0.001619301,0.007821894,0.00013445354,21.716475,21.716475
344953779,3407890,3407890,0,0,0,0,0,0,0,0,800.0,800.0,6412.407,6412.407,5.1879244,0.07900389,1.145913e-08,0.16929968,0.47413397,-10.07593,-0.017365456,-0.008975548,0.00093224563,48.635998,20.881266,49.50328,0.008293088,0.017516468,0.002872302,21.697636,21.697636
345898794,3407890,3407890,0,0,0,0,0,0,0,0,800.0,800.0,6412.461,6412.461,5.976079,0.05851664,1.790427e-08,-0.24014728,0.4995076,-10.01754,0.028955024,0.060088433,-0.018906863,21.416426,12.5505,23.917904,0.0047058472,0.008893571,0.0024982002,21.69167,21.69167
346943786,3407890,3407890,0,0,0,0,0,0,0,0,800.0,800.0,6412.463,6412.463,5.3615904,0.08045505,1.8692788e-08,0.28389373,0.28341606,-9.941515,-0.011922495,0.0009177882,0.0009507551,32.137184,25.379793,105.95101,0.008325164,0.03289485,0.0024610711,21.67812,21.67812
347988819,3407890,3407890,0,0,0,0,0,0,0,0,800.0,800.0,6412.431,6412.431,2.8883142,0.068136245,2.1359847e-08,0.15995452,0.37572154,-9.94034,-0.017359238,-0.0112050045,-0.01056282,9.345455,12.131013,16.189587,0.005394186,0.0140903555,0.0018910065,21.673801,21.673801
348933781,3407890,3407890,0,0,0,0,0,0,0,0,800.0,800.0,6412.4297,6412.4297,2.4792666,0.052588787,7.799311e-09,0.054730162,0.3046659,-9.968534,-0.010315199,-0.0013143825,-0.0027298743,4.5736837,4.45847,28.910131,0.0022574726,0.00915549,0.00042940577,21.661127,21.661127
349978779,3407890,3407890,0,0,0,0,0,0,0,0,800.0,800.0,6412.461,6412.461,1.6250106,0.032594256,7.3102515e-09,0.06132548,0.3269194,-9.823917,-0.012385404,-0.0050600977,-0.0018316716,2.5002258,5.900816,12.981126,0.003324536,0.0035329522,0.0004694546,21.632427,21.632427
350908788,3407890,3407890,0,0,0,0,0,0,0,0,800.0,800.0,6412.411,6412.411,2.3239715,0.041778985,1.0263575e-08,0.17029995,0.32415166,-9.795042,-0.011517675,-0.0037696757,-0.00038499723,5.618945,3.8163652,49.555496,0.0019734823,0.014796517,0.00018999093,21.635971,21.635971
351958784,3407890,3407890,0,0,0,0,0,0,0,0,800.0,800.0,6412.3945,6412.3945,2.5084288,0.040135425,1.6021313e-09,0.16684824,0.31683522,-9.9037485,-0.013134494,-0.0028170603,0.00026867315,7.7125654,11.384367,3.8691056,0.002126149,0.0011729407,0.00029425847,21.626095,21.626095
352998780,3407890,3407890,0,0,0,0,0,0,0,0,800.0,800.0,6412.3774,6412.3774,2.2074528,0.036076028,2.8890637e-09,0.1549651,0.34384608,-9.954482,-0.0040657506,0.0006200385,-0.0023561106,7.4181805,12.169815,8.820772,0.002314046,0.0016806766,0.0004233324,21.630335,21.630335
353943781,3407890,3407890,0,0,0,0,0,0,0,0,800.0,800.0,6412.4473,6412.4473,2.138357,0.032801643,4.0000434e-09,0.10795772,0.29705897,-9.9087515,-0.012015839,-0.0015140545,-0.0027200212,10.119802,10.044283,6.9458785,0.0024948942,0.0022472476,0.00035804274,21.602898,21.602898
354983783,3407890,3407890,0,0,0,0,0,0,0,0,800.0,800.0,6412.468,6412.468,0.5028395,0.010558837,9.036701e-11,0.03413958,0.3660341,-9.924956,-0.01139288,-0.005894146,0.00094812934,0.0010237055,0.0022296908,0.0005936929,2.4302774e-06,2.2304528e-05,5.090187e-05,21.605076,21.605076
355918779,3407890,3407890,0,0,0,0,0,0,0,0,800.0,800.0,6412.474,6412.474,0.0944432,0.0028956365,5.0604212e-11,0.026010448,0.36430174,-9.922525,-0.011144308,-0.003713591,-0.000101416685,0.0003614205,0.00030949243,0.0003426881,2.5629554e-06,1.0563704e-06,4.2476627e-06,21.579636,21.579636
356963778,3407890,3407890,0,0,0,0,0,0,0,0,800.0,800.0,6412.5,6412.5,0.029166447,0.0016853022,3.755303e-11,0.028466081,0.36684108,-9.919418,-0.0109503735,-0.0035611773,-0.0005464098,0.00029612385,0.00028837685,0.00026716784,2.6138189e-06,9.544884e-07,2.7869107e-06,21.5769,21.5769
357898782,3407890,3407890,0,0,0,0,0,0,0,0,800.0,800.0,6412.497,6412.497,0.0206863,0.0015735916,5.323303e-11,0.025364041,0.36448398,-9.925827,-0.011307045,-0.0040302905,-0.0005188437,0.00025921708,0.00032525865,0.00039963418,2.2573133e-06,1.2377521e-06,3.968185e-06,21.553848,21.553848
358928782,3407890,3407890,0,0,0,0,0,0,0,0,800.0,800.0,6412.516,6412.516,0.01997841,0.0014376076,5.4158938e-11,0.021090984,0.36898392,-9.921032,-0.011163513,-0.0038735166,-0.0003179269,0.00037659673,0.00035019446,0.00043276302,1.910382e-06,1.6190986e-06,3.2614855e-06,21.549488,21.549488
359958786,3407890,3407890,0,0,0,0,0,0,0,0,800.0,800.0,6412.5083,6412.5083,0.019043146,0.0014740905,4.5084984e-11,0.021542357,0.36655942,-9.922029,-0.011180881,-0.0041227653,-0.0006003871,0.000261605,0.0002947306,0.0002824179,2.5276934e-06,1.4016856e-06,2.7856775e-06,21.523788,21.523788
