timestamp,timestamp_sample,latitude_deg,longitude_deg,altitude_msl_m,altitude_ellipsoid_m,time_utc_usec,device_id,s_variance_m_s,c_variance_rad,eph,epv,hdop,vdop,noise_per_ms,jamming_indicator,vel_m_s,vel_n_m_s,vel_e_m_s,vel_d_m_s,cog_rad,timestamp_time_relative,heading,heading_offset,heading_accuracy,rtcm_injection_rate,automatic_gain_control,fix_type,jamming_state,spoofing_state,vel_ned_valid,satellites_used,selected_rtcm_instance,rtcm_crc_failed,rtcm_msg_used
200957091,0,60.1877328,24.8326598,-6.766,10.928,1743089289899969,11141125,0.27100003,3.1415925,1.0090001,1.6270001,0.69,1.02,73,17,0.021000002,0.0,0.021000002,0.007,3.8897295,0,nan,0.0,0.0,0.0,0,3,2,1,1,16,0,0,0
201957074,0,60.1877327,24.832659699999997,-6.79,10.903,1743089290899969,11141125,0.26500002,3.1415925,1.013,1.6340001,0.69,1.02,73,27,0.056,-0.054,-0.012,-0.007,3.8897295,0,nan,0.0,0.0,0.0,0,3,2,1,1,16,0,0,0
202957098,0,60.187732499999996,24.8326598,-6.816,10.877,1743089291899970,11141125,0.257,3.1415925,1.016,1.639,0.69,1.02,73,16,0.047000002,-0.041,0.024,0.044000003,3.8897295,0,nan,0.0,0.0,0.0,0,3,2,1,1,16,0,0,0
203957860,0,60.1877322,24.83266,-6.875,10.818,1743089292899970,11141125,0.26500002,3.1415925,1.021,1.6480001,0.69,1.02,73,26,0.072000004,-0.071,0.010000001,0.051000003,3.8897295,0,nan,0.0,0.0,0.0,0,3,2,1,1,16,0,0,0
204957084,0,60.1877323,24.8326601,-6.881,10.812,1743089293899970,11141125,0.257,3.1415925,1.023,1.6530001,0.69,1.02,73,17,0.052,-0.051000003,-0.010000001,0.011000001,3.8897295,0,nan,0.0,0.0,0.0,0,3,2,1,1,16,0,0,0
205957069,0,60.1877332,24.8326595,-6.7410000000000005,10.952,1743089294899970,11141125,0.26500002,1.2410611,1.026,1.659,0.69,1.02,73,22,0.20300001,0.19600001,-0.051000003,-0.18900001,3.8897295,0,nan,0.0,0.0,0.0,0,3,2,1,1,16,0,0,0
206957860,0,60.187734299999995,24.8326595,-6.214,11.479000000000001,1743089295899971,11141125,0.23200001,2.2753146,1.0300001,1.6610001,0.69,1.02,73,17,0.128,-0.060000002,0.113000005,-0.605,5.698397,0,nan,0.0,0.0,0.0,0,3,2,1,1,16,0,0,0
207957078,0,60.1877333,24.8326599,-5.2940000000000005,12.399000000000001,1743089296899971,11141125,0.238,1.1418607,1.034,1.6630001,0.69,1.02,73,25,0.23,-0.19600001,0.120000005,-0.91700006,5.698397,0,nan,0.0,0.0,0.0,0,3,2,1,1,16,0,0,0
208957079,0,60.187732,24.83266,-4.073,13.620000000000001,1743089297899971,11141125,0.231,0.88734895,1.0350001,1.6620001,0.69,1.02,73,22,0.27600002,-0.178,-0.21000001,-1.1810001,4.4071345,0,nan,0.0,0.0,0.0,0,3,2,1,1,16,0,0,0
209957062,0,60.1877278,24.8326474,-2.686,15.007,1743089298899972,11141125,0.23600002,0.17232019,1.0370001,1.6620001,0.69,1.02,73,22,1.4150001,-0.77400005,-1.1850001,-1.3750001,4.1334505,0,nan,0.0,0.0,0.0,0,3,2,1,1,16,0,0,0
211956339,0,60.1877071,24.832568499999997,0.377,18.071,1743089300899972,11141125,0.25,0.08923309,1.041,1.6610001,0.69,1.02,73,13,2.9670002,-1.286,-2.674,-1.7030001,4.2641354,0,nan,0.0,0.0,0.0,0,3,2,1,1,16,0,0,0
212957074,0,60.187697799999995,24.8325252,1.223,18.917,1743089301899972,11141125,0.286,0.1699626,1.0550001,1.6840001,0.69,1.02,68,12,2.124,-0.74500006,-1.9890001,-0.771,4.35399,0,nan,0.0,0.0,0.0,0,3,2,1,1,16,0,0,0
213957062,0,60.187694799999996,24.832504999999998,1.7710000000000001,19.464,1743089302899973,11141125,0.291,0.6820055,1.07,1.723,0.69,1.02,68,12,0.526,-0.14400001,-0.50600004,-0.577,4.4344745,0,nan,0.0,0.0,0.0,0,3,2,1,1,16,0,0,0
214953976,0,60.187694699999994,24.8325019,2.232,19.925,1743089303899973,11141125,0.31500003,3.1415925,1.085,1.7680001,0.69,1.02,68,13,0.042000003,0.006,-0.041,-0.59000003,4.5073485,0,nan,0.0,0.0,0.0,0,3,2,1,1,16,0,0,0
215954861,0,60.1876962,24.832503499999998,2.775,20.468,1743089304899973,11141125,0.35300002,1.040371,1.102,1.817,0.69,1.02,68,17,0.29200003,0.261,0.13000001,-0.587,4.5073485,0,nan,0.0,0.0,0.0,0,3,2,1,1,16,0,0,0
216954862,0,60.187695899999994,24.8325024,3.09,20.783,1743089305899974,11141125,0.296,1.4689856,1.118,1.8560001,0.69,1.02,63,15,0.25100002,-0.07,-0.24200001,-0.326,4.5073485,0,nan,0.0,0.0,0.0,0,3,2,1,1,16,0,0,0
217952426,0,60.1876949,24.8325005,3.641,21.334,1743089306899974,11141125,0.257,0.7879582,1.1220001,1.838,0.69,1.02,59,15,0.358,-0.22500001,-0.279,-0.554,4.5073485,0,nan,0.0,0.0,0.0,0,3,2,1,1,16,0,0,0
218956080,0,60.1876907,24.8324794,4.023,21.716,1743089307899974,11141125,0.27800003,0.18082397,1.1270001,1.8340001,0.69,1.02,63,23,1.628,-0.674,-1.4820001,-0.499,4.2856336,0,nan,0.0,0.0,0.0,0,3,2,1,1,16,0,0,0
219954861,0,60.187685599999995,24.8324568,4.471,22.164,1743089308899974,11141125,0.305,0.2242905,1.1340001,1.835,0.69,1.02,63,9,1.35,-0.505,-1.2520001,-0.35300002,4.329224,0,nan,0.0,0.0,0.0,0,3,2,1,1,16,0,0,0
220957075,0,60.1876816,24.8324367,4.666,22.359,1743089309899975,11141125,0.26700002,0.2913176,1.139,1.8340001,0.69,1.02,59,14,0.98200005,-0.404,-0.896,-0.24300002,4.288789,0,nan,0.0,0.0,0.0,0,3,2,1,1,16,0,0,0
221958866,0,60.187680099999994,24.8324291,4.894,22.587,1743089310899975,11141125,0.24100001,1.0888798,1.1340001,1.8160001,0.69,1.02,55,9,0.24000001,-0.010000001,-0.24000001,-0.22700001,4.413919,0,nan,0.0,0.0,0.0,0,3,2,1,1,16,0,0,0
222957861,0,60.18768,24.8324274,5.163,22.857,1743089311899975,11141125,0.238,1.7538457,1.1290001,1.7990001,0.69,1.02,63,14,0.149,-0.021000002,-0.147,-0.24000001,4.413919,0,nan,0.0,0.0,0.0,0,3,2,1,1,16,0,0,0
223957065,0,60.1876781,24.8324258,5.4910000000000005,23.184,1743089312899975,11141125,0.23700002,1.4382263,1.126,1.7850001,0.69,1.02,63,18,0.157,-0.14400001,-0.063,-0.27,4.007178,0,nan,0.0,0.0,0.0,0,3,2,1,1,16,0,0,0
224957862,0,60.1876787,24.8324259,5.798,23.491,1743089313899976,11141125,0.314,0.90895206,1.126,1.7870001,0.69,1.02,63,14,0.294,0.201,0.215,-0.279,4.007178,0,nan,0.0,0.0,0.0,0,3,2,1,1,16,0,0,0
225956095,0,60.1876791,24.8324262,6.139,23.832,1743089314899976,11141125,0.27,3.1415925,1.1270001,1.7820001,0.69,1.02,63,20,0.068,0.067,0.007,-0.22500001,4.007178,0,nan,0.0,0.0,0.0,0,3,2,1,1,16,0,0,0
226957077,0,60.1876782,24.8324282,6.434,24.128,1743089315899976,11141125,0.252,3.1415925,1.13,1.7810001,0.69,1.02,63,14,0.093,-0.027,0.089,-0.27,4.007178,0,nan,0.0,0.0,0.0,0,3,2,1,1,16,0,0,0
227957859,0,60.1876773,24.8324279,6.66,24.353,1743089316899977,11141125,0.24400002,1.1696993,1.126,1.7650001,0.69,1.02,64,13,0.186,-0.142,-0.120000005,-0.25300002,4.007178,0,nan,0.0,0.0,0.0,0,3,2,1,1,16,0,0,0
228958861,0,60.187678299999995,24.8324249,6.929,24.622,1743089317899977,11141125,0.21800001,0.9399633,1.12,1.7490001,0.69,1.02,64,21,0.286,0.087000005,-0.273,-0.24100001,5.2410316,0,nan,0.0,0.0,0.0,0,3,2,1,1,16,0,0,0
229957860,0,60.1876786,24.8324227,7.184,24.877,1743089318899977,11141125,0.22100002,1.5858407,1.116,1.7350001,0.69,1.02,64,14,0.16700001,0.037,-0.163,-0.28500003,5.2410316,0,nan,0.0,0.0,0.0,0,3,2,1,1,16,0,0,0
230958861,0,60.1876788,24.8324225,7.429,25.122,1743089319899977,11141125,0.215,3.1415925,1.1110001,1.7220001,0.69,1.02,64,21,0.066,-0.027,0.060000002,-0.263,5.2410316,0,nan,0.0,0.0,0.0,0,3,2,1,1,16,0,0,0
231958860,0,60.1876794,24.832423,7.735,25.429000000000002,1743089320899978,11141125,0.215,3.1415925,1.1060001,1.71,0.69,1.02,64,16,0.046000004,0.030000001,-0.035,-0.24700001,5.2410316,0,nan,0.0,0.0,0.0,0,3,2,1,1,16,0,0,0
232956110,0,60.18768,24.832422899999997,8.073,25.766000000000002,1743089321899978,11141125,0.21400002,3.1415925,1.1010001,1.6980001,0.69,1.02,64,26,0.040000003,-0.006,-0.040000003,-0.26500002,5.2410316,0,nan,0.0,0.0,0.0,0,3,2,1,1,16,0,0,0
234957079,0,60.187678299999995,24.8324255,8.583,26.277,1743089323899979,11141125,0.224,1.0451621,1.093,1.677,0.69,1.02,64,15,0.21400002,0.21300001,-0.018000001,-0.216,5.2410316,0,nan,0.0,0.0,0.0,0,3,2,1,1,16,0,0,0
236957860,0,60.18768,24.8324227,9.061,26.755,1743089325899979,11141125,0.209,2.1132545,1.085,1.6550001,0.69,1.02,64,12,0.10300001,0.102000006,-0.008,-0.27100003,5.2410316,0,nan,0.0,0.0,0.0,0,3,2,1,1,16,0,0,0
237957860,0,60.1876803,24.8324209,9.266,26.959,1743089326899979,11141125,0.22600001,1.438382,1.08,1.6430001,0.69,1.02,64,12,0.15,-0.078,-0.12900001,-0.25500003,5.2410316,0,nan,0.0,0.0,0.0,0,3,2,1,1,16,0,0,0
238957862,0,60.187680099999994,24.832420799999998,9.498,27.191,1743089327899980,11141125,0.20600002,2.2889438,1.075,1.631,0.69,1.02,65,13,0.102000006,0.022000002,0.1,-0.216,5.2410316,0,nan,0.0,0.0,0.0,0,3,2,1,1,16,0,0,0
239959861,0,60.1876835,24.8324222,9.217,26.91,1743089328899980,11141125,0.224,0.16817504,1.0710001,1.621,0.69,1.02,65,13,1.2550001,1.2550001,0.011000001,0.42000002,0.008790176,0,nan,0.0,0.0,0.0,0,3,2,1,1,16,0,0,0
240957866,0,60.187697799999995,24.832421,8.837,26.53,1743089329899980,11141125,0.223,0.1392394,1.065,1.6100001,0.69,1.02,70,18,1.5150001,1.514,-0.071,0.257,6.2362103,0,nan,0.0,0.0,0.0,0,3,2,1,1,16,0,0,0
241957865,0,60.1877071,24.832420199999998,8.757,26.45,1743089330899980,11141125,0.224,0.35259926,1.059,1.598,0.69,1.02,70,20,0.58900005,0.58900005,0.027,0.027,0.045004014,0,nan,0.0,0.0,0.0,0,3,2,1,1,16,0,0,0
242957859,0,60.1877084,24.8324206,8.744,26.437,1743089331899981,11141125,0.20500001,3.1415925,1.054,1.5860001,0.69,1.02,70,24,0.068,-0.052,0.044000003,-0.022000002,0.09972514,0,nan,0.0,0.0,0.0,0,3,2,1,1,16,0,0,0
243957057,0,60.1876998,24.832420799999998,8.86,26.553,1743089332899981,11141125,0.252,0.1292486,1.0500001,1.5740001,0.69,1.02,70,30,1.713,-1.7120001,0.034,-0.069000006,3.121529,0,nan,0.0,0.0,0.0,0,3,2,1,1,16,0,0,0
244957088,0,60.1876847,24.8324215,8.898,26.591,1743089333899981,11141125,0.22800002,0.16262017,1.046,1.5640001,0.69,1.02,70,25,1.284,-1.2830001,0.043,0.009000001,3.1078005,0,nan,0.0,0.0,0.0,0,3,2,1,1,16,0,0,0
245957869,0,60.1876792,24.8324224,8.929,26.622,1743089334899982,11141125,0.23300001,0.71396047,1.042,1.5550001,0.69,1.02,71,19,0.289,-0.28500003,-0.05,-0.007,3.314597,0,nan,0.0,0.0,0.0,0,3,2,1,1,16,0,0,0
246958862,0,60.1876822,24.8324207,8.956,26.649,1743089335899982,11141125,0.231,0.19522169,1.0380001,1.5460001,0.69,1.02,71,18,1.085,1.079,-0.11000001,-0.082,6.181167,0,nan,0.0,0.0,0.0,0,3,2,1,1,16,0,0,0
247956128,0,60.187695899999994,24.8324186,9.224,26.917,1743089336899982,11141125,0.22800002,0.177896,1.0350001,1.539,0.69,1.02,71,27,1.192,1.1910001,-0.055000003,-0.36900002,6.237263,0,nan,0.0,0.0,0.0,0,3,2,1,1,16,0,0,0
248958862,0,60.1876995,24.8324189,9.744,27.437,1743089337899982,11141125,0.22100002,0.76592636,1.033,1.531,0.69,1.02,71,20,0.296,-0.294,0.027,-0.56,3.051385,0,nan,0.0,0.0,0.0,0,3,2,1,1,16,0,0,0
249957861,0,60.1876925,24.832419599999998,10.31,28.003,1743089338899983,11141125,0.24000001,0.21075234,1.0320001,1.5250001,0.69,1.02,71,17,1.0500001,-1.0450001,0.106000006,-0.563,3.0404758,0,nan,0.0,0.0,0.0,0,3,2,1,1,16,0,0,0
250957860,0,60.187683099999994,24.832421999999998,10.726,28.419,1743089339899983,11141125,0.24300002,0.22408298,1.0300001,1.5180001,0.69,1.02,71,18,1.005,-0.99700004,0.12900001,-0.351,3.0125048,0,nan,0.0,0.0,0.0,0,3,2,1,1,16,0,0,0
251957860,0,60.187680099999994,24.8324233,10.761000000000001,28.455000000000002,1743089340899983,11141125,0.257,1.1218023,1.028,1.516,0.69,1.02,71,17,0.18400002,-0.162,-0.087000005,-0.061000004,2.9934518,0,nan,0.0,0.0,0.0,0,3,2,1,1,16,0,0,0
252957866,0,60.187681,24.832423199999997,10.642,28.336000000000002,1743089341899984,11141125,0.22900002,2.1186056,1.029,1.5150001,0.69,1.02,72,14,0.12100001,0.10700001,-0.057000004,0.08400001,2.9934518,0,nan,0.0,0.0,0.0,0,3,2,1,1,16,0,0,0
253956101,0,60.187684999999995,24.8324216,10.091000000000001,27.784,1743089342899984,11141125,0.25100002,0.37202635,1.031,1.5170001,0.69,1.02,67,12,0.637,0.634,0.059000004,0.62,0.092358276,0,nan,0.0,0.0,0.0,0,3,2,1,1,16,0,0,0
254956088,0,60.187688599999994,24.8324209,9.284,26.978,1743089343899984,11141125,0.24200001,2.0582957,1.0350001,1.5230001,0.69,1.02,67,12,0.13700001,0.017,0.135,0.69000006,6.252685,0,nan,0.0,0.0,0.0,0,3,2,1,1,16,0,0,0
255957074,0,60.1876866,24.832422299999998,8.75,26.443,1743089344899984,11141125,0.293,1.05658,1.0480001,1.536,0.69,1.02,67,19,0.30800003,-0.3,-0.072000004,0.381,1.2643453,0,nan,0.0,0.0,0.0,0,3,2,1,1,16,0,0,0
257957055,0,60.187681999999995,24.832421399999998,8.703,26.396,1743089346899985,11141125,0.254,3.1415925,1.0710001,1.5530001,0.69,1.02,58,14,0.056,-0.05,0.025,-0.013,1.2643453,0,nan,0.0,0.0,0.0,0,3,2,1,1,16,0,0,0
258957860,0,60.1876836,24.832425699999998,9.106,26.799,1743089347899985,11141125,0.263,0.489106,1.0730001,1.5630001,0.69,1.02,66,14,0.49,0.35900003,0.333,-0.26700002,0.74832684,0,nan,0.0,0.0,0.0,0,3,2,1,1,16,0,0,0
259958859,0,60.1876858,24.8324397,9.165000000000001,26.858,1743089348899986,11141125,0.24300002,0.28932428,1.072,1.562,0.69,1.02,66,13,0.84800005,0.058000002,0.846,-0.052,1.5026503,0,nan,0.0,0.0,0.0,0,3,2,1,1,16,0,0,0
260957859,0,60.1876855,24.832455099999997,9.022,26.715,1743089349899986,11141125,0.22800002,0.30554187,1.07,1.559,0.69,1.02,66,15,0.83500004,-0.15100001,0.82100004,0.156,1.7531779,0,nan,0.0,0.0,0.0,0,3,2,1,1,16,0,0,0
261957861,0,60.187682599999995,24.832469399999997,8.831,26.524,1743089350899986,11141125,0.216,0.43427578,1.07,1.5550001,0.69,1.02,66,14,0.67600006,-0.35200003,0.577,0.13800001,2.1191714,0,nan,0.0,0.0,0.0,0,3,2,1,1,16,0,0,0
262957861,0,60.1876806,24.832475799999997,8.775,26.469,1743089351899986,11141125,0.24900001,3.1415925,1.07,1.552,0.69,1.02,66,14,0.07700001,0.004,0.07700001,0.036000002,2.0929887,0,nan,0.0,0.0,0.0,0,3,2,1,1,16,0,0,0
263957861,0,60.1876809,24.8324745,8.778,26.471,1743089352899987,11141125,0.24700001,1.7806417,1.072,1.552,0.69,1.02,66,17,0.16600001,0.045,-0.16000001,-0.061000004,2.0929887,0,nan,0.0,0.0,0.0,0,3,2,1,1,16,0,0,0
264957861,0,60.1876816,24.8324651,8.842,26.535,1743089353899987,11141125,0.25500003,0.26792705,1.074,1.554,0.69,1.02,66,14,0.96800005,0.081,-0.96400005,-0.105000004,4.7959437,0,nan,0.0,0.0,0.0,0,3,2,1,1,16,0,0,0
265956116,0,60.187681399999995,24.832442999999998,8.741,26.434,1743089354899987,11141125,0.252,0.20287463,1.075,1.554,0.69,1.02,66,14,1.2980001,-0.10700001,-1.294,0.07,4.630111,0,nan,0.0,0.0,0.0,0,3,2,1,1,16,0,0,0
266952418,0,60.1876804,24.8324246,8.724,26.417,1743089355899987,11141125,0.268,0.4210736,1.0780001,1.557,0.69,1.02,66,18,0.66200006,-0.012,-0.66200006,0.013,4.6937833,0,nan,0.0,0.0,0.0,0,3,2,1,1,16,0,0,0
267957078,0,60.187679599999996,24.832419599999998,8.736,26.43,1743089356899988,11141125,0.268,1.770711,1.079,1.5580001,0.69,1.02,66,10,0.13100001,-0.12100001,-0.05,-0.042000003,4.598897,0,nan,0.0,0.0,0.0,0,3,2,1,1,16,0,0,0
268953976,0,60.1876797,24.8324221,8.790000000000001,26.483,1743089357899988,11141125,0.28,2.569992,1.079,1.557,0.69,1.02,62,22,0.098000005,0.057000004,0.080000006,-0.017,4.598897,0,nan,0.0,0.0,0.0,0,3,2,1,1,16,0,0,0
269956077,0,60.1876797,24.832435099999998,8.86,26.553,1743089358899988,11141125,0.25800002,0.29896912,1.08,1.5580001,0.69,1.02,66,19,0.82400006,0.071,0.82100004,0.009000001,1.484253,0,nan,0.0,0.0,0.0,0,3,2,1,1,16,0,0,0
270957861,0,60.1876804,24.832445399999997,8.872,26.565,1743089359899989,11141125,0.24300002,0.8668624,1.08,1.557,0.69,1.02,70,14,0.303,0.030000001,0.30200002,-0.021000002,1.3354117,0,nan,0.0,0.0,0.0,0,3,2,1,1,16,0,0,0
271957860,0,60.1876811,24.8324477,8.855,26.548000000000002,1743089360899989,11141125,0.30800003,3.1415925,1.0810001,1.5560001,0.69,1.02,70,13,0.051000003,0.051000003,0.0050000004,0.0050000004,1.2163184,0,nan,0.0,0.0,0.0,0,3,2,1,1,16,0,0,0
272957065,0,60.1876817,24.832446299999997,8.965,26.658,1743089361899989,11141125,0.28500003,3.1415925,1.088,1.562,0.69,1.02,70,23,0.064,0.062000003,-0.015000001,-0.106000006,1.2163184,0,nan,0.0,0.0,0.0,0,3,2,1,1,16,0,0,0
273957859,0,60.187681899999994,24.8324468,8.981,26.674,1743089362899989,11141125,0.23600002,2.8124166,1.0990001,1.5790001,0.69,1.02,71,14,0.12900001,-0.069000006,0.109000005,-0.019000001,1.2163184,0,nan,0.0,0.0,0.0,0,3,2,1,1,16,0,0,0
274957859,0,60.187681899999994,24.8324473,9.064,26.757,1743089363899990,11141125,0.33400002,3.1415925,1.107,1.603,0.69,1.02,70,20,0.05,0.05,0.0,-0.045,1.2163184,0,nan,0.0,0.0,0.0,0,3,2,1,1,16,0,0,0
275956361,0,60.1876815,24.832445699999997,9.061,26.755,1743089364899990,11141125,0.32500002,1.71074,1.116,1.628,0.69,1.02,70,18,0.21400002,-0.002,-0.21400002,0.020000001,1.2163184,0,nan,0.0,0.0,0.0,0,3,2,1,1,16,0,0,0
276956310,0,60.187681899999994,24.8324449,9.042,26.736,1743089365899990,11141125,0.24400002,3.1415925,1.1240001,1.6290001,0.69,1.02,70,14,0.07700001,0.071,-0.029000001,0.079,1.2163184,0,nan,0.0,0.0,0.0,0,3,2,1,1,16,0,0,0
277956308,0,60.1876829,24.8324441,9.1,26.793,1743089366899991,11141125,0.314,1.1759574,1.1290001,1.6250001,0.69,1.02,70,15,0.187,0.17600001,0.063,0.004,1.2163184,0,nan,0.0,0.0,0.0,0,3,2,1,1,16,0,0,0
278957064,0,60.1876834,24.832443899999998,9.223,26.917,1743089367899991,11141125,0.22600001,3.1415925,1.1320001,1.6220001,0.69,1.02,70,17,0.027,-0.023000002,0.014,-0.054,1.2163184,0,nan,0.0,0.0,0.0,0,3,2,1,1,16,0,0,0
280956360,0,60.1876828,24.8324483,9.111,26.804000000000002,1743089369899991,11141125,0.27100003,1.4654887,1.148,1.626,0.69,1.02,70,17,0.21400002,-0.19900002,0.07700001,0.11400001,1.2163184,0,nan,0.0,0.0,0.0,0,3,2,1,1,16,0,0,0
281956288,0,60.187682699999996,24.8324476,9.095,26.788,1743089370899992,11141125,0.252,3.1415925,1.1650001,1.6340001,0.69,1.02,70,20,0.041,0.035,-0.022000002,0.09200001,1.2163184,0,nan,0.0,0.0,0.0,0,3,2,1,1,16,0,0,0
282957059,0,60.1876818,24.832445399999997,9.105,26.798000000000002,1743089371899992,11141125,0.323,1.6071818,1.1800001,1.6450001,0.69,1.02,61,15,0.18,-0.10300001,-0.148,0.031000001,1.2163184,0,nan,0.0,0.0,0.0,0,3,2,1,1,16,0,0,0
283956308,0,60.187681899999994,24.8324453,9.016,26.709,1743089372899992,11141125,0.386,0.8812472,1.1930001,1.6560001,0.69,1.02,66,14,0.31300002,0.23700002,0.20400001,0.201,1.2163184,0,nan,0.0,0.0,0.0,0,3,2,1,1,16,0,0,0
284954867,0,60.1876852,24.8324481,9.045,26.738,1743089373899992,11141125,0.574,0.6583153,1.223,1.6860001,0.69,1.02,65,12,0.555,0.54200006,0.12100001,0.08800001,0.2194514,0,nan,0.0,0.0,0.0,0,3,2,1,1,16,0,0,0
285954069,0,60.1876894,24.8324462,9.007,26.7,1743089374899993,11141125,0.42100003,0.8063569,1.2650001,1.7400001,0.69,1.02,65,8,0.56700003,0.50200003,-0.264,0.032,6.1858544,0,nan,0.0,0.0,0.0,0,3,2,1,1,16,0,0,0
286954044,0,60.1876946,24.8324373,9.032,26.725,1743089375899993,11141125,0.328,0.41248655,1.279,1.764,0.69,1.02,61,9,0.86100006,0.58500004,-0.632,0.062000003,5.4593325,0,nan,0.0,0.0,0.0,0,3,2,1,1,16,0,0,0
287954031,0,60.1876998,24.8324297,8.982,26.675,1743089376899993,11141125,0.374,0.66895974,1.309,1.8030001,0.69,1.02,61,13,0.72,0.555,-0.45800003,0.021000002,5.5928736,0,nan,0.0,0.0,0.0,0,3,2,1,1,16,0,0,0
288952860,0,60.1877036,24.832427199999998,8.891,26.585,1743089377899994,11141125,0.48800004,2.3104951,1.368,1.8510001,0.69,1.02,61,6,0.25,0.24700001,0.039,0.018000001,5.8228836,0,nan,0.0,0.0,0.0,0,3,2,1,1,16,0,0,0
289952860,0,60.1877041,24.8324251,9.007,26.701,1743089378899994,11141125,0.679,1.9844778,1.46,1.9360001,0.69,1.02,65,6,0.314,-0.21000001,-0.23400001,0.0050000004,5.8228836,0,nan,0.0,0.0,0.0,0,3,2,1,1,16,0,0,0
290950871,0,60.187706899999995,24.8324309,9.476,27.17,1743089379899994,11141125,0.59900004,0.73627824,1.5430001,2.038,0.69,1.02,65,7,0.725,0.47500002,0.54800004,-0.33100003,0.8570272,0,nan,0.0,0.0,0.0,0,3,2,1,1,16,0,0,0
291950867,0,60.1877138,24.8324355,9.673,27.367,1743089380899994,11141125,0.67700005,0.5190197,1.6220001,2.1490002,0.69,1.02,65,8,1.0890001,1.0840001,0.10300001,-0.29000002,0.094908565,0,nan,0.0,0.0,0.0,0,3,2,1,1,16,0,0,0
292950875,0,60.187722799999996,24.832442999999998,9.502,27.195,1743089381899995,11141125,0.651,0.4458562,1.687,2.2580001,0.69,1.02,65,7,1.335,1.325,0.16800001,-0.128,0.12582183,0,nan,0.0,0.0,0.0,0,3,2,1,1,16,0,0,0
293952436,0,60.187736199999996,24.8324458,9.749,27.442,1743089382899995,11141125,0.647,0.36771277,1.7440001,2.354,0.69,1.02,65,7,1.536,1.511,0.272,-0.1,0.17835921,0,nan,0.0,0.0,0.0,0,3,2,1,1,16,0,0,0
294952355,0,60.1877539,24.8324446,9.675,27.368000000000002,1743089383899995,11141125,0.657,0.22881597,1.8010001,2.446,0.69,1.02,65,6,2.503,2.499,0.13800001,-0.149,0.055211045,0,nan,0.0,0.0,0.0,0,3,2,1,1,16,0,0,0
295950860,0,60.1877705,24.8324464,9.473,27.166,1743089384899996,11141125,0.702,0.39598483,1.866,2.5660002,0.69,1.02,66,7,1.5610001,1.557,0.108,0.033,0.06895115,0,nan,0.0,0.0,0.0,0,3,2,1,1,16,0,0,0
296950870,0,60.187781599999994,24.8324569,9.678,27.371000000000002,1743089385899996,11141125,0.726,0.5718264,1.9430001,2.6950002,0.69,1.02,70,7,1.1910001,0.81500006,0.86800003,-0.106000006,0.817168,0,nan,0.0,0.0,0.0,0,3,2,1,1,16,0,0,0
298950882,0,60.187754,24.832487099999998,9.421,27.114,1743089387899996,11141125,0.61200005,0.25080433,2.025,2.7810001,0.69,1.02,61,7,2.14,-2.1030002,0.39400002,0.25500003,2.956225,0,nan,0.0,0.0,0.0,0,3,2,1,1,16,0,0,0
299953979,0,60.187728899999996,24.832484899999997,8.431000000000001,26.124,1743089388899997,11141125,0.402,0.15399319,2.026,2.7640002,0.69,1.02,60,8,2.867,-2.8390002,-0.40100002,0.57500005,3.281937,0,nan,0.0,0.0,0.0,0,3,2,1,1,16,0,0,0
300953987,0,60.187701499999996,24.8324759,7.982,25.675,1743089389899997,11141125,0.39000002,0.17095394,2.0,2.706,0.69,1.02,61,8,2.766,-2.7640002,-0.095000006,0.49100003,3.1761072,0,nan,0.0,0.0,0.0,0,3,2,1,1,16,0,0,0
301952862,0,60.1876787,24.8324705,7.085,24.778000000000002,1743089390899997,11141125,0.35700002,0.1785196,1.9790001,2.6750002,0.69,1.02,65,11,2.2770002,-2.269,-0.186,0.89300007,3.2233639,0,nan,0.0,0.0,0.0,0,3,2,1,1,16,0,0,0
302954085,0,60.187660799999996,24.832469999999997,5.835,23.528000000000002,1743089391899998,11141125,0.45900002,0.28299674,1.968,2.663,0.69,1.02,65,10,1.6850001,-1.682,-0.093,1.3280001,3.1967711,0,nan,0.0,0.0,0.0,0,3,2,1,1,16,0,0,0
303953959,0,60.1876463,24.8324709,4.421,22.114,1743089392899998,11141125,0.45100003,0.30583158,1.9610001,2.6590002,0.69,1.02,60,7,1.5150001,-1.514,-0.055000003,1.503,3.1777155,0,nan,0.0,0.0,0.0,0,3,2,1,1,16,0,0,0
304952861,0,60.187638199999995,24.8324777,2.87,20.563,1743089393899998,11141125,0.35300002,0.6227811,1.9390001,2.638,0.69,1.02,56,9,0.597,-0.52400005,0.286,1.669,2.6413727,0,nan,0.0,0.0,0.0,0,3,2,1,1,16,0,0,0
305953989,0,60.1876362,24.8324826,1.514,19.208000000000002,1743089394899998,11141125,0.316,1.9599969,1.9150001,2.627,0.69,1.02,60,6,0.20300001,0.07300001,0.19000001,1.613,2.654406,0,nan,0.0,0.0,0.0,0,3,2,1,1,16,0,0,0
306956084,0,60.1876368,24.832487999999998,0.176,17.869,1743089395899999,11141125,0.26700002,0.9931075,1.8620001,2.5560002,0.69,1.02,56,9,0.291,0.272,0.102000006,1.5920001,0.8822445,0,nan,0.0,0.0,0.0,0,3,2,1,1,16,0,0,0
307952861,0,60.1876403,24.8324937,-1.032,16.662,1743089396899999,11141125,0.272,0.5134448,1.8130001,2.502,0.69,1.02,60,13,0.563,0.546,0.14,1.2080001,0.2504778,0,nan,0.0,0.0,0.0,0,3,2,1,1,16,0,0,0
308953979,0,60.1876482,24.832497099999998,-1.6520000000000001,16.041,1743089397899999,11141125,0.44000003,0.2123474,1.784,2.4780002,0.69,1.02,69,13,1.4230001,1.3750001,-0.365,0.38900003,6.023533,0,nan,0.0,0.0,0.0,0,3,2,1,1,16,0,0,0
309953978,0,60.187671599999994,24.8324662,-0.164,17.529,1743089398899999,11141125,0.349,0.09358909,1.7650001,2.4740002,0.69,1.02,68,9,3.9380002,2.94,-2.6190002,-1.182,5.555434,0,nan,0.0,0.0,0.0,0,3,2,1,1,16,0,0,0
310953982,0,60.1876952,24.8324282,2.383,20.076,1743089399900000,11141125,0.43100002,0.17235178,1.7520001,2.493,0.69,1.02,69,9,2.8590002,2.292,-1.7090001,-1.6810001,5.642635,0,nan,0.0,0.0,0.0,0,3,2,1,1,16,0,0,0
311953981,0,60.187708699999995,24.8324045,3.415,21.108,1743089400900000,11141125,0.58900005,0.34367728,1.7810001,2.5500002,0.69,1.02,64,10,1.9070001,1.368,-1.3290001,-0.767,5.5124598,0,nan,0.0,0.0,0.0,0,3,2,1,1,16,0,0,0
312952370,0,60.1877127,24.8324023,3.044,20.737000000000002,1743089401900000,11141125,0.55200005,1.0936537,1.82,2.601,0.69,1.02,68,11,0.46500003,0.39400002,0.24700001,0.028,5.606936,0,nan,0.0,0.0,0.0,0,3,2,1,1,16,0,0,0
313952497,0,60.1877151,24.8324046,2.551,20.244,1743089402900001,11141125,0.388,3.1415925,1.8270001,2.6090002,0.69,1.02,64,9,0.071,0.069000006,0.013,0.45700002,5.9662676,0,nan,0.0,0.0,0.0,0,3,2,1,1,16,0,0,0
314953978,0,60.187714099999994,24.832408599999997,2.118,19.811,1743089403900001,11141125,0.41400003,3.1415925,1.8370001,2.6230001,0.69,1.02,64,6,0.15100001,0.002,0.15,0.49600002,5.9662676,0,nan,0.0,0.0,0.0,0,3,2,1,1,16,0,0,0
315953979,0,60.187713099999996,24.8324112,1.722,19.415,1743089404900001,11141125,0.44500002,2.6387324,1.8740001,2.663,0.69,1.02,59,6,0.24000001,-0.10300001,0.21800001,0.60800004,5.9662676,0,nan,0.0,0.0,0.0,0,3,2,1,1,16,0,0,0
316952860,0,60.1877109,24.832416,1.442,19.135,1743089405900001,11141125,0.54200006,1.4505516,1.9260001,2.7140002,0.69,1.02,64,7,0.44400004,-0.33600003,0.291,0.545,5.9662676,0,nan,0.0,0.0,0.0,0,3,2,1,1,16,0,0,0
317952861,0,60.1877035,24.832427799999998,0.6,18.293,1743089406900002,11141125,0.609,0.6848836,1.9850001,2.775,0.69,1.02,68,7,0.99200004,-0.73600006,0.666,0.799,2.4061394,0,nan,0.0,0.0,0.0,0,3,2,1,1,16,0,0,0
318954055,0,60.187697699999994,24.8324385,-1.25,16.443,1743089407900002,11141125,0.49300003,0.98251754,2.025,2.8300002,0.69,1.02,68,6,0.65900004,-0.40600002,0.51900005,1.33,2.4027796,0,nan,0.0,0.0,0.0,0,3,2,1,1,16,0,0,0
319952390,0,60.187692399999996,24.832444199999998,-2.1670000000000003,15.526,1743089408900002,11141125,0.50200003,0.85462904,2.0630002,2.8790002,0.69,1.02,68,6,0.72200006,-0.56100005,0.45400003,1.289,2.7184162,0,nan,0.0,0.0,0.0,0,3,2,1,1,16,0,0,0
320952376,0,60.1876872,24.832452099999998,-3.174,14.519,1743089409900003,11141125,0.507,0.7790832,2.088,2.923,0.69,1.02,63,6,0.77500004,-0.64900005,0.42400002,1.2060001,2.5634122,0,nan,0.0,0.0,0.0,0,3,2,1,1,16,0,0,0
321952859,0,60.1876817,24.8324617,-4.386,13.308,1743089410900003,11141125,0.48400003,0.81857055,2.114,2.9800003,0.69,1.02,63,6,0.79200006,-0.21200001,0.763,1.3180001,2.587283,0,nan,0.0,0.0,0.0,0,3,2,1,1,16,0,0,0
322952861,0,60.1876812,24.832474599999998,-5.339,12.354000000000001,1743089411900003,11141125,0.40100002,0.48385796,2.114,3.012,0.69,1.02,55,7,1.001,-0.061000004,1.0,1.065,1.6315665,0,nan,0.0,0.0,0.0,0,3,2,1,1,16,0,0,0
323954011,0,60.187686199999995,24.8324964,-5.689,12.004,1743089412900003,11141125,0.36200002,0.30461946,2.098,3.038,0.69,1.02,59,10,1.6140001,0.569,1.5100001,0.559,1.2101817,0,nan,0.0,0.0,0.0,0,3,2,1,1,16,0,0,0
324952359,0,60.1876925,24.8325221,-6.227,11.466000000000001,1743089413900004,11141125,0.49400002,0.43166828,2.108,3.091,0.75,1.12,63,10,1.6040001,0.771,1.4070001,0.637,1.0693369,0,nan,0.0,0.0,0.0,0,3,2,1,1,15,0,0,0
325949862,0,60.187701399999995,24.832552399999997,-6.469,11.224,1743089414900004,11141125,0.66700006,0.39411348,2.1460001,3.17,0.83,1.31,67,8,1.8620001,0.88900006,1.636,0.51100004,1.0728829,0,nan,0.0,0.0,0.0,0,3,2,1,1,14,0,0,0
326949861,0,60.187705799999996,24.8325841,-6.461,11.233,1743089415900004,11141125,0.69000006,0.43982244,2.2120001,3.2740002,0.83,1.31,68,9,1.733,0.42400002,1.6800001,0.272,1.3234257,0,nan,0.0,0.0,0.0,0,3,2,1,1,15,0,0,0
327949859,0,60.187708,24.8325997,-6.449,11.244,1743089416900004,11141125,0.70400006,0.7873911,2.276,3.3920002,0.83,1.31,68,7,0.85600007,0.47100002,0.71500003,0.29000002,1.2916958,0,nan,0.0,0.0,0.0,0,3,2,1,1,14,0,0,0
328948861,0,60.1877089,24.8326098,-6.8100000000000005,10.883000000000001,1743089417900005,11141125,0.536,1.7467121,2.3430002,3.5270002,0.83,1.31,68,7,0.453,-0.1,0.44200003,0.18800001,1.2916958,0,nan,0.0,0.0,0.0,0,3,2,1,1,14,0,0,0
329948862,0,60.187709899999994,24.8326198,-6.804,10.889,1743089418900005,11141125,0.64100003,1.0033002,2.397,3.667,0.83,1.31,68,6,0.71900004,0.18800001,0.693,0.16800001,1.2916958,0,nan,0.0,0.0,0.0,0,3,2,1,1,14,0,0,0
330948862,0,60.187713099999996,24.8326289,-7.961,9.732,1743089419900005,11141125,0.51500005,3.1415925,2.4380002,3.7700002,0.75,1.12,68,6,0.124000005,-0.060000002,0.109000005,0.135,1.2916958,0,nan,0.0,0.0,0.0,0,3,2,1,1,15,0,0,0
331948861,0,60.187718999999994,24.8326413,-9.497,8.197000000000001,1743089420900006,11141125,0.698,1.8470459,2.48,3.8400002,0.75,1.12,68,7,0.404,-0.22800002,0.33400002,0.11800001,1.2916958,0,nan,0.0,0.0,0.0,0,3,2,1,1,15,0,0,0
332947862,0,60.187733099999996,24.8326551,-11.628,6.065,1743089421900006,11141125,0.71000004,0.89652693,2.505,3.903,0.75,1.12,68,6,0.63600004,0.51500005,0.374,0.083000004,0.46145037,0,nan,0.0,0.0,0.0,0,3,2,1,1,15,0,0,0
333947860,0,60.1877426,24.832675,-14.199,3.494,1743089422900006,11141125,0.61200005,1.3950403,2.525,3.9540002,0.75,1.12,68,6,0.527,0.142,0.508,0.2,0.6643412,0,nan,0.0,0.0,0.0,0,3,2,1,1,15,0,0,0
334947859,0,60.1877558,24.8326879,-16.236,1.458,1743089423900006,11141125,0.669,0.9324934,2.5560002,4.013,0.75,1.12,68,7,0.70900005,0.64500004,0.294,0.317,0.38347116,0,nan,0.0,0.0,0.0,0,3,2,1,1,15,0,0,0
335947861,0,60.1877607,24.832687399999998,-16.387,1.306,1743089424900007,11141125,0.71500003,1.318708,2.5800002,4.0680003,0.83,1.31,68,7,0.50100005,0.49100003,-0.1,0.065000005,0.38347116,0,nan,0.0,0.0,0.0,0,3,2,1,1,14,0,0,0
336948861,0,60.1877619,24.8326794,-15.653,2.04,1743089425900007,11141125,0.71300006,1.5322881,2.5990002,4.117,0.83,1.31,68,6,0.425,0.395,-0.156,-0.002,0.38347116,0,nan,0.0,0.0,0.0,0,3,2,1,1,14,0,0,0
337947860,0,60.1877607,24.832667999999998,-15.294,2.399,1743089426900007,11141125,0.67700005,1.2784203,2.6190002,4.155,0.83,1.31,68,7,0.546,-0.20400001,-0.50600004,-0.003,0.38347116,0,nan,0.0,0.0,0.0,0,3,2,1,1,14,0,0,0
339948862,0,60.1877572,24.8326706,-15.672,2.021,1743089428900008,11141125,0.69500005,1.766957,2.6650002,4.248,0.83,1.31,68,6,0.4,0.13000001,0.379,0.112,0.38347116,0,nan,0.0,0.0,0.0,0,3,2,1,1,15,0,0,0
340947860,0,60.1877758,24.832694,-20.152,-2.459,1743089429900008,11141125,0.721,0.44840822,2.68,4.2730002,0.69,1.02,68,7,1.549,1.488,0.42900002,0.72300005,0.28066447,0,nan,0.0,0.0,0.0,0,3,2,1,1,16,0,0,0
341947860,0,60.1877924,24.832715999999998,-24.785,-7.0920000000000005,1743089430900008,11141125,0.61300004,0.6911855,2.697,4.3,0.75,1.12,68,6,0.947,0.938,0.124000005,1.1570001,0.13178213,0,nan,0.0,0.0,0.0,0,3,2,1,1,15,0,0,0
342947861,0,60.187811599999996,24.832732999999998,-30.189,-12.496,1743089431900009,11141125,0.65300006,0.53117734,2.719,4.3360004,0.75,1.12,69,7,1.338,1.338,-0.023000002,1.4640001,6.265811,0,nan,0.0,0.0,0.0,0,3,2,1,1,15,0,0,0
343947862,0,60.1878245,24.8327489,-35.397,-17.703,1743089432900009,11141125,0.54700005,1.9424798,2.746,4.373,0.75,1.12,73,7,0.34500003,0.34,0.061000004,2.0070002,0.15204696,0,nan,0.0,0.0,0.0,0,3,2,1,1,14,0,0,0
344947861,0,60.1878259,24.8327408,-35.272,-17.579,1743089433900009,11141125,0.58100003,1.2009302,2.7840002,4.451,0.83,1.31,73,6,0.587,0.586,-0.042000003,1.6190001,0.15204696,0,nan,0.0,0.0,0.0,0,3,2,1,1,14,0,0,0
345948865,0,60.187824199999994,24.832733299999997,-34.652,-16.959,1743089434900010,11141125,0.568,2.7684567,2.8170002,4.511,0.83,1.31,73,8,0.24000001,0.23600002,0.043,1.182,0.15204696,0,nan,0.0,0.0,0.0,0,3,2,1,1,14,0,0,0
346947861,0,60.1878203,24.832722399999998,-33.803,-16.11,1743089435900010,11141125,0.573,1.9889,2.8430002,4.565,0.83,1.31,73,7,0.37800002,-0.095000006,-0.36600003,0.81900007,0.15204696,0,nan,0.0,0.0,0.0,0,3,2,1,1,14,0,0,0
347947860,0,60.1878166,24.832717199999998,-33.337,-15.644,1743089436900010,11141125,0.59400004,2.670053,2.8620002,4.6080003,0.83,1.31,73,6,0.259,-0.257,0.036000002,0.66800004,0.15204696,0,nan,0.0,0.0,0.0,0,3,2,1,1,14,0,0,0
348948861,0,60.187815699999994,24.8327171,-32.614,-14.921000000000001,1743089437900010,11141125,0.666,1.3304665,2.8760002,4.6410003,0.83,1.31,73,7,0.49300003,0.45200002,0.19800001,0.48200002,0.15204696,0,nan,0.0,0.0,0.0,0,3,2,1,1,14,0,0,0
349949860,0,60.187813399999996,24.8327137,-31.344,-13.65,1743089438900011,11141125,0.55700004,3.1415925,2.89,4.6740003,0.83,1.31,73,7,0.15200001,-0.043,-0.14500001,0.31,0.15204696,0,nan,0.0,0.0,0.0,0,3,2,1,1,14,0,0,0
350949861,0,60.1878147,24.8327153,-32.302,-14.609,1743089439900011,11141125,0.59000003,2.9177094,2.9050002,4.702,0.75,1.12,73,8,0.26200002,-0.062000003,-0.25500003,0.287,0.15204696,0,nan,0.0,0.0,0.0,0,3,2,1,1,15,0,0,0
351950877,0,60.187822,24.832723299999998,-34.526,-16.832,1743089440900011,11141125,0.75500005,1.2312461,2.9110003,4.714,0.75,1.12,73,7,0.54300004,-0.45800003,-0.291,0.102000006,0.15204696,0,nan,0.0,0.0,0.0,0,3,2,1,1,15,0,0,0
352964867,0,60.187827299999995,24.832731199999998,-35.508,-17.815,1743089441900012,11141125,0.74100006,2.6934786,2.924,4.735,0.75,1.12,73,6,0.259,-0.254,0.047000002,-0.095000006,0.15204696,0,nan,0.0,0.0,0.0,0,3,2,1,1,15,0,0,0
353969868,0,60.187830299999995,24.8327353,-36.550000000000004,-18.857,1743089442900012,11141125,0.683,0.84933686,2.9340003,4.7390003,0.75,1.12,72,7,0.79700005,-0.762,-0.23400001,-0.503,3.8407834,0,nan,0.0,0.0,0.0,0,3,2,1,1,15,0,0,0
354950860,0,60.1878326,24.8327441,-37.911,-20.218,1743089443900012,11141125,0.66700006,0.75041634,2.94,4.736,0.75,1.12,72,7,0.86700004,-0.77000004,-0.4,-0.605,3.6208735,0,nan,0.0,0.0,0.0,0,3,2,1,1,15,0,0,0
355949859,0,60.1878269,24.832744899999998,-36.504,-18.811,1743089444900012,11141125,0.65400004,0.8747452,2.9450002,4.747,0.83,1.31,72,7,0.748,-0.624,-0.41300002,-0.674,3.5658672,0,nan,0.0,0.0,0.0,0,3,2,1,1,14,0,0,0
356950860,0,60.187823699999996,24.8327493,-33.410000000000004,-15.717,1743089445900013,11141125,0.522,3.1415925,2.947,4.7450004,0.83,1.31,72,6,0.162,0.049000002,0.15400001,-0.739,3.5658672,0,nan,0.0,0.0,0.0,0,3,2,1,1,14,0,0,0
357952635,0,60.1878229,24.832755,-30.201,-12.508000000000001,1743089446900013,11141125,0.522,3.1415925,2.946,4.741,0.83,1.31,73,6,0.19000001,0.142,0.127,-0.83800006,3.5658672,0,nan,0.0,0.0,0.0,0,3,2,1,1,14,0,0,0
358950859,0,60.1878196,24.8327606,-26.568,-8.875,1743089447900013,11141125,0.569,1.5465498,2.9410002,4.735,0.83,1.31,72,6,0.43400002,0.43400002,-0.002,-0.934,3.5658672,0,nan,0.0,0.0,0.0,0,3,2,1,1,14,0,0,0
359948861,0,60.1878177,24.8327694,-23.772000000000002,-6.079,1743089448900014,11141125,0.55300003,2.0073507,2.9410002,4.7380004,0.83,1.31,72,6,0.319,0.31100002,0.07300001,-0.83000004,3.5658672,0,nan,0.0,0.0,0.0,0,3,2,1,1,14,0,0,0
