timestamp,timestamp_sample,accel_device_id,gyro_device_id,delta_angle[0],delta_angle[1],delta_angle[2],delta_velocity[0],delta_velocity[1],delta_velocity[2],delta_angle_dt,delta_velocity_dt,delta_angle_clipping,delta_velocity_clipping,accel_calibration_count,gyro_calibration_count
200500803,200500673,3407882,3407882,-1.1688931e-05,-1.2604884e-05,1.0213928e-05,-0.0010972599,0.0028184026,-0.04796481,5002,5002,0,0,1,1
201000805,201000673,3407882,3407882,-1.8797165e-05,1.2217691e-05,1.6518342e-07,-0.0005235937,0.002245772,-0.04919837,5002,5002,0,0,1,1
201500799,201500671,3407882,3407882,-2.9273133e-05,-5.9474187e-06,1.0012698e-05,-0.0009813453,0.0024269803,-0.049591243,5000,5000,0,0,1,1
202000799,202000671,3407882,3407882,-3.2211305e-05,-8.402359e-06,-1.8399949e-06,-0.0013026845,0.0016909896,-0.048789795,5000,5000,0,0,1,1
202500805,202500671,3407882,3407882,-9.402533e-06,3.2708016e-05,9.580987e-06,-0.00014105365,0.0018796459,-0.04611511,5000,5000,0,0,1,1
203000799,203000671,3407882,3407882,3.8477596e-05,-4.657147e-06,1.3324848e-05,-0.0012786228,0.0011575853,-0.0491245,4988,4988,0,0,1,1
203500804,203500671,3407882,3407882,-6.4132264e-06,-1.4630086e-06,8.210079e-06,-0.0008318097,0.00038076908,-0.04700102,5001,5001,0,0,1,1
204000799,204000671,3407882,3407882,-2.5045733e-06,-2.4851606e-05,4.8227375e-06,-0.0003974492,0.0004657816,-0.047791813,5000,5000,0,0,1,1
204500798,204500671,3407882,3407882,8.313358e-05,2.1204349e-05,-2.0024188e-05,-0.0027517155,-0.00058395794,-0.0556549,5000,5000,0,0,1,1
205000799,205000671,3407882,3407882,0.00021160179,0.00021895475,-4.8657686e-05,0.008524554,0.0027914902,-0.0497223,5000,5000,0,0,1,1
205500800,205500671,3407882,3407882,0.0017063092,0.0003124814,0.00024101601,0.006382779,0.0015290311,-0.05175486,5000,5000,0,0,1,1
206000798,206000671,3407882,3407882,-0.00052306434,-0.00025838474,0.0006154571,-0.0071322457,-0.0014287079,-0.055301756,5000,5000,0,0,1,1
207000799,207000671,3407882,3407882,0.00026162446,0.00024811676,0.0002818629,-0.010601635,-0.00097635045,-0.053394753,5000,5000,0,0,1,1
207500801,207500671,3407882,3407882,0.00020459523,5.6476097e-06,-0.00064309104,-0.007315732,-0.002457689,-0.04301892,5000,5000,0,0,1,1
208000799,208000671,3407882,3407882,0.0011997776,0.0003036919,-0.0007745188,-0.0096353,-0.0010062227,-0.049994234,5000,5000,0,0,1,1
208500800,208500671,3407882,3407882,-0.00043250254,-0.00053096947,-6.7789355e-05,-0.0040737106,0.0033844123,-0.040475633,5000,5000,0,0,1,1
209000798,209000671,3407882,3407882,-0.00014172599,-0.00039290628,0.00033606662,-0.0013174168,-0.0033355332,-0.057442196,4999,4999,0,0,1,1
209500806,209500671,3407882,3407882,-0.00031708836,-0.00050380355,0.0011053247,0.0023279989,-0.0055305967,-0.042379513,5000,5000,0,0,1,1
210000800,210000671,3407882,3407882,0.0002546466,0.0009758133,0.00031968183,-0.01017331,0.0005026762,-0.049841426,5000,5000,0,0,1,1
210500799,210500671,3407882,3407882,0.00035441035,0.00033015665,-0.0001452101,-0.0050583854,-0.0016336401,-0.031197034,4998,4998,0,0,1,1
211500796,211500671,3407882,3407882,0.0007433798,0.0011203509,1.8407212e-05,0.0078442395,0.0050176186,-0.053715646,5000,5000,0,0,1,1
212000798,212000671,3407882,3407882,-0.00031158657,5.5216737e-05,-0.00028513846,-0.0032818925,0.014616227,-0.029573252,5000,5000,0,0,1,1
212500799,212500671,3407882,3407882,-0.0002531284,0.0018537691,4.2211213e-05,-0.002275717,0.0033658498,-0.05581711,5000,5000,0,0,1,1
213000799,213000671,3407882,3407882,-0.00024122505,-0.0003124532,-0.00010645707,-0.010199174,-0.0078103933,-0.05051391,5000,5000,0,0,1,1
213500799,213500671,3407882,3407882,-0.00033463127,-0.0011757929,0.0002526328,-0.030258922,-0.005880019,-0.071011394,5000,5000,0,0,1,1
214000796,214000671,3407882,3407882,-5.0782488e-05,-0.0005450251,0.0001401038,-0.0038594746,0.002852524,-0.052808747,5001,5001,0,0,1,1
214500798,214500671,3407882,3407882,-0.00046475712,-0.0005855988,-7.730357e-06,0.008534529,0.0034067724,-0.04721931,5001,5001,0,0,1,1
215000798,215000671,3407882,3407882,-0.0007612969,-7.32443e-05,-0.00026819675,-0.0052607697,0.0018659803,-0.045999017,5000,5000,0,0,1,1
215500798,215500671,3407882,3407882,-0.00021003383,-0.0009209874,0.00014321221,0.016890801,0.008034792,-0.049969885,5000,5000,0,0,1,1
216000799,216000671,3407882,3407882,0.00047246309,-0.0020953568,-0.0003106979,0.0032642127,0.007768806,-0.047442853,5000,5000,0,0,1,1
216500798,216500671,3407882,3407882,-0.00033327524,7.968324e-05,0.00017880672,-0.017187186,0.0008864726,-0.02331496,5000,5000,0,0,1,1
217000798,217000671,3407882,3407882,6.988453e-05,0.001968985,1.51985205e-05,0.033360854,0.015305962,-0.04493456,5000,5000,0,0,1,1
217500799,217500671,3407882,3407882,-0.00037866863,-0.00049562927,5.0722145e-05,0.014990561,0.018942107,-0.057037227,5000,5000,0,0,1,1
218000799,218000671,3407882,3407882,0.00065329095,-0.0030088478,-2.0405507e-05,0.013717354,0.012036845,-0.048336077,5000,5000,0,0,1,1
218500799,218500671,3407882,3407882,-0.0004792167,0.0035400344,-0.00020342626,0.011818212,0.0145053705,-0.055938408,5000,5000,0,0,1,1
219000799,219000671,3407882,3407882,-0.00012167663,-0.0017920595,-0.00047005754,-0.036499616,0.004699244,-0.057653572,4999,4999,0,0,1,1
219500799,219500671,3407882,3407882,0.0002655622,-0.00041853578,0.00020487164,-0.0068928907,-0.00028452923,-0.048482746,5000,5000,0,0,1,1
220000798,220000671,3407882,3407882,-0.00063409,0.00024462317,8.139806e-05,0.011346711,0.0033959534,-0.048235845,5000,5000,0,0,1,1
221000798,221000671,3407882,3407882,-0.0006184377,0.00044194504,0.0002748529,-0.0059282095,0.011855747,-0.04610387,5000,5000,0,0,1,1
221500798,221500671,3407882,3407882,-0.00056044065,-0.0005366959,7.113037e-05,0.008170328,0.006863995,-0.043491714,5000,5000,0,0,1,1
222000799,222000671,3407882,3407882,0.001114199,-0.0010464445,0.0001961593,-0.022431279,-0.00014033451,-0.07140455,5000,5000,0,0,1,1
222500800,222500671,3407882,3407882,0.00046113547,0.00066085625,-0.0005636783,0.0024441273,0.0036623718,-0.041127663,5000,5000,0,0,1,1
223000799,223000671,3407882,3407882,-4.756558e-05,0.0002930037,-0.00023762358,0.003511508,0.0022875788,-0.04776964,5000,5000,0,0,1,1
223500798,223500671,3407882,3407882,0.00044537178,0.00016005547,0.0007526157,-0.0018895364,0.0018075386,-0.04824931,5000,5000,0,0,1,1
224000806,224000671,3407882,3407882,-0.00022395088,-5.9443628e-05,-0.00047692662,-0.00091335725,0.003972709,-0.0457304,5000,5000,0,0,1,1
224500804,224500671,3407882,3407882,-0.00064199825,0.00017048638,-0.0004911807,0.0033190341,0.0015624273,-0.046784084,5000,5000,0,0,1,1
225000798,225000671,3407882,3407882,0.00013323726,-0.00025581958,9.8348566e-05,-0.015583737,-0.008265419,-0.053902097,5000,5000,0,0,1,1
226000799,226000671,3407882,3407882,0.00065179943,-7.814372e-06,0.00032229573,0.00024160933,-0.001337771,-0.030250916,5000,5000,0,0,1,1
226500799,226500671,3407882,3407882,-1.4009688e-05,0.000675003,-1.318305e-05,-0.021000762,-0.0061719143,-0.03654674,5000,5000,0,0,1,1
227000798,227000671,3407882,3407882,0.00025555576,0.00081605074,-0.00044082283,-0.013606746,-0.007815711,-0.025937166,5000,5000,0,0,1,1
227500797,227500671,3407882,3407882,0.00015126265,0.00046325967,-0.00031014998,-0.015278255,0.003372003,-0.04557979,5000,5000,0,0,1,1
228000798,228000671,3407882,3407882,0.00045014924,0.0007731123,0.00089428003,-0.011950842,0.0084606735,-0.044312187,5000,5000,0,0,1,1
228500802,228500671,3407882,3407882,-0.0019541539,0.0004230251,0.0002110369,-0.0062429425,0.00020289188,-0.05030563,5000,5000,0,0,1,1
229000799,229000671,3407882,3407882,0.000522468,0.0009795517,-0.00056460366,-0.00811078,0.0058949827,-0.027205324,4995,4995,0,0,1,1
229500803,229500671,3407882,3407882,-0.00016893017,0.000570058,0.00013848006,-0.009071728,0.00091055105,-0.038019612,5000,5000,0,0,1,1
230000805,230000671,3407882,3407882,-0.00032809353,0.00037969867,-0.00027298724,-0.012396304,-0.013296804,-0.03891345,5000,5000,0,0,1,1
230500799,230500671,3407882,3407882,-0.00024353889,0.0009143191,-0.00028511285,0.0047364747,0.0018060091,-0.041796733,5000,5000,0,0,1,1
231000799,231000671,3407882,3407882,0.00011343331,-0.00036658326,0.00023359721,0.0006692665,0.018424341,-0.051568884,5000,5000,0,0,1,1
231500798,231500671,3407882,3407882,-0.00045864593,0.00044044625,-4.955513e-05,-0.014818105,0.00011204002,-0.053588085,5000,5000,0,0,1,1
232000799,232000671,3407882,3407882,-0.00042438364,0.00027559182,-1.4386928e-05,-0.000664399,0.0032689213,-0.050967056,5000,5000,0,0,1,1
232500799,232500671,3407882,3407882,-0.00014892207,-0.000105142906,0.00021851517,-0.0084287785,-0.0036976896,-0.044355564,5000,5000,0,0,1,1
233000799,233000671,3407882,3407882,0.0011050954,-0.0007852909,-0.00029751146,-0.0061189625,0.0042356844,-0.05376275,5000,5000,0,0,1,1
233500798,233500671,3407882,3407882,0.00014221585,0.00033094952,-0.0005144031,-0.0012373268,-0.009516053,-0.032981537,5000,5000,0,0,1,1
235000799,235000671,3407882,3407882,-0.0005138715,-0.0022139116,-0.00017354566,0.008982417,0.0013464759,-0.049450476,5000,5000,0,0,1,1
235500799,235500671,3407882,3407882,-0.0006298716,-0.0009972136,-6.8231566e-05,-0.01781207,-0.000742092,-0.062348418,5000,5000,0,0,1,1
236000799,236000671,3407882,3407882,-0.00014600942,-0.0011754085,0.00034154896,0.011819541,-0.0044653425,-0.036223873,5000,5000,0,0,1,1
236500796,236500671,3407882,3407882,-0.00013666823,-0.0016423534,-0.0007639668,-0.002427598,-0.008526591,-0.050726436,5000,5000,0,0,1,1
237000800,237000671,3407882,3407882,-0.0004825791,-0.0019373433,-0.00014733819,-0.007814349,0.0037850307,-0.04047129,5000,5000,0,0,1,1
237500798,237500671,3407882,3407882,-0.00017020234,0.000452636,0.00044679389,0.004441313,-6.324629e-05,-0.04293752,5000,5000,0,0,1,1
238000798,238000671,3407882,3407882,-0.00089373183,-0.00045887515,0.00017267786,-0.0072240937,0.004523577,-0.05307149,5000,5000,0,0,1,1
238500799,238500671,3407882,3407882,-0.00025785237,-0.0004247944,0.0001696201,-0.0055737626,0.0027272725,-0.04309117,5000,5000,0,0,1,1
239000799,239000671,3407882,3407882,-0.0008333136,-0.0012977037,-0.0005314483,-0.006339748,-0.0032317878,-0.047760297,5000,5000,0,0,1,1
239500806,239500671,3407882,3407882,0.0004729029,0.00026210735,-0.00046669686,0.010473617,-0.0058755195,-0.046347722,5000,5000,0,0,1,1
240000799,240000671,3407882,3407882,-0.0014540971,-0.00038180876,-0.00021191261,-0.0061447266,-0.0046530687,-0.042145357,5000,5000,0,0,1,1
240500799,240500671,3407882,3407882,-0.0009466339,-0.00044497303,5.058e-05,-0.010148505,-0.004680549,-0.0593371,5000,5000,0,0,1,1
241000799,241000671,3407882,3407882,-0.0008307302,-0.00027576866,0.00014458306,0.00206988,0.0017020386,-0.036149096,5000,5000,0,0,1,1
241500799,241500671,3407882,3407882,-0.00021800055,-0.00017721785,0.00015830722,-0.0035388514,0.0011732216,-0.058174275,5000,5000,0,0,1,1
242000800,242000671,3407882,3407882,-4.362419e-05,-7.601257e-05,1.6353873e-05,0.0019628245,-0.0056718998,-0.06254502,5000,5000,0,0,1,1
243000799,243000671,3407882,3407882,-3.7461955e-06,0.00014660112,-0.00031125607,-0.01006379,0.000773205,-0.040365897,5000,5000,0,0,1,1
243500798,243500671,3407882,3407882,0.0021798473,0.0011349465,0.0004153726,-0.013491413,-0.0014405011,-0.042194813,4999,4999,0,0,1,1
244000807,244000672,3407882,3407882,0.0011809026,0.00063520134,0.00015219634,-0.0049648155,0.00062287645,-0.020832716,5001,5001,0,0,1,1
244500804,244500671,3407882,3407882,0.00092429225,0.00035888562,4.1606272e-05,0.020272858,-0.0061182696,-0.035024967,5000,5000,0,0,1,1
245000798,245000671,3407882,3407882,0.00046772577,-0.00013099634,0.000114939794,-0.020983309,-0.0004034575,-0.06004725,5000,5000,0,0,1,1
246000798,246000671,3407882,3407882,-0.0005090427,7.582007e-05,-0.00011185969,0.0031911698,0.004457132,-0.05207383,5000,5000,0,0,1,1
246500799,246500671,3407882,3407882,-0.0003656957,-3.722611e-05,-8.7588756e-05,-0.00060961355,0.00093895994,-0.039569452,5000,5000,0,0,1,1
247000798,247000671,3407882,3407882,-0.003807233,-0.0016589189,-0.00018089692,0.0013954178,-0.00021990808,-0.055471282,5000,5000,0,0,1,1
248000809,248000671,3407882,3407882,-0.0005457834,-0.00017761788,-9.612786e-05,-0.0054819155,0.0006928211,-0.06204585,5000,5000,0,0,1,1
248500799,248500671,3407882,3407882,0.000552915,-7.150755e-05,0.0002979048,0.0016075134,0.008920482,-0.041313894,5000,5000,0,0,1,1
249000799,249000671,3407882,3407882,0.0002650474,1.2127462e-05,0.00023398618,-0.0033716857,0.0056449627,-0.050790608,5000,5000,0,0,1,1
249500843,249500671,3407882,3407882,0.00013154904,0.00028090508,-8.9662644e-05,0.003694231,-0.0008534579,-0.05175339,5000,5000,0,0,1,1
250000799,250000671,3407882,3407882,0.0010472069,0.00013320494,0.00010220222,-0.0050172396,-0.0031184258,-0.045761477,5001,5001,0,0,1,1
250500799,250500671,3407882,3407882,0.00026870004,0.00011409484,-0.0001361689,0.0010350313,-0.0057775886,-0.05718751,5000,5000,0,0,1,1
251000799,251000671,3407882,3407882,0.00023767973,0.00018326026,5.249357e-05,-0.008904797,-0.00910622,-0.05059019,5000,5000,0,0,1,1
251500798,251500671,3407882,3407882,-7.3893105e-05,-0.00022601972,-0.00029479837,-0.00090308255,-0.009631446,-0.058821008,5000,5000,0,0,1,1
252000799,252000671,3407882,3407882,-0.00046585064,-5.3917458e-05,-0.00021522999,0.0011137914,0.0029062845,-0.07243521,5000,5000,0,0,1,1
252500798,252500671,3407882,3407882,0.00022348182,-0.00021485874,-0.00016897939,-0.009484448,-0.0023019873,-0.039121505,5000,5000,0,0,1,1
253000798,253000671,3407882,3407882,-2.4915227e-05,-8.079742e-05,2.0466978e-05,-0.0046871756,0.005655388,-0.035799246,5000,5000,0,0,1,1
253500798,253500671,3407882,3407882,-0.0020707243,-0.00053721154,0.0002227179,-0.016437793,0.0019958913,-0.05234228,5000,5000,0,0,1,1
254000798,254000671,3407882,3407882,-0.0014275265,-0.000539688,0.00017920799,-0.0040193,0.00548642,-0.04450628,5000,5000,0,0,1,1
254500798,254500671,3407882,3407882,-0.00035048582,-0.00031038554,-3.3628752e-05,-0.0062970165,-0.0058396785,-0.046572745,5000,5000,0,0,1,1
255000805,255000673,3407882,3407882,0.00047759237,-0.00022057763,-0.00018952083,-0.019696344,0.006680438,-0.07064133,5002,5002,0,0,1,1
255500799,255500671,3407882,3407882,-0.00015430317,0.0007074044,-0.00034321044,0.011323373,-0.01191784,-0.060896788,5000,5000,0,0,1,1
256000798,256000671,3407882,3407882,0.00054986094,-0.0006909464,-2.1610316e-05,-0.020646181,-0.009037023,-0.037861034,5000,5000,0,0,1,1
256500798,256500671,3407882,3407882,-0.0003266228,-4.7912024e-05,0.0003117237,0.0140559515,0.0004260394,-0.040458433,5000,5000,0,0,1,1
257500798,257500671,3407882,3407882,-0.00018802642,-0.00012320875,0.0003456745,0.00016304321,0.0049446733,-0.04830304,5001,5001,0,0,1,1
258000799,258000671,3407882,3407882,0.00049377256,0.0010690772,6.952856e-05,-0.0036512797,-0.015981136,-0.03335935,5000,5000,0,0,1,1
258500798,258500671,3407882,3407882,-0.00090644567,-0.00026822806,-0.00025665204,-0.004616205,0.00892829,-0.050494537,5000,5000,0,0,1,1
259000801,259000671,3407882,3407882,-0.0008754846,-0.00020520572,-0.00029169608,-0.0033125372,0.0012293332,-0.059275813,5000,5000,0,0,1,1
259500799,259500671,3407882,3407882,0.00021456523,-0.0006314838,0.00022416498,0.005714361,0.005511212,-0.046085667,5000,5000,0,0,1,1
260000799,260000671,3407882,3407882,-0.00014820514,-0.00053648086,4.6917292e-05,0.00094629213,0.008344418,-0.044253625,5000,5000,0,0,1,1
260500799,260500671,3407882,3407882,0.0004580399,0.0006737834,-0.000653744,0.007535284,-0.010389015,-0.036275413,5000,5000,0,0,1,1
261000799,261000671,3407882,3407882,-0.0007744542,0.00081328605,0.00024818195,0.011875663,0.0019818936,-0.040687628,5000,5000,0,0,1,1
261500799,261500671,3407882,3407882,0.00090547587,2.8919761e-05,5.5041637e-05,0.0032974721,-0.003724332,-0.054733813,5000,5000,0,0,1,1
262000799,262000671,3407882,3407882,0.00015454604,7.5229815e-05,-6.813497e-05,0.011699872,0.004768054,-0.039545435,5000,5000,0,0,1,1
262500799,262500671,3407882,3407882,-0.0004088657,0.00023739057,0.00029399418,0.0030250265,-0.0017617532,-0.026602808,5000,5000,0,0,1,1
263000798,263000671,3407882,3407882,-6.332004e-05,0.0006025376,0.00026963415,0.016953545,0.0019487367,-0.04453436,5000,5000,0,0,1,1
263500798,263500671,3407882,3407882,-0.00065736746,0.00028521346,0.00024759414,-0.0032403436,-0.0022433787,-0.0580533,5000,5000,0,0,1,1
264000799,264000671,3407882,3407882,0.0003127936,-4.3371692e-05,-0.00030613397,-0.007293828,0.006319373,-0.039383106,5000,5000,0,0,1,1
264500799,264500671,3407882,3407882,-0.0007992138,0.00088666525,-0.000718231,-0.0125533,-0.004790186,-0.04116827,5000,5000,0,0,1,1
265000798,265000671,3407882,3407882,-7.3088995e-05,0.000116093666,0.00024757706,-0.012690613,0.00030682993,-0.061934244,5000,5000,0,0,1,1
265500804,265500671,3407882,3407882,-0.00047865402,0.00067817373,-3.3582965e-05,0.010114185,0.0027234713,-0.057923105,5000,5000,0,0,1,1
266000798,266000671,3407882,3407882,0.0001271682,0.00076958694,1.9596528e-05,-0.006877972,0.0012258086,-0.050145943,5000,5000,0,0,1,1
266500799,266500671,3407882,3407882,-0.0004753905,0.00070164044,-0.00014166905,0.021541864,0.006366928,-0.06087111,5000,5000,0,0,1,1
267000799,267000671,3407882,3407882,-0.0002644645,5.883566e-05,3.187066e-05,-0.0051949727,-0.0015947771,-0.04135147,5000,5000,0,0,1,1
267500799,267500671,3407882,3407882,0.00041384395,-0.00028918037,8.40262e-05,0.001565952,0.0041023,-0.060288653,5000,5000,0,0,1,1
268000799,268000671,3407882,3407882,0.0002637615,-0.0002219435,-0.00011649209,-0.0037549888,-0.0012864695,-0.034748603,5000,5000,0,0,1,1
268500799,268500671,3407882,3407882,-0.00028704145,-0.0007068241,-0.00017777501,0.0007253014,-0.000112532114,-0.047585297,5000,5000,0,0,1,1
269000804,269000671,3407882,3407882,-0.0005362151,0.0023944015,0.0014074793,0.00097381225,-0.0035252385,-0.05826921,5000,5000,0,0,1,1
269500798,269500671,3407882,3407882,-0.00010070998,-0.00078245637,0.0043086684,0.0016056807,-0.0055124494,-0.054132573,5000,5000,0,0,1,1
270000798,270000671,3407882,3407882,-0.00016339561,-0.0005034013,0.0046932343,-0.011010336,-0.0023218184,-0.053124115,5000,5000,0,0,1,1
270500807,270500671,3407882,3407882,2.797269e-05,0.0001882494,0.0051986533,0.00858521,-0.00293946,-0.049108222,5000,5000,0,0,1,1
271000798,271000671,3407882,3407882,-0.00037575353,4.128484e-05,0.0053589772,-0.0062803417,0.004650097,-0.050194245,5000,5000,0,0,1,1
271500797,271500671,3407882,3407882,3.3039177e-07,-0.00024675176,0.004829662,0.006263836,0.00045890643,-0.036065176,5000,5000,0,0,1,1
272000798,272000671,3407882,3407882,-0.00040025968,-4.124722e-05,0.004658127,0.0033030112,0.0030929116,-0.045654442,5000,5000,0,0,1,1
272500799,272500671,3407882,3407882,-0.00010662864,-0.00057591364,0.0046437257,-0.0021971378,0.00097371294,-0.05759965,5001,5001,0,0,1,1
273000829,273000688,3407882,3407882,7.5381606e-05,0.0003107161,0.004789838,0.007592173,0.005552189,-0.039034016,5017,5017,0,0,1,1
274000798,274000671,3407882,3407882,7.893813e-05,0.000107818494,0.0046270094,0.0074559227,-0.0008627343,-0.035064027,5000,5000,0,0,1,1
274500799,274500671,3407882,3407882,-0.00013555183,-2.0288133e-05,0.005267212,0.007216427,0.0022348342,-0.04502457,5000,5000,0,0,1,1
275000806,275000671,3407882,3407882,-2.2533386e-05,-5.7403722e-05,0.005308892,-0.008790737,0.0014181319,-0.05928141,5000,5000,0,0,1,1
275500798,275500671,3407882,3407882,-0.00020769566,0.00013452848,0.0047833906,-0.00917498,-0.005205384,-0.038631257,5000,5000,0,0,1,1
276000798,276000671,3407882,3407882,-3.7437232e-07,-5.194758e-05,0.004436388,0.0031545567,-0.009810183,-0.038588718,5000,5000,0,0,1,1
276500799,276500671,3407882,3407882,8.239117e-06,-0.00057320227,0.0051853387,-0.0075048762,0.0010008146,-0.038893003,5000,5000,0,0,1,1
277000799,277000671,3407882,3407882,0.0005876067,-0.00028511384,0.004936352,0.009651345,0.0072697964,-0.054523308,5000,5000,0,0,1,1
277500798,277500671,3407882,3407882,1.3902153e-05,0.00026274016,0.0023643633,-0.0015903966,0.0025004938,-0.05897106,5000,5000,0,0,1,1
278000798,278000671,3407882,3407882,-7.473557e-05,0.00035316902,-9.821192e-05,0.007368646,0.00400007,-0.052873686,5000,5000,0,0,1,1
278500806,278500677,3407882,3407882,0.000616558,-0.0003172477,-0.0006660716,0.005020655,-0.0021885836,-0.035182603,5006,5006,0,0,1,1
279000799,279000671,3407882,3407882,-0.0003070077,-4.085068e-06,-8.458695e-05,0.0019252021,0.0006956594,-0.053004503,5000,5000,0,0,1,1
279500798,279500671,3407882,3407882,0.0003823199,0.00039819986,-0.00019791533,-1.9509886e-05,0.00018025974,-0.055069823,5000,5000,0,0,1,1
280500800,280500671,3407882,3407882,-0.00031788167,-0.0003749102,-0.00038659206,-0.012725651,0.0060570734,-0.069486074,5000,5000,0,0,1,1
281000799,281000671,3407882,3407882,0.00014642485,0.0002609273,0.00017409095,0.018303882,0.0025288176,-0.03212304,5000,5000,0,0,1,1
281500805,281500671,3407882,3407882,3.979837e-05,-0.00029852515,-0.00020226704,0.0049856305,-0.0063806423,-0.03337254,5000,5000,0,0,1,1
282000799,282000671,3407882,3407882,0.00018277133,0.0004046864,3.441652e-05,0.009881055,-0.0058191186,-0.041001406,5000,5000,0,0,1,1
282500799,282500671,3407882,3407882,-0.00024346498,-0.0006197794,1.3613147e-05,-0.024377707,-0.0022010962,-0.056265328,5000,5000,0,0,1,1
283000803,283000671,3407882,3407882,0.0001804833,-0.0003858902,6.5590575e-05,-0.013703683,-0.006193942,-0.04219747,5000,5000,0,0,1,1
284000798,284000671,3407882,3407882,0.00051474705,0.00042401362,-0.010648443,-0.025457822,0.0018791418,-0.067254595,5000,5000,0,0,1,1
284500807,284500672,3407882,3407882,-0.0002903632,-0.0005723461,-0.0034749033,0.011370013,0.0036567592,-0.052434906,5001,5001,0,0,1,1
285000799,285000671,3407882,3407882,1.627059e-05,0.00083889667,-0.00074235466,0.016108006,0.0054011447,-0.041476868,5000,5000,0,0,1,1
285500799,285500671,3407882,3407882,-5.8252783e-05,-0.0001515452,0.00055291475,-0.0066580027,0.0074531185,-0.04528271,5000,5000,0,0,1,1
286000806,286000671,3407882,3407882,-0.00014216291,-0.00033265245,0.00039970785,0.021607693,-0.005791566,-0.044890508,5000,5000,0,0,1,1
286500798,286500671,3407882,3407882,-0.00078692264,0.00031358036,0.0007574284,-0.00026221253,0.0045031426,-0.037772175,5000,5000,0,0,1,1
287000799,287000671,3407882,3407882,0.0001477299,0.00027411277,-2.9448272e-05,-0.019379381,0.005126273,-0.066760235,5000,5000,0,0,1,1
287500799,287500671,3407882,3407882,7.3404866e-05,0.00012220637,-0.00016184287,0.0057035396,-0.0040210094,-0.046953302,5000,5000,0,0,1,1
288000798,288000671,3407882,3407882,-0.00011739522,-0.0008516366,-0.00028565226,-0.020437444,0.004402476,-0.054505363,5000,5000,0,0,1,1
288500799,288500671,3407882,3407882,-0.00031565502,0.00035408477,-0.00020856704,0.0010773739,-0.0047479887,-0.05718006,5000,5000,0,0,1,1
289000798,289000671,3407882,3407882,-0.00018034382,0.00021900386,-0.00037421132,0.002347348,0.00047186538,-0.047074698,5000,5000,0,0,1,1
289500799,289500671,3407882,3407882,-0.00024307313,-0.00064349396,-0.0001956275,-0.0004788994,0.00097642746,-0.046851236,5000,5000,0,0,1,1
290000796,290000671,3407882,3407882,0.00082553976,0.0012024096,-0.00039914556,0.024284976,0.018289594,-0.04863288,5000,5000,0,0,1,1
290500798,290500671,3407882,3407882,-0.00033267666,-4.771618e-05,-3.3170225e-05,0.0045259343,-0.003980726,-0.031023052,5000,5000,0,0,1,1
291000799,291000671,3407882,3407882,-0.0002714131,0.00016402552,-0.00036827876,-0.0014852785,-0.006862332,-0.060496934,5000,5000,0,0,1,1
291500798,291500671,3407882,3407882,8.4040825e-05,0.00019859483,3.1289706e-05,-0.003868909,-0.00396082,-0.052516226,5000,5000,0,0,1,1
292000798,292000671,3407882,3407882,-0.0005848569,0.0012165722,-0.00025936463,-0.007111215,-0.0022665528,-0.050043058,5000,5000,0,0,1,1
292500804,292500671,3407882,3407882,0.0011692347,0.00030886562,0.0009518051,-0.0041400637,0.0058580157,-0.028807573,5000,5000,0,0,1,1
293000799,293000671,3407882,3407882,-0.00035008547,2.868592e-05,2.5492544e-05,-0.01073373,0.0033186069,-0.042658184,5000,5000,0,0,1,1
293500799,293500671,3407882,3407882,0.000105315274,0.00030579837,-0.0006130306,-0.0067615425,0.011408019,-0.05500963,5000,5000,0,0,1,1
294000799,294000671,3407882,3407882,-0.00019118069,-0.00014453063,0.00031178963,-0.0031250177,-0.0042016883,-0.048306663,5000,5000,0,0,1,1
294500799,294500671,3407882,3407882,-0.00038525095,-0.000114055765,-9.757807e-06,-0.00040040337,-0.007259983,-0.049827375,5000,5000,0,0,1,1
295000799,295000671,3407882,3407882,8.635767e-06,-0.0007661754,6.662208e-05,-0.007978647,-0.0044835424,-0.05205048,5000,5000,0,0,1,1
295500799,295500671,3407882,3407882,-0.00043807164,0.00018382046,-9.508262e-05,-0.0034815026,0.0054352395,-0.042740703,5000,5000,0,0,1,1
296000798,296000671,3407882,3407882,-0.004000278,-0.00020955213,0.00016578441,0.005286294,0.0013602531,-0.044976346,5000,5000,0,0,1,1
297000798,297000671,3407882,3407882,0.0018712698,-0.0009999045,-0.0005984583,-0.013303917,-0.0025873487,-0.034150034,5000,5000,0,0,1,1
297500799,297500671,3407882,3407882,0.00038815066,0.0007698223,-0.00058084563,-0.007382019,-8.334633e-05,-0.070208624,5000,5000,0,0,1,1
298500798,298500671,3407882,3407882,-0.000100710735,-0.0013127689,-0.00017173908,0.00073095545,0.019505994,-0.04276474,5000,5000,0,0,1,1
299000799,299000671,3407882,3407882,-0.00033707614,-0.00010986267,-4.8596004e-05,-0.0041473117,0.018147035,-0.037295055,5000,5000,0,0,1,1
299500798,299500671,3407882,3407882,-0.00076851656,-2.9054498e-05,-0.000100520956,-0.0037548766,-0.019835893,-0.029492782,5000,5000,0,0,1,1
300000798,300000671,3407882,3407882,-0.00015259864,0.0017619495,-0.00026189207,0.007789144,0.014353876,-0.05983393,5000,5000,0,0,1,1
300500799,300500671,3407882,3407882,0.0006178307,0.00070386205,-0.00027021268,-0.022939974,0.00452255,-0.040448174,5000,5000,0,0,1,1
301000798,301000671,3407882,3407882,-0.00037958275,0.00027488824,0.00019143785,0.000992442,-0.0068761418,-0.04169872,5000,5000,0,0,1,1
301500799,301500671,3407882,3407882,-0.0009166828,-0.00014059094,-5.0591116e-05,-0.0061539183,0.0028185663,-0.03612642,5000,5000,0,0,1,1
302000799,302000671,3407882,3407882,-0.00025166754,9.8415956e-05,6.168609e-05,0.008659467,0.0063748127,-0.03284355,5000,5000,0,0,1,1
302500821,302500671,3407882,3407882,0.00033574385,-0.0005743405,0.00017838858,-0.022465145,0.00057789,-0.053141717,5000,5000,0,0,1,1
303000798,303000671,3407882,3407882,-0.00038685332,0.0006350602,-5.593784e-05,0.005887053,0.0031362933,-0.04593857,5000,5000,0,0,1,1
303500798,303500671,3407882,3407882,-0.00027525474,-0.0003346784,-0.000421012,-0.030131606,-0.024315052,-0.041293636,5000,5000,0,0,1,1
304000798,304000671,3407882,3407882,0.00221969,-0.00014757781,-3.489714e-05,0.00034840583,0.004417499,-0.04175023,5000,5000,0,0,1,1
304500798,304500671,3407882,3407882,-0.0017294629,-0.00010848242,0.0002254081,-0.011552274,0.0015734313,-0.020992825,5000,5000,0,0,1,1
305000799,305000671,3407882,3407882,0.00094282324,-0.0006229397,0.00013792554,-0.0056839613,0.014121907,-0.078398585,5000,5000,0,0,1,1
305500812,305500671,3407882,3407882,0.0010382765,-0.00035586735,0.00028637168,0.009697868,0.008735562,-0.043548424,5000,5000,0,0,1,1
306000798,306000671,3407882,3407882,3.8547973e-05,-0.00047084416,0.00020742285,-0.0072585433,-0.0022916382,-0.065082125,5000,5000,0,0,1,1
306500799,306500671,3407882,3407882,0.00052209146,0.00015604944,-0.00036490275,0.008480167,-0.0012409132,-0.045746047,5000,5000,0,0,1,1
307000813,307000671,3407882,3407882,-5.225859e-05,0.00029412925,-0.0004339453,-0.00019485278,0.0026532498,-0.063897945,5000,5000,0,0,1,1
307500799,307500671,3407882,3407882,-6.8281056e-06,0.00042859587,9.178629e-05,0.04193814,0.028306454,-0.07792798,5000,5000,0,0,1,1
308000799,308000671,3407882,3407882,-0.0017983605,0.0007365391,7.742488e-05,-0.0070827017,0.0017714725,-0.041892003,5000,5000,0,0,1,1
308500804,308500671,3407882,3407882,0.0048829373,-0.0006404634,0.0011008498,-0.007346346,0.008285269,-0.06961837,5000,5000,0,0,1,1
309000799,309000671,3407882,3407882,-0.00048611712,-0.0004323491,0.0006169792,0.0101718195,1.30853705e-05,-0.0727685,5000,5000,0,0,1,1
309500799,309500671,3407882,3407882,-0.0016547764,0.00073285826,2.653675e-05,-0.013459925,-0.015184492,-0.047195677,5000,5000,0,0,1,1
310000805,310000671,3407882,3407882,-0.001330312,0.0010809748,-0.00035081888,0.027284378,0.0034863588,-0.047591615,5000,5000,0,0,1,1
310500799,310500671,3407882,3407882,0.00050709344,-0.000457735,-0.0002644373,-0.011828899,-0.0045530577,-0.053097207,5000,5000,0,0,1,1
311000799,311000671,3407882,3407882,0.0006561157,0.000119549935,0.00020834038,-0.0027417492,0.003997028,-0.03913339,5000,5000,0,0,1,1
311500798,311500671,3407882,3407882,0.00063950795,-1.3169435e-05,0.00035407877,-0.008147381,-0.0034172246,-0.031783193,5000,5000,0,0,1,1
312000799,312000671,3407882,3407882,0.0022810276,-0.0004696563,3.0882606e-05,0.00051998877,-0.0027079869,-0.044079244,5000,5000,0,0,1,1
312500804,312500671,3407882,3407882,0.0024601822,-0.0006771453,0.00030556228,0.004397578,0.011200209,-0.03932429,5000,5000,0,0,1,1
313000800,313000671,3407882,3407882,0.0005901336,-0.0009422678,-5.9002928e-06,-0.019507673,0.0049826456,-0.075689144,5000,5000,0,0,1,1
313500799,313500671,3407882,3407882,0.00031691857,0.00041229298,-8.727088e-05,0.00317762,-0.0014280267,-0.041704595,5000,5000,0,0,1,1
314000799,314000671,3407882,3407882,0.0014485781,-0.00030496324,0.00017264888,-0.004829353,0.0030531737,-0.06834134,5000,5000,0,0,1,1
314500805,314500671,3407882,3407882,0.0003156559,-0.00044989894,-1.8386698e-05,-0.023354882,0.016480641,-0.043475688,5000,5000,0,0,1,1
315000800,315000671,3407882,3407882,0.0013213154,0.00013102045,-0.00012508556,-0.0101757655,-0.00071488123,-0.04719406,5000,5000,0,0,1,1
315500798,315500671,3407882,3407882,-0.00017666002,-0.00012712312,-0.00087011844,0.007863125,0.0037970394,-0.045519583,5000,5000,0,0,1,1
316000798,316000671,3407882,3407882,0.0009101087,-0.00032456146,0.0004850579,-0.009158562,0.0009735978,-0.056089938,5001,5001,0,0,1,1
316500797,316500671,3407882,3407882,-0.0010407557,0.0005326941,3.2984972e-06,0.011639969,-0.011240947,-0.048832018,5000,5000,0,0,1,1
317000799,317000671,3407882,3407882,-0.00013416981,-0.0004879732,-7.6335404e-05,-0.015555454,0.005492903,-0.05220167,5000,5000,0,0,1,1
317500800,317500671,3407882,3407882,0.00052900834,0.00064512994,-0.00014483003,0.019294411,0.015253153,-0.061804347,5000,5000,0,0,1,1
318000798,318000671,3407882,3407882,-0.00031225017,-0.00041942677,3.6018868e-05,-0.0064260457,0.0030218428,-0.046064727,5000,5000,0,0,1,1
318500799,318500671,3407882,3407882,-0.0005609576,7.441668e-05,-0.00016714838,-0.016661722,0.00879288,-0.07019629,5000,5000,0,0,1,1
319000807,319000672,3407882,3407882,-0.00015450528,-0.0005249641,-0.00017890029,-0.025577517,0.00059150485,-0.03712731,5001,5001,0,0,1,1
319500798,319500671,3407882,3407882,-0.0013967094,0.00024766737,8.874257e-05,0.011375024,0.000106967986,-0.053616676,5000,5000,0,0,1,1
320000799,320000671,3407882,3407882,0.00047251026,0.0006874886,0.00039355957,0.008817263,-0.0030884244,-0.03354735,5000,5000,0,0,1,1
320500798,320500671,3407882,3407882,0.0017627856,0.00014121157,0.00038197255,0.00113767,-0.0055387137,-0.06764529,5000,5000,0,0,1,1
321000806,321000671,3407882,3407882,-0.0005905784,0.0019583746,0.0009897737,0.020665662,0.013620229,-0.039579008,5000,5000,0,0,1,1
321500802,321500671,3407882,3407882,8.8939356e-05,-0.00018350316,-0.0006085981,-0.022007663,0.017658371,-0.030589703,5000,5000,0,0,1,1
322000798,322000671,3407882,3407882,-0.00015577908,0.00096959784,-0.0005060494,0.023962196,0.011381916,-0.03688798,5000,5000,0,0,1,1
322500799,322500671,3407882,3407882,-2.7222695e-05,-0.00035288557,-0.00032785817,-0.014914708,0.008596308,-0.052308813,5000,5000,0,0,1,1
323000796,323000671,3407882,3407882,0.0005873705,9.898543e-06,-0.00033032632,-0.013889372,0.00040838643,-0.055127937,5000,5000,0,0,1,1
323500799,323500671,3407882,3407882,0.00013587589,-0.00069764804,3.6985566e-06,-0.006027171,0.013412593,-0.0569336,5000,5000,0,0,1,1
324000798,324000671,3407882,3407882,-0.00020778905,-0.0007594306,0.00029237109,-2.2720853e-05,-0.0037829794,-0.048980374,5000,5000,0,0,1,1
324500798,324500671,3407882,3407882,0.00014972044,-1.7620356e-05,-1.9113822e-06,-0.0023372807,-0.0035078553,-0.058501758,5000,5000,0,0,1,1
325000801,325000671,3407882,3407882,-0.00053143385,-3.467754e-05,-0.00029646116,-0.0073066363,-0.0019692322,-0.053220525,5000,5000,0,0,1,1
325500799,325500671,3407882,3407882,-0.00022979928,0.00018643694,-0.00011707218,-0.0002655923,0.0032111125,-0.044390302,5000,5000,0,0,1,1
326000798,326000671,3407882,3407882,-0.00026259958,-0.0027894035,-4.2611005e-05,-0.0016111919,0.0047878623,-0.054517888,5000,5000,0,0,1,1
326500799,326500671,3407882,3407882,-0.000117047966,0.00053046347,-4.906107e-05,-0.0046872413,-0.00013065833,-0.048798673,5000,5000,0,0,1,1
327000798,327000671,3407882,3407882,-0.0002794267,-3.4550278e-05,2.8204777e-05,-0.0003819768,-0.002907416,-0.049276095,5000,5000,0,0,1,1
327500798,327500671,3407882,3407882,-0.00015836072,0.00044355748,9.123747e-05,0.0048851497,0.0019765175,-0.055995062,5000,5000,0,0,1,1
328000799,328000671,3407882,3407882,-0.00050823606,-0.0007235389,-5.234264e-05,-0.0020648255,0.0072893063,-0.052371882,5000,5000,0,0,1,1
328500799,328500671,3407882,3407882,8.460581e-05,-0.00024827683,3.7287995e-05,-0.026463732,-0.008671591,-0.05268687,5000,5000,0,0,1,1
329000800,329000671,3407882,3407882,-0.0006159132,0.00035859065,5.2608306e-05,0.0015466274,0.0037176094,-0.040955577,5000,5000,0,0,1,1
330000799,330000671,3407882,3407882,-0.002746647,0.0012400645,-0.000255389,0.017063327,0.012669062,-0.039496746,5000,5000,0,0,1,1
330500798,330500671,3407882,3407882,0.0038335496,-0.001139577,-6.356206e-05,0.009643603,0.003168842,-0.042070244,5000,5000,0,0,1,1
331000799,331000671,3407882,3407882,-0.0012887687,-0.00080771866,-0.00023184092,-0.002063577,0.00061104546,-0.048450243,5001,5001,0,0,1,1
331500798,331500671,3407882,3407882,0.00053309364,-0.00017013989,0.0005528884,-0.0045884126,-0.0013401151,-0.045800395,5000,5000,0,0,1,1
332000798,332000671,3407882,3407882,-0.001746953,-5.296021e-06,-0.00015115086,0.0042618555,0.006799526,-0.05501793,5000,5000,0,0,1,1
332500804,332500671,3407882,3407882,-7.8778954e-05,-0.00053006376,9.622177e-05,-0.005981822,-0.005934381,-0.056879133,5000,5000,0,0,1,1
333000800,333000671,3407882,3407882,0.0020222038,-0.0014664272,-6.2690175e-05,8.057574e-05,-0.007069071,-0.04040443,5000,5000,0,0,1,1
333500798,333500671,3407882,3407882,-0.0014689142,0.00090307574,-0.0001263803,0.0018132342,0.0017943266,-0.0334775,5000,5000,0,0,1,1
334000799,334000671,3407882,3407882,-7.80684e-06,-0.0005928722,0.0008951674,0.0033330796,-0.007079445,-0.04675253,5000,5000,0,0,1,1
334500799,334500671,3407882,3407882,-0.00055783964,-0.0010792443,0.000115413095,-0.00031255797,0.005265552,-0.038979333,5000,5000,0,0,1,1
335000798,335000671,3407882,3407882,-0.00015253277,0.0008168368,-2.4911717e-05,-0.008145359,0.0034214621,-0.037825875,5000,5000,0,0,1,1
335500798,335500671,3407882,3407882,-0.00057837943,0.0004789791,-0.00023028172,-0.009904941,-0.0026436783,-0.069219485,4999,4999,0,0,1,1
336000799,336000671,3407882,3407882,7.876989e-07,0.0010037036,0.0006676859,0.001239467,-0.0019406554,-0.043611813,4983,4983,0,0,1,1
336500805,336500671,3407882,3407882,-0.00016369521,5.3025586e-05,0.0011801091,0.030888787,0.017112441,-0.047313053,5000,5000,0,0,1,1
337000799,337000671,3407882,3407882,-1.1057845e-05,-0.000100926,8.7616616e-05,0.009227014,-0.001433315,-0.06250718,5000,5000,0,0,1,1
337500799,337500671,3407882,3407882,0.0003369376,0.00036821546,-0.00018829799,-0.0033580973,-0.005636427,-0.0435554,5000,5000,0,0,1,1
338000803,338000671,3407882,3407882,0.0011338621,-0.001315752,0.0011936938,-0.0071782605,-0.019552238,-0.053940788,5000,5000,0,0,1,1
338500796,338500671,3407882,3407882,-0.0007127636,0.0013056649,0.00060424936,0.008815032,0.027898313,-0.039611064,5000,5000,0,0,1,1
339500800,339500671,3407882,3407882,1.9172607e-05,0.00037709335,1.2448802e-06,-0.002166016,0.0007099391,-0.03735558,5000,5000,0,0,1,1
340000798,340000671,3407882,3407882,0.00020535117,0.0001388387,2.5372472e-05,0.000415055,-0.0035888269,-0.042544268,5000,5000,0,0,1,1
340500798,340500671,3407882,3407882,1.599105e-05,9.1522714e-05,-0.00020352061,-0.0004375729,-0.0011148093,-0.046767574,5000,5000,0,0,1,1
341000805,341000671,3407882,3407882,-1.3911911e-05,-4.5464007e-05,-1.4912508e-06,-0.0015796045,-0.0036894684,-0.0459428,5000,5000,0,0,1,1
341500799,341500671,3407882,3407882,-0.000121661404,0.00012159657,1.7071541e-05,-0.0031998658,0.0037368604,-0.04609634,5000,5000,0,0,1,1
342000799,342000671,3407882,3407882,-5.0004488e-05,-0.00015008468,-4.1734693e-06,-0.000409768,0.0032130082,-0.035305142,5000,5000,0,0,1,1
342500799,342500671,3407882,3407882,2.171333e-05,-7.072974e-05,9.048963e-06,-0.00245408,0.0010963588,-0.041394845,5000,5000,0,0,1,1
343000798,343000671,3407882,3407882,-9.641344e-05,4.8216225e-05,-2.4679683e-05,0.0033120068,0.0009170485,-0.038184866,5000,5000,0,0,1,1
343500798,343500671,3407882,3407882,7.8070436e-05,0.0001460251,4.738359e-06,-0.00021233252,0.0011172919,-0.06112269,5000,5000,0,0,1,1
344000799,344000671,3407882,3407882,0.0003922186,0.00032525696,-0.00011290695,0.003032211,0.0038437173,-0.044700433,5000,5000,0,0,1,1
344500810,344500671,3407882,3407882,-8.55686e-05,3.784005e-05,5.2630952e-05,0.00082432985,0.015394488,-0.04379373,5000,5000,0,0,1,1
345000798,345000671,3407882,3407882,-5.4107248e-05,-0.00018555795,-4.2413885e-05,-0.0018418162,-0.005446439,-0.047125507,5000,5000,0,0,1,1
345500799,345500671,3407882,3407882,9.329068e-05,-8.0988684e-05,-2.9547158e-05,-0.0018263917,0.0031905102,-0.047351465,5000,5000,0,0,1,1
346000800,346000671,3407882,3407882,2.1028558e-05,-0.00012093235,0.00016740605,0.0046682945,0.0070961337,-0.046934023,5000,5000,0,0,1,1
346500798,346500671,3407882,3407882,-9.701175e-05,-4.4351047e-05,-9.580204e-06,-0.00011564356,-0.009417909,-0.03169816,5000,5000,0,0,1,1
347000798,347000671,3407882,3407882,-9.464354e-05,-0.000508146,9.265311e-05,-0.0006235065,0.0014388569,-0.051159542,5000,5000,0,0,1,1
347500799,347500671,3407882,3407882,-0.00020139827,0.0003561927,-0.0001456835,0.003659836,0.0026644384,-0.04537728,5000,5000,0,0,1,1
348000799,348000671,3407882,3407882,2.6089116e-05,1.753085e-05,0.00031281717,-0.001724884,0.0018846015,-0.041288856,5000,5000,0,0,1,1
348500799,348500671,3407882,3407882,-5.281491e-06,-5.2893665e-05,-8.534202e-05,0.0017061175,0.0001970374,-0.05765576,5000,5000,0,0,1,1
349000798,349000671,3407882,3407882,-7.176822e-05,-7.078168e-05,0.00020825161,0.0036140473,0.0038147636,-0.046254106,5000,5000,0,0,1,1
349500799,349500672,3407882,3407882,0.0001376826,-3.5659705e-05,1.1119959e-05,0.0037084664,-0.0020051629,-0.050889812,5001,5001,0,0,1,1
350000798,350000671,3407882,3407882,-5.6764562e-05,-0.00017966749,0.00012801221,0.0011504723,0.0047318307,-0.03868371,5000,5000,0,0,1,1
350500798,350500671,3407882,3407882,-4.752839e-05,-2.9744091e-05,6.4020783e-06,0.0014690879,0.0011585292,-0.049259838,5000,5000,0,0,1,1
351000798,351000671,3407882,3407882,-9.0741756e-05,0.0002514699,-3.6173227e-05,0.0024658958,0.0012591332,-0.044836544,5000,5000,0,0,1,1
351500799,351500671,3407882,3407882,-8.511627e-05,-0.00021322319,1.8359087e-05,0.0021499048,0.0035458123,-0.038785398,5000,5000,0,0,1,1
352000798,352000671,3407882,3407882,-3.501783e-05,7.986231e-05,2.045329e-05,0.00065956236,0.001285388,-0.046200443,5000,5000,0,0,1,1
352500797,352500671,3407882,3407882,6.074268e-05,-8.440976e-05,-2.8792396e-05,-0.0013208028,-0.00068555016,-0.062654085,5000,5000,0,0,1,1
353000799,353000671,3407882,3407882,8.364805e-05,-2.0382638e-05,6.394218e-05,-0.0034824957,0.0018957652,-0.048236623,5000,5000,0,0,1,1
353500799,353500671,3407882,3407882,2.6809566e-05,-0.00012807587,9.752977e-05,-0.0041947006,0.005213847,-0.05165003,5000,5000,0,0,1,1
354000799,354000671,3407882,3407882,-3.0886797e-05,0.0001423791,8.557679e-05,-0.0011269277,0.0021948302,-0.051274776,5000,5000,0,0,1,1
354500799,354500671,3407882,3407882,2.0538799e-05,4.9390288e-05,-4.391481e-05,-0.0003015901,0.0015153652,-0.048823364,5000,5000,0,0,1,1
355000798,355000671,3407882,3407882,-1.3963453e-05,2.7299804e-05,-3.6109926e-05,-0.00014217065,0.0016982865,-0.048845172,5000,5000,0,0,1,1
355500798,355500671,3407882,3407882,-1.7159531e-05,-1.553112e-05,6.398637e-06,-0.00012423933,0.0018366548,-0.048784263,5000,5000,0,0,1,1
356000798,356000671,3407882,3407882,-1.6982733e-05,-5.1010747e-06,-2.0913376e-06,-0.00015594324,0.0017877402,-0.048766207,5000,5000,0,0,1,1
356500799,356500671,3407882,3407882,-1.2114383e-05,-4.8546585e-06,-2.0222262e-06,-7.8735124e-05,0.0018669915,-0.0487145,5000,5000,0,0,1,1
357000806,357000671,3407882,3407882,-1.837914e-05,-5.4853276e-06,-1.2739413e-06,-0.00017508662,0.0018405747,-0.048832573,5000,5000,0,0,1,1
357500798,357500671,3407882,3407882,-1.5081457e-05,-1.184001e-05,5.6456366e-07,-0.000110955974,0.0019448815,-0.048828676,5000,5000,0,0,1,1
358000803,358000671,3407882,3407882,-1.7674336e-05,-8.698579e-06,-4.7939834e-06,-8.6920016e-05,0.0018782354,-0.04881844,4996,4996,0,0,1,1
359000797,359000671,3407882,3407882,-2.1167769e-05,-3.829568e-06,-3.4651468e-06,-9.026771e-05,0.0018554179,-0.04884652,5000,5000,0,0,1,1
359500803,359500673,3407882,3407882,-1.872119e-05,-6.366549e-06,-5.1183965e-06,1.4606431e-06,0.0018387445,-0.04893742,5001,5001,0,0,2,1
360000803,360000673,3407882,3407882,-1.27636395e-05,-6.1151213e-06,2.9721125e-06,9.318007e-05,0.0017776219,-0.048863143,5002,5002,0,0,2,1
