timestamp,timestamp_sample,control_mode_flags,output_tracking_error[0],output_tracking_error[1],output_tracking_error[2],filter_fault_flags,pos_horiz_accuracy,pos_vert_accuracy,mag_test_ratio,vel_test_ratio,pos_test_ratio,hgt_test_ratio,tas_test_ratio,hagl_test_ratio,beta_test_ratio,time_slip,accel_device_id,gyro_device_id,baro_device_id,mag_device_id,mag_inclination_deg,mag_inclination_ref_deg,mag_strength_gs,mag_strength_ref_gs,gps_check_fail_flags,innovation_check_flags,solution_status_flags,reset_count_vel_ne,reset_count_vel_d,reset_count_pos_ne,reset_count_pod_d,reset_count_quat,pre_flt_fail_innov_heading,pre_flt_fail_innov_vel_horiz,pre_flt_fail_innov_vel_vert,pre_flt_fail_innov_height,pre_flt_fail_mag_field_disturbed,health_flags,timeout_flags
200063957,199873648,171865803351,0.00016554754,0.0038891206,0.0048645637,0,0.24082568,0.2276659,0.0072778114,0.033142798,0.011153074,0.014125051,0.0,nan,0.0,0.0,3407890,3407890,6780433,466953,73.43651,73.66653,0.50984734,0.5250894,0,0,895,3,2,3,2,2,0,0,0,0,0,0,0
200073954,199883648,171865803351,0.00017053487,0.0037416336,0.0047694314,0,0.24143079,0.22806072,0.0072778114,0.033142798,0.011153074,0.014125051,0.0,nan,0.0,0.0,3407890,3407890,6780433,466953,73.43651,73.66653,0.50984734,0.5250894,0,0,895,3,2,3,2,2,0,0,0,0,0,0,0
200263949,200073650,171865803351,0.00016670732,0.0024283405,0.003573033,0,0.24092722,0.22781605,0.007843579,0.017982582,0.010584741,0.013387027,0.0,nan,0.0,0.0,3407890,3407890,6780433,466953,73.476654,73.66653,0.5107255,0.5250894,0,0,895,3,2,3,2,2,0,0,0,0,0,0,0
200463955,200273649,171865803351,0.00018484905,0.0024558874,0.0038894704,0,0.24107622,0.22798283,0.014427346,0.02852529,0.009656824,0.012190978,0.0,nan,0.0,0.0,3407890,3407890,6780433,466953,73.30426,73.66653,0.5092353,0.5250894,0,0,895,3,2,3,2,2,0,0,0,0,0,0,0
200664180,200473648,171865803351,0.0003637697,0.0020987908,0.0031696854,0,0.241223,0.2281488,0.021418009,0.026850846,0.01136897,0.018219022,0.0,nan,0.0,0.0,3407890,3407890,6780433,466953,73.140816,73.66653,0.5107499,0.5250894,0,0,895,3,2,3,2,2,0,0,0,0,0,0,0
200863955,200673648,171865803351,0.00037584727,0.0039331405,0.0041417317,0,0.2413718,0.22831573,0.02141655,0.03357538,0.011972356,0.013464299,0.0,nan,0.0,0.0,3407890,3407890,6780433,466953,73.11137,73.66653,0.51032025,0.5250894,0,0,895,3,2,3,2,2,0,0,0,0,0,0,0
201063990,200873649,171865803351,0.00031026412,0.0019154742,0.0029257543,0,0.24151474,0.22800112,0.028392367,0.020663941,0.009756892,0.013239465,0.0,nan,0.0,0.0,3407890,3407890,6780433,466953,73.00659,73.66653,0.5104686,0.5250894,0,0,895,3,2,3,2,2,0,0,0,0,0,0,0
201264043,201073648,171865803351,0.0005372759,0.0041892123,0.0053796335,0,0.24163231,0.2281591,0.026661273,0.036434334,0.011022302,0.014929606,0.0,nan,0.0,0.0,3407890,3407890,6780433,466953,73.042404,73.66653,0.5105702,0.5250894,0,0,895,3,2,3,2,2,0,0,0,0,0,0,0
201463948,201273648,171865803351,0.00041602063,0.0029909369,0.004895659,0,0.24177328,0.2283205,0.017695269,0.02779036,0.008611196,0.013302935,0.0,nan,0.0,0.0,3407890,3407890,6780433,466953,73.0804,73.66653,0.5100579,0.5250894,0,0,895,3,2,3,2,2,0,0,0,0,0,0,0
201664272,201473648,171865803351,0.0003519843,0.0021445337,0.006007694,0,0.24191278,0.22848466,0.015926642,0.02761806,0.008962891,0.011048401,0.0,nan,0.0,0.0,3407890,3407890,6780433,466953,73.18391,73.66653,0.5106698,0.5250894,0,0,895,3,2,3,2,2,0,0,0,0,0,0,0
201864028,201673648,171865803351,0.0002922953,0.002468459,0.0055854204,0,0.24204798,0.22864296,0.020240342,0.015912779,0.008391382,0.0101461895,0.0,nan,0.0,0.0,3407890,3407890,6780433,466953,73.2643,73.66653,0.51053065,0.5250894,0,0,895,3,2,3,2,2,0,0,0,0,0,0,0
202064055,201873648,171865803351,0.00037623238,0.0027507723,0.007250423,0,0.24217883,0.2287973,0.026995411,0.03154685,0.0086047575,0.015214548,0.0,nan,0.0,0.0,3407890,3407890,6780433,466953,72.98038,73.66653,0.5099138,0.5250894,0,0,895,3,2,3,2,2,0,0,0,0,0,0,0
202264037,202073648,171865803351,0.0003827056,0.003067077,0.005447942,0,0.24227914,0.22893855,0.014693122,0.055734683,0.005959142,0.009130744,0.0,nan,0.0,0.0,3407890,3407890,6780433,466953,73.368095,73.66653,0.5107542,0.5250894,0,0,895,3,2,3,2,2,0,0,0,0,0,0,0
202464029,202273648,171865803351,0.0001855707,0.0031869719,0.006282562,0,0.2423744,0.22907653,0.028780598,0.034529604,0.00608119,0.009524552,0.0,nan,0.0,0.0,3407890,3407890,6780433,466953,73.07929,73.66653,0.5099489,0.5250894,0,0,895,3,2,3,2,2,0,0,0,0,0,0,0
202664277,202473648,171865803351,0.00034426563,0.0017118261,0.0038318452,0,0.24249485,0.22921778,0.012497805,0.0107234055,0.0067305886,0.012354663,0.0,nan,0.0,0.0,3407890,3407890,6780433,466953,73.28263,73.66653,0.5107981,0.5250894,0,0,895,3,2,3,2,2,0,0,0,0,0,0,0
202864027,202673648,171865803351,0.00017725672,0.0019731743,0.005231383,0,0.24261343,0.22935633,0.021385977,0.021831464,0.0055700536,0.02196163,0.0,nan,0.0,0.0,3407890,3407890,6780433,466953,73.05753,73.66653,0.50987923,0.5250894,0,0,895,3,2,3,2,2,0,0,0,0,0,0,0
203064042,202873648,171865803351,0.0005086241,0.0024827092,0.0031423895,0,0.24272265,0.22949083,0.016333392,0.018600028,0.004933105,0.014899119,0.0,nan,0.0,0.0,3407890,3407890,6780433,466953,73.31606,73.66653,0.51053005,0.5250894,0,0,895,3,2,3,2,2,0,0,0,0,0,0,0
203264044,203073648,171865803351,0.00044155688,0.0011813466,0.0025210094,0,0.24278632,0.22960748,0.022840291,0.011681606,0.0058587836,0.011872258,0.0,nan,0.0,0.0,3407890,3407890,6780433,466953,73.04328,73.66653,0.50999546,0.5250894,0,0,895,3,2,3,2,2,0,0,0,0,0,0,0
203464098,203273648,171865803351,0.00051716954,0.0020450593,0.0036539587,0,0.24287169,0.22923979,0.021487927,0.026048439,0.004023297,0.012075707,0.0,nan,0.0,0.0,3407890,3407890,6780433,466953,73.23691,73.66653,0.510808,0.5250894,0,0,895,3,2,3,2,2,0,0,0,0,0,0,0
203664434,203473648,171865803351,0.0003046268,0.00075687305,0.0018290065,0,0.24298352,0.22937411,0.023638576,0.01801682,0.0037995297,0.019830536,0.0,nan,0.0,0.0,3407890,3407890,6780433,466953,72.99802,73.66653,0.509822,0.5250894,0,0,895,3,2,3,2,2,0,0,0,0,0,0,0
203864032,203673648,171865803351,0.0002764649,0.00057040027,0.0012599296,0,0.243101,0.22951707,0.016868081,0.024227014,0.0046188245,0.00875519,0.0,nan,0.0,0.0,3407890,3407890,6780433,466953,73.20985,73.66653,0.50972337,0.5250894,0,0,895,3,2,3,2,2,0,0,0,0,0,0,0
204064084,203873648,171865803351,0.0005944402,0.0042189476,0.0066512474,0,0.2432226,0.22966109,0.018908784,0.033733137,0.0050358325,0.014357874,0.0,nan,0.0,0.0,3407890,3407890,6780433,466953,73.15614,73.66653,0.5091941,0.5250894,0,0,895,3,2,3,2,2,0,0,0,0,0,0,0
204263944,204073648,171799743191,0.00034275075,0.0059244432,0.008892292,0,0.24330899,0.22979748,0.018039307,0.030061904,0.0022409537,0.013312708,0.0,nan,0.0,0.0,3407890,3407890,6780433,466953,73.17622,73.66653,0.50900996,0.5250894,0,0,831,3,2,3,2,2,0,0,0,0,0,0,0
204463946,204273648,171799743191,0.0003332612,0.0052722213,0.0066728406,0,0.2434219,0.22993742,0.02146245,0.032251384,0.0026424187,0.012513676,0.0,nan,0.0,0.0,3407890,3407890,6780433,466953,73.16472,73.66653,0.5086352,0.5250894,0,0,831,3,2,3,2,2,0,0,0,0,0,0,0
204664195,204473648,171799743191,0.00040466242,0.0056449776,0.006587979,0,0.24352427,0.23007241,0.02371158,0.024128368,0.0025450818,0.013095679,0.0,nan,0.0,0.0,3407890,3407890,6780433,466953,73.05291,73.66653,0.50769717,0.5250894,0,0,831,3,2,3,2,2,0,0,0,0,0,0,0
205063956,204873648,171799743191,0.0006884355,0.0036792946,0.005330484,0,0.2437029,0.23032308,0.037243523,0.018112494,0.0019690555,0.0132257445,0.0,nan,0.0,0.0,3407890,3407890,6780433,466953,73.03541,73.66653,0.50543344,0.5250894,0,0,831,3,2,3,2,2,0,0,0,0,0,0,0
205263956,205073648,171799743191,0.00050666655,0.0060995417,0.008746108,0,0.2437776,0.23043942,0.05493898,0.02406863,0.0029507342,0.012779519,0.0,nan,0.0,0.0,3407890,3407890,6780433,466953,72.84421,73.66653,0.50309956,0.5250894,0,0,831,3,2,3,2,2,0,0,0,0,0,0,0
205463961,205273648,171799743191,0.00053686154,0.002772305,0.0057365373,0,0.24387391,0.23057288,0.0755716,0.028325062,0.0022602149,0.01234136,0.0,nan,0.0,0.0,3407890,3407890,6780433,466953,72.54599,73.66653,0.5005814,0.5250894,0,0,831,3,2,3,2,2,0,0,0,0,0,0,0
205664172,205473648,171799743191,0.00089065044,0.004012609,0.0063713174,0,0.24396773,0.23070292,0.09771077,0.046294026,0.004294665,0.015486369,0.0,nan,0.0,0.0,3407890,3407890,6780433,466953,72.615685,73.66653,0.4971027,0.5250894,0,0,831,3,2,3,2,2,0,0,0,0,0,0,0
205863950,205673648,171799743191,0.0059597353,0.0046472484,0.003969813,0,0.24402165,0.23081598,0.09734425,0.03567644,0.0019843092,0.009478127,0.0,nan,0.0,0.0,3407890,3407890,6780433,466953,72.758316,73.66653,0.49671298,0.5250894,0,0,831,3,2,3,2,2,0,0,0,0,0,0,0
206063984,205873648,171799743191,0.014580054,0.00646047,0.0076305876,0,0.24409364,0.23043482,0.09821948,0.042342927,0.006092483,0.00902678,0.0,nan,0.0,0.0,3407890,3407890,6780433,466953,72.57436,73.66653,0.49686357,0.5250894,0,0,831,3,2,3,2,2,0,0,0,0,0,0,0
206263982,206073648,171799743191,0.012783985,0.0069306046,0.010216643,0,0.24418133,0.23054582,0.10686506,0.032422025,0.0038022252,0.008629579,0.0,nan,0.0,0.0,3407890,3407890,6780433,466953,72.72184,73.66653,0.49513456,0.5250894,0,0,831,3,2,3,2,2,0,0,0,0,0,0,0
206664176,206473648,171799743191,0.004260391,0.011240801,0.014944573,0,0.24431045,0.23073894,0.11260301,0.052461725,0.0059017437,0.009787438,0.0,nan,0.0,0.0,3407890,3407890,6780433,466953,72.766014,73.66653,0.494247,0.5250894,0,0,831,3,2,3,2,2,0,0,0,0,0,0,0
206863947,206673648,171799743191,0.0012838481,0.006916717,0.0088442825,0,0.24437228,0.23082706,0.09990836,0.06133731,0.0030566342,0.012623284,0.0,nan,0.0,0.0,3407890,3407890,6780433,466953,72.74548,73.66653,0.49617013,0.5250894,0,0,831,3,2,3,2,2,0,0,0,0,0,0,0
207063949,206873648,171799743191,0.006526321,0.009974383,0.013270041,0,0.24447241,0.23092978,0.10130101,0.04428572,0.0016616338,0.01080648,0.0,nan,0.0,0.0,3407890,3407890,6780433,466953,72.7769,73.66653,0.49589846,0.5250894,0,0,831,3,2,3,2,2,0,0,0,0,0,0,0
207263959,207073648,171799743191,0.012323167,0.012165418,0.014664094,0,0.24455182,0.2310205,0.10499361,0.08034704,0.003431208,0.019226512,0.0,nan,0.0,0.0,3407890,3407890,6780433,466953,72.76121,73.66653,0.49522802,0.5250894,0,0,831,3,2,3,2,2,0,0,0,0,0,0,0
207463949,207273648,171799743191,0.00057148316,0.005328444,0.007217214,0,0.24460596,0.23109794,0.10131239,0.05907473,0.0023461774,0.01244355,0.0,nan,0.0,0.0,3407890,3407890,6780433,466953,72.72164,73.66653,0.49585813,0.5250894,0,0,831,3,2,3,2,2,0,0,0,0,0,0,0
207664169,207473648,171799743191,0.0015320809,0.005103431,0.0064348816,0,0.24471733,0.23118737,0.09493177,0.07977248,0.004560653,0.014883174,0.0,nan,0.0,0.0,3407890,3407890,6780433,466953,72.660545,73.66653,0.49693248,0.5250894,0,0,831,3,2,3,2,2,0,0,0,0,0,0,0
207863953,207673648,171799743191,0.008973311,0.007317035,0.008811467,0,0.24483712,0.23127729,0.09594143,0.07265386,0.0013262649,0.012710957,0.0,nan,0.0,0.0,3407890,3407890,6780433,466953,72.55332,73.66653,0.49699685,0.5250894,0,0,831,3,2,3,2,2,0,0,0,0,0,0,0
208063965,207873648,171799743191,0.0061599966,0.003371027,0.004199525,0,0.24495159,0.23136845,0.09627529,0.058764048,0.0013538359,0.016891578,0.0,nan,0.0,0.0,3407890,3407890,6780433,466953,72.381645,73.66653,0.4972176,0.5250894,0,0,831,3,2,3,2,2,0,0,0,0,0,0,0
208263948,208073648,171808131799,0.000482252,0.007517231,0.009759473,0,0.24504642,0.2314514,inf,0.04523477,0.002683912,0.012050433,0.0,nan,0.0,0.0,3407890,3407890,6780433,466953,72.575294,73.66653,0.4979266,0.5250894,0,0,831,3,2,3,2,3,0,0,0,0,0,0,0
208463975,208273648,171808131751,0.009375628,0.004569248,0.0060656136,0,0.24517317,0.23103729,0.033878468,0.047127232,0.000683104,0.01539834,0.0,nan,0.0,0.0,3407890,3407890,6780433,466953,72.443954,73.66653,0.4979405,0.5250894,0,0,831,3,2,3,2,3,0,0,0,0,0,0,0
208663977,208473648,171808131751,0.0008944087,0.005263134,0.009983915,0,0.24528922,0.23112026,0.019679885,0.046988554,0.0038391587,0.016286941,0.0,nan,0.0,0.0,3407890,3407890,6780433,466953,72.52395,73.66653,0.49764973,0.5250894,0,0,831,3,2,3,2,3,0,0,0,0,0,0,0
208863948,208673648,171808131751,0.012078144,0.01384697,0.02085473,0,0.24539433,0.23120087,0.014890628,0.06416361,0.0003176028,0.023374526,0.0,nan,0.0,0.0,3407890,3407890,6780433,466953,72.41307,73.66653,0.4972914,0.5250894,0,0,831,3,2,3,2,3,0,0,0,0,0,0,0
209063956,208873648,171808131751,0.0036548898,0.006762625,0.016740387,0,0.24549274,0.23127253,0.010207723,0.03219918,0.0044130096,0.02409251,0.0,nan,0.0,0.0,3407890,3407890,6780433,466953,72.52158,73.66653,0.49747434,0.5250894,0,0,831,3,2,3,2,3,0,0,0,0,0,0,0
209263949,209073648,171808131751,0.022956783,0.01177146,0.014807084,0,0.2455723,0.23133509,0.006855958,0.043826696,0.0033520975,0.01866064,0.0,nan,0.0,0.0,3407890,3407890,6780433,466953,72.44996,73.66653,0.49756438,0.5250894,0,0,831,3,2,3,2,3,0,0,0,0,0,0,0
209463949,209273649,171808131751,0.016371284,0.0061958623,0.014025725,0,0.24568097,0.23140788,0.006615934,0.06480243,0.006508451,0.01713324,0.0,nan,0.0,0.0,3407890,3407890,6780433,466953,72.51263,73.66653,0.4973608,0.5250894,0,0,831,3,2,3,2,3,0,0,0,0,0,0,0
209663965,209473648,171808131751,0.008615383,0.010004522,0.009977898,0,0.24580285,0.2314795,0.008007796,0.047836844,0.008155692,0.018946286,0.0,nan,0.0,0.0,3407890,3407890,6780433,466953,72.458496,73.66653,0.49701232,0.5250894,0,0,831,3,2,3,2,3,0,0,0,0,0,0,0
209863986,209673648,171808131751,0.0024755842,0.0037334617,0.008903194,0,0.24592578,0.2315432,0.011028761,0.023294285,0.010291195,0.019403225,0.0,nan,0.0,0.0,3407890,3407890,6780433,466953,72.501114,73.66653,0.4966392,0.5250894,0,0,831,3,2,3,2,3,0,0,0,0,0,0,0
210063950,209873649,171808131751,0.0020985333,0.0039081075,0.013968905,0,0.24604215,0.23160647,0.006439685,0.017882718,0.012371156,0.03473714,0.0,nan,0.0,0.0,3407890,3407890,6780433,466953,72.7159,73.66653,0.4962845,0.5250894,0,0,831,3,2,3,2,3,0,0,0,0,0,0,0
210263955,210073648,171808131751,0.012487709,0.015389983,0.016038327,0,0.24612728,0.23165475,0.007588566,0.055018175,0.015197475,0.026193485,0.0,nan,0.0,0.0,3407890,3407890,6780433,466953,72.68638,73.66653,0.49612164,0.5250894,0,0,831,3,2,3,2,3,0,0,0,0,0,0,0
210463948,210273648,171808131751,0.007900791,0.006527596,0.0098162005,0,0.24623403,0.23171125,0.0057877484,0.037065182,0.014146705,0.021278009,0.0,nan,0.0,0.0,3407890,3407890,6780433,466953,72.49621,73.66653,0.49721074,0.5250894,0,0,831,3,2,3,2,3,0,0,0,0,0,0,0
210663950,210473647,171808131751,0.0028457395,0.0026251366,0.007553862,0,0.24634236,0.23176149,0.006200067,0.04683158,0.015986638,0.021895543,0.0,nan,0.0,0.0,3407890,3407890,6780433,466953,72.61227,73.66653,0.4967769,0.5250894,0,0,831,3,2,3,2,3,0,0,0,0,0,0,0
210863949,210673648,171808131751,0.0011873763,0.007507574,0.008724256,0,0.24644041,0.23181278,0.0119528975,0.03267216,0.01577234,0.028423853,0.0,nan,0.0,0.0,3407890,3407890,6780433,466953,72.75251,73.66653,0.4968885,0.5250894,0,0,831,3,2,3,2,3,0,0,0,0,0,0,0
211263977,211073648,171808131751,0.008792348,0.01251782,0.01388015,0,0.24661304,0.23140395,0.011767321,0.041838486,0.01688842,0.019409029,0.0,nan,0.0,0.0,3407890,3407890,6780433,466953,72.53605,73.66653,0.49566016,0.5250894,0,0,831,3,2,3,2,3,0,0,0,0,0,0,0
211463946,211273648,171808131751,0.0005995611,0.002616062,0.005028632,0,0.24671456,0.2314601,0.011043233,0.040365417,0.01715202,0.017910182,0.0,nan,0.0,0.0,3407890,3407890,6780433,466953,72.50612,73.66653,0.49564812,0.5250894,0,0,831,3,2,3,2,3,0,0,0,0,0,0,0
211663947,211473648,171808131751,0.00199854,0.0021734266,0.0028704253,0,0.24680124,0.23151457,0.020154081,0.057991937,0.016460767,0.021763127,0.0,nan,0.0,0.0,3407890,3407890,6780433,466953,72.6419,73.66653,0.49397764,0.5250894,0,0,831,3,2,3,2,3,0,0,0,0,0,0,0
211863945,211673648,171808131751,0.00086186896,0.0073863924,0.011696204,0,0.24689728,0.23156866,0.011464394,0.05986688,0.015065655,0.021383736,0.0,nan,0.0,0.0,3407890,3407890,6780433,466953,72.56007,73.66653,0.4957352,0.5250894,0,0,831,3,2,3,2,3,0,0,0,0,0,0,0
212063950,211873648,171808131751,0.0013708331,0.010586123,0.014610684,0,0.24696751,0.23162037,0.02803613,0.086824566,0.012543251,0.013714244,0.0,nan,0.0,0.0,3407890,3407890,6780433,466953,72.66669,73.66653,0.5014223,0.5250894,0,0,831,3,2,3,2,3,0,0,0,0,0,0,0
212263968,212073648,171808131751,0.0005685779,0.009250654,0.009988948,0,0.24701269,0.23167443,0.039392482,0.12544751,0.0079136705,0.0063745314,0.0,nan,0.0,0.0,3407890,3407890,6780433,466953,72.8556,73.66653,0.50305825,0.5250894,0,0,831,3,2,3,2,3,0,0,0,0,0,0,0
212464129,212273648,171808131751,0.00096842344,0.010235175,0.017845128,0,0.2470754,0.23175177,0.011417009,0.08962953,0.01171208,0.012708736,0.0,nan,0.0,0.0,3407890,3407890,6780433,466953,72.71188,73.66653,0.4977367,0.5250894,0,0,831,3,2,3,2,3,0,0,0,0,0,0,0
212663944,212473648,171808131751,0.0014693246,0.0147532,0.027994996,0,0.24714161,0.23185042,0.018519577,0.101762235,0.008574783,0.012201139,0.0,nan,0.0,0.0,3407890,3407890,6780433,466953,72.66691,73.66653,0.49476188,0.5250894,0,0,831,3,2,3,2,3,0,0,0,0,0,0,0
213063951,212873648,171808131751,0.0024931803,0.011750339,0.020843247,0,0.24740438,0.2321556,0.02155599,0.049580596,0.0029400152,0.015696533,0.0,nan,0.0,0.0,3407890,3407890,6780433,466953,72.661835,73.66653,0.496581,0.5250894,0,0,831,3,2,3,2,3,0,0,0,0,0,0,0
213263949,213073648,171808131751,0.0029902104,0.013569362,0.014484182,0,0.24774978,0.23243025,0.021088079,0.08185576,0.0072522126,0.012482071,0.0,nan,0.0,0.0,3407890,3407890,6780433,466953,72.652054,73.66653,0.49826387,0.5250894,0,0,831,3,2,3,2,3,0,0,0,0,0,0,0
213464119,213273648,171808131751,0.0035735986,0.0122037325,0.0060818675,0,0.24793537,0.23265873,0.024093743,0.07370942,0.011111783,0.00714737,0.0,nan,0.0,0.0,3407890,3407890,6780433,466953,72.44635,73.66653,0.49527416,0.5250894,0,0,831,3,2,3,2,3,0,0,0,0,0,0,0
213664007,213473648,171808131751,0.0021825812,0.009651675,0.007909469,0,0.24807896,0.23237129,0.025887212,0.054508388,0.017664954,0.01283506,0.0,nan,0.0,0.0,3407890,3407890,6780433,466953,72.726166,73.66653,0.49737126,0.5250894,0,0,831,3,2,3,2,3,0,0,0,0,0,0,0
213863990,213673649,171808131751,0.0023757657,0.007754528,0.019419491,0,0.24826662,0.23262116,0.014798482,0.045288462,0.02107041,0.018539505,0.0,nan,0.0,0.0,3407890,3407890,6780433,466953,72.63142,73.66653,0.49643835,0.5250894,0,0,831,3,2,3,2,3,0,0,0,0,0,0,0
214063966,213873648,171808131751,0.00074313954,0.012048881,0.027938774,0,0.24849297,0.23289847,0.015215363,0.070715316,0.02531861,0.014533518,0.0,nan,0.0,0.0,3407890,3407890,6780433,466953,72.624176,73.66653,0.49631745,0.5250894,0,0,831,3,2,3,2,3,0,0,0,0,0,0,0
214263949,214073648,171808131751,0.00058305275,0.016134186,0.034816787,0,0.24894172,0.23326801,0.015591545,0.08221668,0.02685714,0.02398355,0.0,nan,0.0,0.0,3407890,3407890,6780433,466953,72.685394,73.66653,0.49587724,0.5250894,0,0,831,3,2,3,2,3,0,0,0,0,0,0,0
214464113,214273648,171808131751,0.004421773,0.020171348,0.030983375,0,0.24937393,0.23365203,0.012721341,0.14299016,0.027358491,0.029169256,0.0,nan,0.0,0.0,3407890,3407890,6780433,466953,72.49885,73.66653,0.49581406,0.5250894,0,0,831,3,2,3,2,3,0,0,0,0,0,0,0
214663946,214473648,171808131751,0.0042151175,0.011353531,0.028353233,0,0.25013992,0.23417199,0.009092381,0.04818863,0.025492575,0.026574083,0.0,nan,0.0,0.0,3407890,3407890,6780433,466953,72.58673,73.66653,0.4963811,0.5250894,0,0,831,3,2,3,2,3,0,0,0,0,0,0,0
214863951,214673648,171808131751,0.0014637124,0.009064695,0.030480655,0,0.25114483,0.23479086,0.009435054,0.10849787,0.023731476,0.032993753,0.0,nan,0.0,0.0,3407890,3407890,6780433,466953,72.665016,73.66653,0.49615473,0.5250894,0,0,831,3,2,3,2,3,0,0,0,0,0,0,0
215063952,214873648,171808131751,0.00012930638,0.008728401,0.0307781,0,0.25196707,0.2353796,0.00830643,0.048489388,0.022312889,0.03508272,0.0,nan,0.0,0.0,3407890,3407890,6780433,466953,72.67245,73.66653,0.49547762,0.5250894,0,0,831,3,2,3,2,3,0,0,0,0,0,0,0
215263948,215073648,171808131751,0.0014241474,0.009586391,0.030221285,0,0.25306964,0.23608772,0.0050206585,0.050100364,0.021741994,0.035735924,0.0,nan,0.0,0.0,3407890,3407890,6780433,466953,72.649704,73.66653,0.4960446,0.5250894,0,0,831,3,2,3,2,3,0,0,0,0,0,0,0
215464114,215273648,171808131751,0.0030778856,0.018246954,0.03703248,0,0.2546392,0.23697416,0.0074396925,0.08752832,0.021832041,0.023918021,0.0,nan,0.0,0.0,3407890,3407890,6780433,466953,72.63138,73.66653,0.4957683,0.5250894,0,0,831,3,2,3,2,3,0,0,0,0,0,0,0
215663962,215473648,171808131751,0.0023938585,0.013589094,0.031700645,0,0.25572917,0.23773423,0.018746722,0.053192977,0.021124577,0.016664676,0.0,nan,0.0,0.0,3407890,3407890,6780433,466953,72.82511,73.66653,0.49681106,0.5250894,0,0,831,3,2,3,2,3,0,0,0,0,0,0,0
215863947,215673650,171808131751,0.00059803104,0.009330523,0.026697781,0,0.25674906,0.2385,0.013715322,0.0646143,0.020093191,0.024938893,0.0,nan,0.0,0.0,3407890,3407890,6780433,466953,72.60216,73.66653,0.4954519,0.5250894,0,0,831,3,2,3,2,3,0,0,0,0,0,0,0
216063982,215873648,171808131751,0.0008982544,0.013140122,0.028219895,0,0.25826022,0.23888665,0.0056243255,0.054595906,0.018861094,0.03262997,0.0,nan,0.0,0.0,3407890,3407890,6780433,466953,72.65639,73.66653,0.4960327,0.5250894,0,0,831,3,2,3,2,3,0,0,0,0,0,0,0
216263980,216073648,171808131751,0.0021625524,0.015142009,0.030927083,0,0.25967312,0.23981808,0.013071734,0.047147363,0.019499712,0.03886458,0.0,nan,0.0,0.0,3407890,3407890,6780433,466953,72.60856,73.66653,0.49564204,0.5250894,0,0,831,3,2,3,2,3,0,0,0,0,0,0,0
216464143,216273648,171807083175,0.0013480497,0.013666658,0.034771096,0,0.26022097,0.24050008,0.013403761,0.060937744,0.013719516,0.037872687,0.0,nan,0.0,0.0,3407890,3407890,6780433,466953,72.454735,73.66653,0.49693456,0.5250894,0,0,831,3,2,3,2,3,0,0,0,0,0,0,0
216663949,216473648,171807083175,0.00054912193,0.012467591,0.03496405,0,0.2604416,0.24107757,0.014126636,0.05306705,0.011451846,0.03433276,0.0,nan,0.0,0.0,3407890,3407890,6780433,466953,72.469215,73.66653,0.49518946,0.5250894,0,0,831,3,2,3,2,3,0,0,0,0,0,0,0
216863950,216673648,171807083175,0.0006774216,0.018421274,0.041022595,0,0.26024604,0.24150783,0.008891727,0.069194734,0.0072837947,0.030995201,0.0,nan,0.0,0.0,3407890,3407890,6780433,466953,72.647964,73.66653,0.49481377,0.5250894,0,0,831,3,2,3,2,3,0,0,0,0,0,0,0
217063950,216873648,171807083175,0.0004063956,0.010776189,0.036453675,0,0.26007232,0.2419178,0.021224527,0.10281346,0.0089890035,0.03576884,0.0,nan,0.0,0.0,3407890,3407890,6780433,466953,72.97799,73.66653,0.49466786,0.5250894,0,0,831,3,2,3,2,3,0,0,0,0,0,0,0
217263970,217073648,171807083175,0.00045106813,0.011012434,0.035698462,0,0.25981605,0.24227096,0.011099491,0.070032805,0.009461034,0.03214562,0.0,nan,0.0,0.0,3407890,3407890,6780433,466953,72.75418,73.66653,0.49470952,0.5250894,0,0,831,3,2,3,2,3,0,0,0,0,0,0,0
217464118,217273648,171807083175,0.0005680905,0.017208204,0.040931985,0,0.25960833,0.24257214,0.01376123,0.12456013,0.01066312,0.033761702,0.0,nan,0.0,0.0,3407890,3407890,6780433,466953,72.750275,73.66653,0.4942379,0.5250894,0,0,831,3,2,3,2,3,0,0,0,0,0,0,0
217663948,217473648,171807083175,0.00075674837,0.021280585,0.04666247,0,0.25942114,0.24282219,0.010502372,0.10466986,0.0115438765,0.03045851,0.0,nan,0.0,0.0,3407890,3407890,6780433,466953,72.56922,73.66653,0.4951282,0.5250894,0,0,831,3,2,3,2,3,0,0,0,0,0,0,0
217863952,217673648,171807083175,0.000300664,0.008491365,0.029606355,0,0.25924948,0.24301307,0.025550105,0.06954695,0.011761284,0.028641934,0.0,nan,0.0,0.0,3407890,3407890,6780433,466953,72.4935,73.66653,0.49468318,0.5250894,0,0,831,3,2,3,2,3,0,0,0,0,0,0,0
218063954,217873647,171807083175,0.000711494,0.015331649,0.030941397,0,0.2590844,0.24316332,0.028861715,0.15116721,0.012348661,0.028332923,0.0,nan,0.0,0.0,3407890,3407890,6780433,466953,72.36228,73.66653,0.49283433,0.5250894,0,0,831,3,2,3,2,3,0,0,0,0,0,0,0
218263946,218073648,171807083175,0.000675336,0.0053671547,0.017240517,0,0.25890797,0.24328245,0.029115405,0.05119036,0.011345729,0.028164543,0.0,nan,0.0,0.0,3407890,3407890,6780433,466953,72.27972,73.66653,0.49495506,0.5250894,0,0,831,3,2,3,2,3,0,0,0,0,0,0,0
218464113,218273648,171807083175,0.0018174709,0.0056977547,0.0103436345,0,0.25875795,0.24338773,0.025938839,0.058191124,0.016840437,0.030535456,0.0,nan,0.0,0.0,3407890,3407890,6780433,466953,72.82027,73.66653,0.49499384,0.5250894,0,0,831,3,2,3,2,3,0,0,0,0,0,0,0
218663974,218473648,171807083175,0.003725134,0.014086617,0.013593897,0,0.25861073,0.2428937,0.017401982,0.097173825,0.014499811,0.026117256,0.0,nan,0.0,0.0,3407890,3407890,6780433,466953,72.87236,73.66653,0.4947894,0.5250894,0,0,831,3,2,3,2,3,0,0,0,0,0,0,0
218863975,218673648,171807083175,0.0035197288,0.014192306,0.019232148,0,0.2586178,0.24302049,0.032697495,0.102482446,0.01619492,0.03324078,0.0,nan,0.0,0.0,3407890,3407890,6780433,466953,73.05463,73.66653,0.49447858,0.5250894,0,0,831,3,2,3,2,3,0,0,0,0,0,0,0
219063963,218873648,171807083175,0.0019875052,0.010758742,0.016528932,0,0.2585064,0.24307743,0.0064910213,0.105893515,0.02017345,0.041612003,0.0,nan,0.0,0.0,3407890,3407890,6780433,466953,72.65928,73.66653,0.4960463,0.5250894,0,0,831,3,2,3,2,3,0,0,0,0,0,0,0
219263951,219073648,171807083175,0.0005019959,0.007546042,0.01387315,0,0.25840718,0.24311551,0.018753186,0.08523935,0.015704012,0.036049366,0.0,nan,0.0,0.0,3407890,3407890,6780433,466953,72.6441,73.66653,0.49905875,0.5250894,0,0,831,3,2,3,2,3,0,0,0,0,0,0,0
219464122,219273648,171807083175,0.0011253178,0.015107488,0.021768691,0,0.2585066,0.2432172,0.0137902815,0.13668263,0.021940375,0.039105833,0.0,nan,0.0,0.0,3407890,3407890,6780433,466953,72.7958,73.66653,0.49483314,0.5250894,0,0,831,3,2,3,2,3,0,0,0,0,0,0,0
219663950,219473648,171807083175,0.00047825286,0.008561166,0.015894411,0,0.25846288,0.24325056,0.016935078,0.08887175,0.018189667,0.039619237,0.0,nan,0.0,0.0,3407890,3407890,6780433,466953,72.9032,73.66653,0.4969796,0.5250894,0,0,831,3,2,3,2,3,0,0,0,0,0,0,0
219863949,219673648,171807083175,0.00097635266,0.015175506,0.024379687,0,0.25852767,0.24331851,0.006699909,0.08644131,0.021148479,0.038550112,0.0,nan,0.0,0.0,3407890,3407890,6780433,466953,72.66651,73.66653,0.4947601,0.5250894,0,0,831,3,2,3,2,3,0,0,0,0,0,0,0
220063963,219873648,171807083175,0.0012885765,0.014903292,0.025321266,0,0.2585877,0.2433782,0.00903652,0.058106452,0.020386215,0.041103914,0.0,nan,0.0,0.0,3407890,3407890,6780433,466953,72.52975,73.66653,0.49638376,0.5250894,0,0,831,3,2,3,2,3,0,0,0,0,0,0,0
220263947,220073648,171807083175,0.00079364266,0.009251686,0.01839994,0,0.25869682,0.24345364,0.011849725,0.03176884,0.020936692,0.027037762,0.0,nan,0.0,0.0,3407890,3407890,6780433,466953,72.67633,73.66653,0.49382076,0.5250894,0,0,831,3,2,3,2,3,0,0,0,0,0,0,0
220464113,220273648,171807083175,0.0004998448,0.013568646,0.019898124,0,0.2586868,0.24347632,0.010447347,0.06287361,0.017727911,0.039873123,0.0,nan,0.0,0.0,3407890,3407890,6780433,466953,72.81133,73.66653,0.4939612,0.5250894,0,0,831,3,2,3,2,3,0,0,0,0,0,0,0
220663972,220473648,171807083175,0.0002662246,0.0019900394,0.0064543854,0,0.25871927,0.24351129,0.008447143,0.07656844,0.018727565,0.044073354,0.0,nan,0.0,0.0,3407890,3407890,6780433,466953,72.71363,73.66653,0.49531323,0.5250894,0,0,831,3,2,3,2,3,0,0,0,0,0,0,0
221063980,220873648,171807083175,0.00028378834,0.0053804023,0.009714799,0,0.2588568,0.24301304,0.017394304,0.0733445,0.016439028,0.035857014,0.0,nan,0.0,0.0,3407890,3407890,6780433,466953,72.79483,73.66653,0.49444157,0.5250894,0,0,831,3,2,3,2,3,0,0,0,0,0,0,0
221263979,221073648,171807083175,0.0006566129,0.013083515,0.02019696,0,0.25883558,0.24302104,0.017183986,0.069820784,0.0136606535,0.03477881,0.0,nan,0.0,0.0,3407890,3407890,6780433,466953,72.84619,73.66653,0.4951198,0.5250894,0,0,831,3,2,3,2,3,0,0,0,0,0,0,0
221464119,221273648,171807083175,0.0006657541,0.007242914,0.014611555,0,0.2588081,0.24301717,0.016424587,0.06256769,0.012776191,0.0316174,0.0,nan,0.0,0.0,3407890,3407890,6780433,466953,72.745224,73.66653,0.49370083,0.5250894,0,0,831,3,2,3,2,3,0,0,0,0,0,0,0
221663964,221473648,171807083175,0.0012543502,0.023566049,0.035817847,0,0.25876296,0.24298897,0.013428214,0.13812804,0.017773814,0.03546983,0.0,nan,0.0,0.0,3407890,3407890,6780433,466953,72.69336,73.66653,0.4943564,0.5250894,0,0,831,3,2,3,2,3,0,0,0,0,0,0,0
221863955,221673648,171807083175,0.0009782942,0.009306609,0.020202,0,0.25868067,0.24293046,0.013085513,0.078576766,0.014905312,0.037436172,0.0,nan,0.0,0.0,3407890,3407890,6780433,466953,72.79509,73.66653,0.49403965,0.5250894,0,0,831,3,2,3,2,3,0,0,0,0,0,0,0
222063952,221873648,171807083175,0.00024401511,0.004922821,0.016049959,0,0.25858718,0.24285425,0.019267758,0.088870056,0.013200105,0.03117978,0.0,nan,0.0,0.0,3407890,3407890,6780433,466953,72.68185,73.66653,0.49318713,0.5250894,0,0,831,3,2,3,2,3,0,0,0,0,0,0,0
222263949,222073648,171807083175,0.0004993298,0.0077650044,0.021649275,0,0.25850645,0.2427743,0.014373127,0.11396017,0.014082039,0.032954562,0.0,nan,0.0,0.0,3407890,3407890,6780433,466953,72.83052,73.66653,0.4944894,0.5250894,0,0,831,3,2,3,2,3,0,0,0,0,0,0,0
222463957,222273648,171807083175,0.0008574754,0.0072604725,0.019875215,0,0.25844988,0.24268779,0.0027018145,0.07560824,0.014395545,0.02885272,0.0,nan,0.0,0.0,3407890,3407890,6780433,466953,72.70696,73.66653,0.49531153,0.5250894,0,0,831,3,2,3,2,3,0,0,0,0,0,0,0
222663952,222473650,171807083175,0.0004350317,0.007874753,0.016648967,0,0.25838596,0.24259482,0.008574824,0.08743754,0.015934048,0.02862169,0.0,nan,0.0,0.0,3407890,3407890,6780433,466953,72.86142,73.66653,0.49438474,0.5250894,0,0,831,3,2,3,2,3,0,0,0,0,0,0,0
222863946,222673648,171807083175,0.0005415466,0.009038124,0.017804481,0,0.25829357,0.24248125,0.007515868,0.07321461,0.015223558,0.0287767,0.0,nan,0.0,0.0,3407890,3407890,6780433,466953,72.735435,73.66653,0.4945964,0.5250894,0,0,831,3,2,3,2,3,0,0,0,0,0,0,0
223063951,222873648,171807083175,0.0006944182,0.011175093,0.0187988,0,0.25821698,0.24237132,0.008340007,0.08851371,0.015250971,0.037442226,0.0,nan,0.0,0.0,3407890,3407890,6780433,466953,72.74992,73.66653,0.4953219,0.5250894,0,0,831,3,2,3,2,3,0,0,0,0,0,0,0
223263947,223073650,171807083175,0.00038274413,0.004697804,0.0116928285,0,0.25812575,0.24224623,0.0070675644,0.07714109,0.019017598,0.03002922,0.0,nan,0.0,0.0,3407890,3407890,6780433,466953,72.73765,73.66653,0.4950989,0.5250894,0,0,831,3,2,3,2,3,0,0,0,0,0,0,0
223463984,223273650,171807083175,0.00047237915,0.00552524,0.011357539,0,0.25806397,0.24212874,0.0055570058,0.086714275,0.019680632,0.030673843,0.0,nan,0.0,0.0,3407890,3407890,6780433,466953,72.767,73.66653,0.49577522,0.5250894,0,0,831,3,2,3,2,3,0,0,0,0,0,0,0
223663976,223473648,171807083175,0.0003263338,0.008099622,0.015066841,0,0.25795314,0.24142133,0.0043267417,0.09026405,0.017625572,0.030493505,0.0,nan,0.0,0.0,3407890,3407890,6780433,466953,72.661194,73.66653,0.4954882,0.5250894,0,0,831,3,2,3,2,3,0,0,0,0,0,0,0
223864003,223673648,171807083175,0.0003123412,0.0049091005,0.011242988,0,0.25788254,0.24129656,0.012967732,0.06903971,0.018055374,0.036104813,0.0,nan,0.0,0.0,3407890,3407890,6780433,466953,72.65936,73.66653,0.49422187,0.5250894,0,0,831,3,2,3,2,3,0,0,0,0,0,0,0
224063959,223873650,171807083175,0.0004267758,0.0046823067,0.008684603,0,0.25780645,0.24116802,0.008771712,0.060139097,0.019573743,0.027560584,0.0,nan,0.0,0.0,3407890,3407890,6780433,466953,72.57467,73.66653,0.4952561,0.5250894,0,0,831,3,2,3,2,3,0,0,0,0,0,0,0
224263952,224073650,171807083175,0.00012017944,0.00834891,0.010722042,0,0.25770333,0.24102925,0.0085247,0.088305175,0.016096605,0.027559973,0.0,nan,0.0,0.0,3407890,3407890,6780433,466953,72.6668,73.66653,0.49493963,0.5250894,0,0,831,3,2,3,2,3,0,0,0,0,0,0,0
224463949,224273648,171807083175,0.0003403004,0.010429735,0.014391785,0,0.25761095,0.2409001,0.008289785,0.06347139,0.016156405,0.025634442,0.0,nan,0.0,0.0,3407890,3407890,6780433,466953,72.51245,73.66653,0.4960299,0.5250894,0,0,831,3,2,3,2,3,0,0,0,0,0,0,0
224663943,224473648,171807083175,3.4671113e-05,0.006099113,0.010205485,0,0.25752744,0.24078393,0.00702958,0.10458417,0.019245898,0.027127855,0.0,nan,0.0,0.0,3407890,3407890,6780433,466953,72.73807,73.66653,0.49590442,0.5250894,0,0,831,3,2,3,2,3,0,0,0,0,0,0,0
224863980,224673648,171807083175,0.00030367516,0.013619646,0.019342266,0,0.25747257,0.24069138,0.004901531,0.0914608,0.014313895,0.027592577,0.0,nan,0.0,0.0,3407890,3407890,6780433,466953,72.681885,73.66653,0.49632746,0.5250894,0,0,831,3,2,3,2,3,0,0,0,0,0,0,0
225063955,224873648,171807083175,0.00042997088,0.010750194,0.014249185,0,0.25780332,0.24076006,0.004849918,0.08102576,0.014176713,0.026874494,0.0,nan,0.0,0.0,3407890,3407890,6780433,466953,72.66338,73.66653,0.49684352,0.5250894,0,0,831,3,2,3,2,3,0,0,0,0,0,0,0
225263952,225073648,171807083175,0.000453852,0.011846368,0.018147746,0,0.25772807,0.24068163,0.0012458481,0.079394475,0.0171892,0.021428218,0.0,nan,0.0,0.0,3407890,3407890,6780433,466953,72.67795,73.66653,0.49595883,0.5250894,0,0,831,3,2,3,2,3,0,0,0,0,0,0,0
225463948,225273648,171807083175,0.0001223896,0.0030274608,0.0046719746,0,0.25768015,0.2406119,0.009320717,0.07743351,0.017625464,0.025050912,0.0,nan,0.0,0.0,3407890,3407890,6780433,466953,72.602295,73.66653,0.49533248,0.5250894,0,0,831,3,2,3,2,3,0,0,0,0,0,0,0
225663951,225473648,171807083175,0.000105371575,0.006332221,0.010122165,0,0.2576333,0.24054302,0.014302925,0.07132499,0.017215298,0.02726677,0.0,nan,0.0,0.0,3407890,3407890,6780433,466953,72.85989,73.66653,0.4945405,0.5250894,0,0,831,3,2,3,2,3,0,0,0,0,0,0,0
225863947,225673648,171807083175,0.00019232764,0.0066226916,0.011478535,0,0.2575889,0.2404732,0.011179573,0.056041814,0.019108418,0.02048254,0.0,nan,0.0,0.0,3407890,3407890,6780433,466953,72.57494,73.66653,0.49597177,0.5250894,0,0,831,3,2,3,2,3,0,0,0,0,0,0,0
226063985,225873648,171807083175,0.0003377581,0.0075975563,0.010592715,0,0.2575546,0.24041201,0.0098918285,0.08396452,0.01683042,0.020807896,0.0,nan,0.0,0.0,3407890,3407890,6780433,466953,72.78797,73.66653,0.4951262,0.5250894,0,0,831,3,2,3,2,3,0,0,0,0,0,0,0
226263976,226073648,171807083175,0.00014017518,0.0063301297,0.011380698,0,0.25751534,0.23979323,0.031299505,0.04636997,0.021647185,0.024561064,0.0,nan,0.0,0.0,3407890,3407890,6780433,466953,72.88922,73.66653,0.49160558,0.5250894,0,0,831,3,2,3,2,3,0,0,0,0,0,0,0
226463981,226273648,171807083175,0.00028178724,0.0063699475,0.01047105,0,0.25750116,0.23975126,0.0223827,0.07795663,0.018240497,0.023630083,0.0,nan,0.0,0.0,3407890,3407890,6780433,466953,72.60822,73.66653,0.49547273,0.5250894,0,0,831,3,2,3,2,3,0,0,0,0,0,0,0
226663949,226473648,171807083175,0.00017754534,0.0019219995,0.004264836,0,0.2575007,0.23971952,0.0033088261,0.07805935,0.021144323,0.021244455,0.0,nan,0.0,0.0,3407890,3407890,6780433,466953,72.63123,73.66653,0.49655664,0.5250894,0,0,831,3,2,3,2,3,0,0,0,0,0,0,0
226863942,226673648,171807083175,0.00035079458,0.009944003,0.013088234,0,0.25750256,0.23969327,0.008149434,0.08373076,0.015560638,0.019817626,0.0,nan,0.0,0.0,3407890,3407890,6780433,466953,72.50993,73.66653,0.49614447,0.5250894,0,0,831,3,2,3,2,3,0,0,0,0,0,0,0
227063954,226873648,171807083175,0.00027796373,0.0057095923,0.011159437,0,0.25751325,0.23966575,0.0044343206,0.045933083,0.016507098,0.02162939,0.0,nan,0.0,0.0,3407890,3407890,6780433,466953,72.67461,73.66653,0.4965598,0.5250894,0,0,831,3,2,3,2,3,0,0,0,0,0,0,0
227463946,227273648,171807083175,9.703136e-05,0.0044284593,0.010467017,0,0.25748834,0.2395884,0.016266637,0.053234622,0.019752108,0.026866062,0.0,nan,0.0,0.0,3407890,3407890,6780433,466953,72.317604,73.66653,0.4967746,0.5250894,0,0,831,3,2,3,2,3,0,0,0,0,0,0,0
227663947,227473648,171807083175,0.00023349018,0.0032389725,0.008319138,0,0.25747493,0.239542,0.018708438,0.086771615,0.015958806,0.0323444,0.0,nan,0.0,0.0,3407890,3407890,6780433,466953,72.7355,73.66653,0.4987217,0.5250894,0,0,831,3,2,3,2,3,0,0,0,0,0,0,0
227863961,227673648,171807083175,0.00015968889,0.0036889906,0.0067488975,0,0.257453,0.23948835,0.003571774,0.070660636,0.018520385,0.028078157,0.0,nan,0.0,0.0,3407890,3407890,6780433,466953,72.560715,73.66653,0.49707937,0.5250894,0,0,831,3,2,3,2,3,0,0,0,0,0,0,0
228063959,227873648,171807083175,0.0004954531,0.011479691,0.017526474,0,0.2574203,0.23942393,0.0111753335,0.07564401,0.02026336,0.020160876,0.0,nan,0.0,0.0,3407890,3407890,6780433,466953,72.55536,73.66653,0.49797288,0.5250894,0,0,831,3,2,3,2,3,0,0,0,0,0,0,0
228264114,228073648,171807083175,0.00022115173,0.0048260153,0.008094311,0,0.2573568,0.23934133,0.0468561,0.05419964,0.017016657,0.023030208,0.0,nan,0.0,0.0,3407890,3407890,6780433,466953,72.841515,73.66653,0.48854762,0.5250894,0,0,831,3,2,3,2,3,0,0,0,0,0,0,0
228463951,228273648,171807083175,0.0003540104,0.007152577,0.008879535,0,0.25730538,0.23926446,0.014486497,0.062436484,0.016536856,0.02110682,0.0,nan,0.0,0.0,3407890,3407890,6780433,466953,72.54252,73.66653,0.49536473,0.5250894,0,0,831,3,2,3,2,3,0,0,0,0,0,0,0
228663990,228473648,171807083175,0.0004477613,0.004923988,0.008606181,0,0.25725323,0.23862989,0.0076931794,0.09077512,0.014114116,0.01821686,0.0,nan,0.0,0.0,3407890,3407890,6780433,466953,72.49392,73.66653,0.4973684,0.5250894,0,0,831,3,2,3,2,3,0,0,0,0,0,0,0
228863974,228673647,171807083175,0.00035168199,0.0061681,0.006564186,0,0.25716916,0.23853342,0.012745689,0.062398378,0.014031806,0.018296266,0.0,nan,0.0,0.0,3407890,3407890,6780433,466953,72.67253,73.66653,0.4941743,0.5250894,0,0,831,3,2,3,2,3,0,0,0,0,0,0,0
229063952,228873648,171807083175,0.0003648713,0.009270938,0.013766959,0,0.2570771,0.2384331,0.010258237,0.08191119,0.017208245,0.020530358,0.0,nan,0.0,0.0,3407890,3407890,6780433,466953,72.63043,73.66653,0.4971376,0.5250894,0,0,831,3,2,3,2,3,0,0,0,0,0,0,0
229264131,229073648,171807083175,0.0004627242,0.009142331,0.012601883,0,0.25696412,0.23832092,0.05609217,0.037793316,0.014112281,0.021454299,0.0,nan,0.0,0.0,3407890,3407890,6780433,466953,73.00574,73.66653,0.4888379,0.5250894,0,0,831,3,2,3,2,3,0,0,0,0,0,0,0
229463945,229273648,171807083175,0.0003191732,0.0046451306,0.0070100958,0,0.25687036,0.23821346,0.010802341,0.06450217,0.01802768,0.020083282,0.0,nan,0.0,0.0,3407890,3407890,6780433,466953,72.56809,73.66653,0.49587926,0.5250894,0,0,831,3,2,3,2,3,0,0,0,0,0,0,0
229663950,229473648,171807083175,0.00027850803,0.0053568617,0.008815982,0,0.25679415,0.23810966,0.0085562905,0.06547674,0.016344259,0.017074917,0.0,nan,0.0,0.0,3407890,3407890,6780433,466953,72.57249,73.66653,0.49757418,0.5250894,0,0,831,3,2,3,2,3,0,0,0,0,0,0,0
229863955,229673648,171807083175,0.00028534984,0.005519684,0.007251781,0,0.25671676,0.23800646,0.0055848244,0.0942646,0.018751545,0.017171651,0.0,nan,0.0,0.0,3407890,3407890,6780433,466953,72.58214,73.66653,0.49559438,0.5250894,0,0,831,3,2,3,2,3,0,0,0,0,0,0,0
230063955,229873648,171807083175,0.0002703355,0.0048231184,0.009648901,0,0.25661102,0.2378935,0.007583856,0.054416705,0.017834516,0.021344546,0.0,nan,0.0,0.0,3407890,3407890,6780433,466953,72.6194,73.66653,0.497199,0.5250894,0,0,831,3,2,3,2,3,0,0,0,0,0,0,0
230264121,230073649,171807083175,0.0001862939,0.0022903192,0.005762183,0,0.25651383,0.23778172,0.047766104,0.037150543,0.016341457,0.018084213,0.0,nan,0.0,0.0,3407890,3407890,6780433,466953,72.84261,73.66653,0.4882216,0.5250894,0,0,831,3,2,3,2,3,0,0,0,0,0,0,0
230463949,230273648,171807083175,0.00021931634,0.005676885,0.00949415,0,0.25643164,0.23767366,0.00742152,0.037263013,0.017350808,0.01773756,0.0,nan,0.0,0.0,3407890,3407890,6780433,466953,72.51662,73.66653,0.49619547,0.5250894,0,0,831,3,2,3,2,3,0,0,0,0,0,0,0
230663955,230473648,171807083175,0.00014959485,0.0020784852,0.006319231,0,0.25632206,0.23755866,0.0047172704,0.04184807,0.018063333,0.018717362,0.0,nan,0.0,0.0,3407890,3407890,6780433,466953,72.72115,73.66653,0.49656296,0.5250894,0,0,831,3,2,3,2,3,0,0,0,0,0,0,0
230863954,230673648,171807083175,0.00012569466,0.0022695193,0.0047747963,0,0.25618285,0.23743513,0.009934493,0.07798298,0.0172897,0.034584895,0.0,nan,0.0,0.0,3407890,3407890,6780433,466953,72.69727,73.66653,0.49750337,0.5250894,0,0,831,3,2,3,2,3,0,0,0,0,0,0,0
231063955,230873648,171807083175,0.00026762465,0.0053773676,0.0071442435,0,0.25606862,0.23731971,0.010509812,0.10422075,0.019090934,0.022591842,0.0,nan,0.0,0.0,3407890,3407890,6780433,466953,72.78249,73.66653,0.497113,0.5250894,0,0,831,3,2,3,2,3,0,0,0,0,0,0,0
231264144,231073648,171807083175,0.00016979623,0.007678202,0.010986217,0,0.25595596,0.23666559,0.015121391,0.05761187,0.016232984,0.01775379,0.0,nan,0.0,0.0,3407890,3407890,6780433,466953,72.58551,73.66653,0.49704745,0.5250894,0,0,831,3,2,3,2,3,0,0,0,0,0,0,0
231463976,231273648,171807083175,0.00021186074,0.0031296252,0.004899774,0,0.25586125,0.23655723,0.010015656,0.05498569,0.018968657,0.017371299,0.0,nan,0.0,0.0,3407890,3407890,6780433,466953,72.67335,73.66653,0.49742255,0.5250894,0,0,831,3,2,3,2,3,0,0,0,0,0,0,0
231663949,231473648,171807083175,0.0001446584,0.0056077405,0.0077119404,0,0.2557632,0.23644894,0.010054674,0.08389513,0.015534213,0.022042818,0.0,nan,0.0,0.0,3407890,3407890,6780433,466953,72.688416,73.66653,0.49738842,0.5250894,0,0,831,3,2,3,2,3,0,0,0,0,0,0,0
231863952,231673648,171807083175,0.00019379782,0.0054848106,0.008975845,0,0.2556644,0.23634182,0.008783527,0.06336695,0.018687597,0.028938042,0.0,nan,0.0,0.0,3407890,3407890,6780433,466953,72.77025,73.66653,0.49647895,0.5250894,0,0,831,3,2,3,2,3,0,0,0,0,0,0,0
232063952,231873648,171807083175,0.00023956681,0.004833096,0.00800439,0,0.25551894,0.23621657,0.009620047,0.07071192,0.018451316,0.01939487,0.0,nan,0.0,0.0,3407890,3407890,6780433,466953,72.817726,73.66653,0.49694154,0.5250894,0,0,831,3,2,3,2,3,0,0,0,0,0,0,0
232264129,232073648,171807083175,0.00019543467,0.0054948675,0.0088224625,0,0.2554036,0.2360997,0.007828287,0.05029837,0.015779484,0.019077076,0.0,nan,0.0,0.0,3407890,3407890,6780433,466953,72.74776,73.66653,0.49636945,0.5250894,0,0,831,3,2,3,2,3,0,0,0,0,0,0,0
232463993,232273648,171807083175,0.00019069579,0.0014340227,0.0035786391,0,0.25528222,0.23598051,0.0043825386,0.06319613,0.01593667,0.026542816,0.0,nan,0.0,0.0,3407890,3407890,6780433,466953,72.72465,73.66653,0.4957654,0.5250894,0,0,831,3,2,3,2,3,0,0,0,0,0,0,0
232663952,232473648,171807083175,0.00017905532,0.0027623984,0.0077472893,0,0.25518683,0.23586997,0.0110090235,0.032083213,0.015677102,0.023409452,0.0,nan,0.0,0.0,3407890,3407890,6780433,466953,72.650246,73.66653,0.4959222,0.5250894,0,0,831,3,2,3,2,3,0,0,0,0,0,0,0
232863945,232673648,171807083175,0.00015781894,0.007477722,0.009703916,0,0.25506687,0.23575172,0.0038334331,0.07579094,0.013252975,0.021130707,0.0,nan,0.0,0.0,3407890,3407890,6780433,466953,72.706474,73.66653,0.49560294,0.5250894,0,0,831,3,2,3,2,3,0,0,0,0,0,0,0
233063955,232873648,171807083175,0.00012566488,0.0033120327,0.0043223132,0,0.25496754,0.23563975,0.008810645,0.03942589,0.015735922,0.026656084,0.0,nan,0.0,0.0,3407890,3407890,6780433,466953,72.71358,73.66653,0.49711525,0.5250894,0,0,831,3,2,3,2,3,0,0,0,0,0,0,0
233264154,233073648,171807083175,0.0002529233,0.0064627677,0.009187358,0,0.25484493,0.23552325,0.010882759,0.052384753,0.016641766,0.017248686,0.0,nan,0.0,0.0,3407890,3407890,6780433,466953,72.80539,73.66653,0.49609807,0.5250894,0,0,831,3,2,3,2,3,0,0,0,0,0,0,0
233463946,233273648,171807083175,0.00030725976,0.004625945,0.0064221295,0,0.25474343,0.23541312,0.003585746,0.04067596,0.017274335,0.020030629,0.0,nan,0.0,0.0,3407890,3407890,6780433,466953,72.627815,73.66653,0.49596,0.5250894,0,0,831,3,2,3,2,3,0,0,0,0,0,0,0
233663950,233473648,171807083175,0.00050478126,0.00832906,0.011730874,0,0.25464588,0.23530401,0.013219881,0.039894223,0.01761271,0.017005393,0.0,nan,0.0,0.0,3407890,3407890,6780433,466953,72.484245,73.66653,0.49769112,0.5250894,0,0,831,3,2,3,2,3,0,0,0,0,0,0,0
233863983,233673648,171807083175,0.00041215276,0.006799507,0.009974455,0,0.25454807,0.23467216,0.0029864295,0.05754601,0.016307062,0.016908003,0.0,nan,0.0,0.0,3407890,3407890,6780433,466953,72.51114,73.66653,0.49647263,0.5250894,0,0,831,3,2,3,2,3,0,0,0,0,0,0,0
234264160,234073648,171807083175,0.00028138756,0.006049171,0.007921336,0,0.2543296,0.23446605,0.007624102,0.0620758,0.01495273,0.015422866,0.0,nan,0.0,0.0,3407890,3407890,6780433,466953,72.59413,73.66653,0.49664557,0.5250894,0,0,831,3,2,3,2,3,0,0,0,0,0,0,0
234863948,234673648,171807083175,0.00029801,0.004571949,0.006745761,0,0.2540304,0.23417264,0.007855412,0.0651377,0.011669947,0.019497242,0.0,nan,0.0,0.0,3407890,3407890,6780433,466953,72.651955,73.66653,0.49587172,0.5250894,0,0,831,3,2,3,2,3,0,0,0,0,0,0,0
235063953,234873648,171807083175,0.0003457122,0.005414639,0.0066484245,0,0.2539376,0.23407808,0.057727467,0.025638238,0.009936166,0.023468673,0.0,nan,0.0,0.0,3407890,3407890,6780433,466953,73.040634,73.66653,0.48606366,0.5250894,0,0,831,3,2,3,2,3,0,0,0,0,0,0,0
235264120,235073648,171807083175,0.00027187416,0.0033191144,0.0037430837,0,0.2538194,0.2339767,0.022281703,0.04185034,0.00936129,0.01752546,0.0,nan,0.0,0.0,3407890,3407890,6780433,466953,72.47196,73.66653,0.49972844,0.5250894,0,0,831,3,2,3,2,3,0,0,0,0,0,0,0
235463945,235273648,171807083175,0.00019889668,0.0041416967,0.0064773588,0,0.25373408,0.23388274,0.011117164,0.03157597,0.009432189,0.01669402,0.0,nan,0.0,0.0,3407890,3407890,6780433,466953,72.51518,73.66653,0.49458084,0.5250894,0,0,831,3,2,3,2,3,0,0,0,0,0,0,0
235663946,235473648,171807083175,0.00026369726,0.00548144,0.009978867,0,0.25364834,0.23379514,0.0059412667,0.023064883,0.010325958,0.012282047,0.0,nan,0.0,0.0,3407890,3407890,6780433,466953,72.543884,73.66653,0.49540746,0.5250894,0,0,831,3,2,3,2,3,0,0,0,0,0,0,0
235863946,235673648,171807083175,0.00026192123,0.0017948268,0.0055649555,0,0.2535657,0.2337044,0.005787148,0.05876861,0.00866661,0.0126558235,0.0,nan,0.0,0.0,3407890,3407890,6780433,466953,72.76433,73.66653,0.49530527,0.5250894,0,0,831,3,2,3,2,3,0,0,0,0,0,0,0
236063949,235873648,171807083175,0.00014447756,0.0025018177,0.0069685923,0,0.25348452,0.23361705,0.05352494,0.01661595,0.009542464,0.011230983,0.0,nan,0.0,0.0,3407890,3407890,6780433,466953,72.99984,73.66653,0.48679826,0.5250894,0,0,831,3,2,3,2,3,0,0,0,0,0,0,0
236264143,236073648,171807083175,0.00016316593,0.0014550058,0.0034624366,0,0.25337803,0.23300745,0.0078061977,0.057845082,0.010232578,0.020735841,0.0,nan,0.0,0.0,3407890,3407890,6780433,466953,72.632034,73.66653,0.49590036,0.5250894,0,0,831,3,2,3,2,3,0,0,0,0,0,0,0
236463981,236273648,171807083175,0.0002126085,0.0030384508,0.005914587,0,0.25329596,0.23291445,0.0068667303,0.033688303,0.011975598,0.012053104,0.0,nan,0.0,0.0,3407890,3407890,6780433,466953,72.65739,73.66653,0.49620616,0.5250894,0,0,831,3,2,3,2,3,0,0,0,0,0,0,0
236663944,236473648,171807083175,0.00022268608,0.0037273748,0.0099090515,0,0.25318837,0.23281443,0.0031194938,0.024726085,0.009184795,0.012516547,0.0,nan,0.0,0.0,3407890,3407890,6780433,466953,72.65739,73.66653,0.4961912,0.5250894,0,0,831,3,2,3,2,3,0,0,0,0,0,0,0
236863946,236673648,171807083175,0.00014212242,0.004183633,0.008538325,0,0.25309637,0.23271619,0.0033076194,0.039669402,0.010226596,0.012019862,0.0,nan,0.0,0.0,3407890,3407890,6780433,466953,72.69877,73.66653,0.495862,0.5250894,0,0,831,3,2,3,2,3,0,0,0,0,0,0,0
237063955,236873648,171807083175,0.00014711174,0.0035697327,0.0076520587,0,0.25300545,0.23261401,0.04891862,0.041150685,0.009937574,0.016653543,0.0,nan,0.0,0.0,3407890,3407890,6780433,466953,72.89154,73.66653,0.4877597,0.5250894,0,0,831,3,2,3,2,3,0,0,0,0,0,0,0
237263946,237073648,171807083175,6.745656e-05,0.004888716,0.008476397,0,0.2528881,0.23250358,0.0069081923,0.07022903,0.0094892755,0.0133209815,0.0,nan,0.0,0.0,3407890,3407890,6780433,466953,72.527176,73.66653,0.49538267,0.5250894,0,0,831,3,2,3,2,3,0,0,0,0,0,0,0
237463969,237273648,171807083175,0.00016995822,0.0043248525,0.0070985686,0,0.25278398,0.23239684,0.0048309476,0.04375419,0.0089289835,0.017873775,0.0,nan,0.0,0.0,3407890,3407890,6780433,466953,72.662964,73.66653,0.49582314,0.5250894,0,0,831,3,2,3,2,3,0,0,0,0,0,0,0
237863980,237673648,171807083175,0.00014656871,0.006635283,0.01190077,0,0.25258183,0.2321784,0.005683352,0.04915103,0.010622903,0.016918598,0.0,nan,0.0,0.0,3407890,3407890,6780433,466953,72.77581,73.66653,0.49520075,0.5250894,0,0,831,3,2,3,2,3,0,0,0,0,0,0,0
238063950,237873648,171807083175,0.000109595014,0.0048038997,0.0094443,0,0.25248057,0.23206693,0.010786571,0.066532776,0.010941024,0.019944545,0.0,nan,0.0,0.0,3407890,3407890,6780433,466953,72.69614,73.66653,0.4942189,0.5250894,0,0,831,3,2,3,2,3,0,0,0,0,0,0,0
238263953,238073648,171807083175,4.7236394e-05,0.0051999292,0.012080198,0,0.25235584,0.23194404,0.0020862075,0.05000398,0.008922881,0.023313971,0.0,nan,0.0,0.0,3407890,3407890,6780433,466953,72.69236,73.66653,0.49559525,0.5250894,0,0,831,3,2,3,2,3,0,0,0,0,0,0,0
238463982,238273648,171807083175,0.00016703727,0.0036771572,0.008357531,0,0.25222874,0.23182142,0.0057380307,0.057348303,0.008533319,0.0140662305,0.0,nan,0.0,0.0,3407890,3407890,6780433,466953,72.78872,73.66653,0.49595588,0.5250894,0,0,831,3,2,3,2,3,0,0,0,0,0,0,0
238663946,238473648,171807083175,0.0002331161,0.010769924,0.017389422,0,0.2521238,0.23170939,0.012489909,0.07144226,0.006756019,0.01552968,0.0,nan,0.0,0.0,3407890,3407890,6780433,466953,72.83324,73.66653,0.496491,0.5250894,0,0,831,3,2,3,2,3,0,0,0,0,0,0,0
238863984,238673648,171807083175,0.0002311054,0.0060374876,0.011166653,0,0.2520176,0.23109241,0.01307499,0.03799229,0.00878334,0.015252675,0.0,nan,0.0,0.0,3407890,3407890,6780433,466953,72.83378,73.66653,0.4975964,0.5250894,0,0,831,3,2,3,2,3,0,0,0,0,0,0,0
239063985,238873648,171807083175,0.0003693199,0.008576637,0.014461168,0,0.25188962,0.23097172,0.022189029,0.07217704,0.006442196,0.016010655,0.0,nan,0.0,0.0,3407890,3407890,6780433,466953,72.63399,73.66653,0.49274048,0.5250894,0,0,831,3,2,3,2,3,0,0,0,0,0,0,0
239263951,239073648,171807083175,0.00024094764,0.0063774786,0.010787752,0,0.25176278,0.2308543,0.011571784,0.049825296,0.008900632,0.02567143,0.0,nan,0.0,0.0,3407890,3407890,6780433,466953,72.43953,73.66653,0.4962767,0.5250894,0,0,831,3,2,3,2,3,0,0,0,0,0,0,0
239463946,239273648,171807083175,0.0005495135,0.014248823,0.022329543,0,0.2516381,0.23073782,0.051764797,0.09087482,0.007110248,0.020329613,0.0,nan,0.0,0.0,3407890,3407890,6780433,466953,72.55437,73.66653,0.5042224,0.5250894,0,0,831,3,2,3,2,3,0,0,0,0,0,0,0
239663996,239473648,171807083175,0.0008340603,0.010861376,0.022333704,0,0.25153673,0.23063096,0.031156234,0.056031715,0.0038440214,0.029459143,0.0,nan,0.0,0.0,3407890,3407890,6780433,466953,72.60384,73.66653,0.500646,0.5250894,0,0,831,3,2,3,2,3,0,0,0,0,0,0,0
239863962,239673648,171807083175,0.00024863787,0.012190057,0.020900872,0,0.2513762,0.23051077,0.03087955,0.088431545,0.005311673,0.021999821,0.0,nan,0.0,0.0,3407890,3407890,6780433,466953,71.661285,73.66653,0.50043744,0.5250894,0,0,831,3,2,3,2,3,0,0,0,0,0,0,0
240063956,239873648,171807083175,0.0017764234,0.011971604,0.019917458,0,0.25120893,0.23039325,0.024745801,0.03454898,0.01084237,0.02443952,0.0,nan,0.0,0.0,3407890,3407890,6780433,466953,72.05344,73.66653,0.49824983,0.5250894,0,0,831,3,2,3,2,3,0,0,0,0,0,0,0
240263953,240073648,171807083175,0.0016907604,0.0072051566,0.009991382,0,0.25107855,0.23028181,0.0169082,0.030362748,0.01584377,0.028643992,0.0,nan,0.0,0.0,3407890,3407890,6780433,466953,72.11774,73.66653,0.49880984,0.5250894,0,0,831,3,2,3,2,3,0,0,0,0,0,0,0
240463949,240273648,171807083175,0.0021476438,0.007154145,0.010962722,0,0.25097317,0.23017903,0.013222739,0.08350316,0.01534653,0.026228193,0.0,nan,0.0,0.0,3407890,3407890,6780433,466953,72.22351,73.66653,0.49760404,0.5250894,0,0,831,3,2,3,2,3,0,0,0,0,0,0,0
240663962,240473650,171807083175,0.0012229314,0.0068724016,0.016214851,0,0.2508736,0.23008136,0.015025611,0.0626632,0.018472878,0.029150464,0.0,nan,0.0,0.0,3407890,3407890,6780433,466953,72.27531,73.66653,0.4972995,0.5250894,0,0,831,3,2,3,2,3,0,0,0,0,0,0,0
240863945,240673648,171807083175,0.0002712111,0.008309863,0.018896902,0,0.25072965,0.22996874,0.007996935,0.06182651,0.012566336,0.027700404,0.0,nan,0.0,0.0,3407890,3407890,6780433,466953,72.41822,73.66653,0.4966741,0.5250894,0,0,831,3,2,3,2,3,0,0,0,0,0,0,0
241064137,240873681,171807083175,0.0001370906,0.006069172,0.018350296,0,0.25062996,0.22987597,0.011646474,0.06726767,0.010958977,0.023553474,0.0,nan,0.0,0.0,3407890,3407890,6780433,466953,72.48382,73.66653,0.4973654,0.5250894,0,0,831,3,2,3,2,3,0,0,0,0,0,0,0
241263976,241073648,171807083175,0.00020257107,0.007861289,0.021279914,0,0.2505031,0.22928098,0.014303817,0.07871614,0.009917662,0.024372248,0.0,nan,0.0,0.0,3407890,3407890,6780433,466953,72.39853,73.66653,0.4957481,0.5250894,0,0,831,3,2,3,2,3,0,0,0,0,0,0,0
241463975,241273648,171807083175,0.00012543304,0.007812855,0.021280259,0,0.25039566,0.22918355,0.002836485,0.08574743,0.011800856,0.027881436,0.0,nan,0.0,0.0,3407890,3407890,6780433,466953,72.67513,73.66653,0.4951737,0.5250894,0,0,831,3,2,3,2,3,0,0,0,0,0,0,0
241663966,241473648,171807083175,0.00017891204,0.00665177,0.017186483,0,0.2502816,0.22908774,0.0013739719,0.06693982,0.010549124,0.024337877,0.0,nan,0.0,0.0,3407890,3407890,6780433,466953,72.73354,73.66653,0.49569654,0.5250894,0,0,831,3,2,3,2,3,0,0,0,0,0,0,0
241863951,241673648,171807083175,6.983646e-05,0.005082234,0.0138493795,0,0.25016376,0.22899155,0.0033379782,0.05839246,0.011166516,0.022957029,0.0,nan,0.0,0.0,3407890,3407890,6780433,466953,72.76822,73.66653,0.49488297,0.5250894,0,0,831,3,2,3,2,3,0,0,0,0,0,0,0
242064127,241873648,171807083175,0.00025338118,0.0062338645,0.013250232,0,0.25001502,0.22888258,0.00761281,0.06622326,0.01097129,0.027044464,0.0,nan,0.0,0.0,3407890,3407890,6780433,466953,72.714874,73.66653,0.4961288,0.5250894,0,0,831,3,2,3,2,3,0,0,0,0,0,0,0
242263948,242073648,171807083175,0.0009326944,0.009869985,0.013722136,0,0.24986927,0.22877343,0.004927987,0.061574653,0.00960805,0.02986044,0.0,nan,0.0,0.0,3407890,3407890,6780433,466953,72.679436,73.66653,0.495425,0.5250894,0,0,831,3,2,3,2,3,0,0,0,0,0,0,0
242663949,242473648,171807083175,0.0012107327,0.007900496,0.010089605,0,0.24957672,0.22854662,0.009605816,0.024482902,0.010360581,0.026066493,0.0,nan,0.0,0.0,3407890,3407890,6780433,466953,72.844604,73.66653,0.49512613,0.5250894,0,0,831,3,2,3,2,3,0,0,0,0,0,0,0
242863947,242673648,171807083175,0.0012867948,0.008227175,0.011643943,0,0.24945073,0.22843757,0.0018790362,0.02987974,0.009995793,0.025695316,0.0,nan,0.0,0.0,3407890,3407890,6780433,466953,72.69005,73.66653,0.49589968,0.5250894,0,0,831,3,2,3,2,3,0,0,0,0,0,0,0
243064127,242873648,171807083175,0.0010456358,0.0069267387,0.009830037,0,0.2493286,0.22832885,0.004553586,0.045422673,0.0100722145,0.02419599,0.0,nan,0.0,0.0,3407890,3407890,6780433,466953,72.72683,73.66653,0.49595413,0.5250894,0,0,831,3,2,3,2,3,0,0,0,0,0,0,0
243263952,243073648,171807083175,0.0014279559,0.009523731,0.014322509,0,0.2491897,0.2282108,0.0022769624,0.02493396,0.009904345,0.023576098,0.0,nan,0.0,0.0,3407890,3407890,6780433,466953,72.63249,73.66653,0.49598408,0.5250894,0,0,831,3,2,3,2,3,0,0,0,0,0,0,0
243463942,243273648,171807083175,0.0014442318,0.010844312,0.02217269,0,0.2490508,0.22809128,0.06696104,0.14000054,0.018194567,0.026898013,0.0,nan,0.0,0.0,3407890,3407890,6780433,466953,71.8841,73.66653,0.4917332,0.5250894,0,0,831,3,2,3,2,3,0,0,0,0,0,0,0
243663950,243473648,171807083175,0.0005263392,0.0014542623,0.0065216743,0,0.24894577,0.22798243,0.0354409,0.0474386,0.01718363,0.024226826,0.0,nan,0.0,0.0,3407890,3407890,6780433,466953,73.79837,73.66653,0.49470934,0.5250894,0,0,831,3,2,3,2,3,0,0,0,0,0,0,0
243863976,243673648,171807083175,0.0012179831,0.008695493,0.008049913,0,0.2488449,0.22739379,0.021316972,0.090506315,0.022267953,0.022702463,0.0,nan,0.0,0.0,3407890,3407890,6780433,466953,73.28391,73.66653,0.4930996,0.5250894,0,0,831,3,2,3,2,3,0,0,0,0,0,0,0
244064163,243873648,171807083175,0.0017707644,0.0055947537,0.0069919946,0,0.24875301,0.22728197,0.0142786605,0.042306717,0.025057191,0.032080878,0.0,nan,0.0,0.0,3407890,3407890,6780433,466953,73.076965,73.66653,0.49441487,0.5250894,0,0,831,3,2,3,2,3,0,0,0,0,0,0,0
244263956,244073648,171807083175,0.00027954413,0.009344786,0.014971695,0,0.24864903,0.22716972,0.0064539323,0.0578092,0.02671257,0.03357845,0.0,nan,0.0,0.0,3407890,3407890,6780433,466953,72.82883,73.66653,0.49517515,0.5250894,0,0,831,3,2,3,2,3,0,0,0,0,0,0,0
244463946,244273648,171807083175,9.275072e-05,0.0023607223,0.007654514,0,0.24854286,0.22705057,0.012355412,0.061510835,0.021303505,0.032771844,0.0,nan,0.0,0.0,3407890,3407890,6780433,466953,72.80951,73.66653,0.49651664,0.5250894,0,0,831,3,2,3,2,3,0,0,0,0,0,0,0
244663944,244473648,171807083175,0.0009886557,0.007840155,0.014496248,0,0.2484544,0.22694017,0.011685395,0.041730866,0.019874156,0.032544762,0.0,nan,0.0,0.0,3407890,3407890,6780433,466953,72.60594,73.66653,0.49697185,0.5250894,0,0,831,3,2,3,2,3,0,0,0,0,0,0,0
244863945,244673648,171807083175,0.0011250435,0.009223144,0.01756763,0,0.24835601,0.22682782,0.007990441,0.052536257,0.016896918,0.03487874,0.0,nan,0.0,0.0,3407890,3407890,6780433,466953,72.524734,73.66653,0.49687165,0.5250894,0,0,831,3,2,3,2,3,0,0,0,0,0,0,0
245064130,244873648,171807083175,0.00054020673,0.0022898,0.007051245,0,0.24825336,0.22671525,0.0077345897,0.046384852,0.011620144,0.02923002,0.0,nan,0.0,0.0,3407890,3407890,6780433,466953,72.53725,73.66653,0.49660337,0.5250894,0,0,831,3,2,3,2,3,0,0,0,0,0,0,0
245263958,245073648,171807083175,7.378979e-05,0.0019605213,0.0039034488,0,0.24812108,0.22659242,0.007623415,0.02089335,0.006790855,0.022580935,0.0,nan,0.0,0.0,3407890,3407890,6780433,466953,72.44178,73.66653,0.49639586,0.5250894,0,0,831,3,2,3,2,3,0,0,0,0,0,0,0
245663989,245473648,171807083175,0.0007167189,0.0058943457,0.010126718,0,0.24786013,0.22635569,0.004197195,0.036547776,0.0057766624,0.02077235,0.0,nan,0.0,0.0,3407890,3407890,6780433,466953,72.373184,73.66653,0.497598,0.5250894,0,0,831,3,2,3,2,3,0,0,0,0,0,0,0
245863949,245673648,171807083175,0.0012295222,0.007867018,0.01288246,0,0.2477401,0.22624269,0.00797271,0.049719863,0.005626938,0.026768317,0.0,nan,0.0,0.0,3407890,3407890,6780433,466953,72.31775,73.66653,0.49773663,0.5250894,0,0,831,3,2,3,2,3,0,0,0,0,0,0,0
246064129,245873652,171807083175,0.0010101821,0.0031800857,0.0077755526,0,0.24762692,0.22613318,0.0055319294,0.057276417,0.005524202,0.01911685,0.0,nan,0.0,0.0,3407890,3407890,6780433,466953,72.36288,73.66653,0.497402,0.5250894,0,0,831,3,2,3,2,3,0,0,0,0,0,0,0
246263956,246073649,171807083175,0.0009027169,0.0073355893,0.014036166,0,0.24749683,0.22602004,0.008435405,0.061339103,0.0112462435,0.020081896,0.0,nan,0.0,0.0,3407890,3407890,6780433,466953,72.493225,73.66653,0.49787045,0.5250894,0,0,831,3,2,3,2,3,0,0,0,0,0,0,0
246463981,246273648,171807083175,0.0006114321,0.0041892137,0.010279813,0,0.24739672,0.22545075,0.0018548258,0.031176055,0.010415096,0.018882295,0.0,nan,0.0,0.0,3407890,3407890,6780433,466953,72.51293,73.66653,0.49671727,0.5250894,0,0,831,3,2,3,2,3,0,0,0,0,0,0,0
246663981,246473648,171807083175,0.0002658116,0.008267835,0.014941834,0,0.24730586,0.22534871,0.0035415082,0.047233056,0.013787455,0.023434179,0.0,nan,0.0,0.0,3407890,3407890,6780433,466953,72.509026,73.66653,0.49694663,0.5250894,0,0,831,3,2,3,2,3,0,0,0,0,0,0,0
246863947,246673648,171807083175,0.00076874305,0.008213362,0.012258206,0,0.24719189,0.22524251,0.06796003,0.061621893,0.017516868,0.019127365,0.0,nan,0.0,0.0,3407890,3407890,6780433,466953,73.22125,73.66653,0.49469334,0.5250894,0,0,831,3,2,3,2,3,0,0,0,0,0,0,0
247064132,246873648,171807083175,0.00041806424,0.0052632666,0.013713262,0,0.24708681,0.22514245,0.029695978,0.024311388,0.023209775,0.016471274,0.0,nan,0.0,0.0,3407890,3407890,6780433,466953,71.63908,73.66653,0.5020589,0.5250894,0,0,831,3,2,3,2,3,0,0,0,0,0,0,0
247463947,247273648,171807083175,0.00027499706,0.008975237,0.017052596,0,0.24693239,0.2249629,0.026465215,0.018999409,0.032154948,0.01512913,0.0,nan,0.0,0.0,3407890,3407890,6780433,466953,71.924484,73.66653,0.49714604,0.5250894,0,0,831,3,2,3,2,3,0,0,0,0,0,0,0
247663948,247473648,171807083175,0.00043484307,0.0068220226,0.011689098,0,0.24687561,0.22488233,0.008020728,0.058154367,0.028378654,0.016327303,0.0,nan,0.0,0.0,3407890,3407890,6780433,466953,72.554886,73.66653,0.4962432,0.5250894,0,0,831,3,2,3,2,3,0,0,0,0,0,0,0
247863952,247673648,171807083175,0.00012363486,0.0043734917,0.0108752325,0,0.24682152,0.22480458,0.012414209,0.07237083,0.027786316,0.011777973,0.0,nan,0.0,0.0,3407890,3407890,6780433,466953,72.54824,73.66653,0.49534592,0.5250894,0,0,831,3,2,3,2,3,0,0,0,0,0,0,0
