timestamp,timestamp_sample,baro_device_id,baro_alt_meter,baro_temp_celcius,baro_pressure_pa,rho,eas2tas,calibration_count
200052208,200029585,6780433,9.07901,24.73,101216.01,1.1835175,1.0173742,0
200225448,200224476,6780433,9.026163,24.73,101216.64,1.1835248,1.0173709,0
200312034,200289382,6780433,9.131856,24.724998,101215.35,1.1835296,1.0173689,0
200355365,200354393,6780433,9.216411,24.73,101214.35,1.183498,1.0173825,0
200441961,200419283,6780433,9.226979,24.73,101214.234,1.1834966,1.0173832,0
200485219,200484247,6780433,9.174133,24.73,101214.87,1.1835041,1.01738,0
200571949,200549182,6780433,9.171491,24.73,101214.875,1.1835042,1.0173799,0
200615108,200614133,6780433,9.086937,24.74,101215.9,1.1834764,1.0173918,0
200701705,200679096,6780433,9.03409,24.73,101216.52,1.1835234,1.0173717,0
200745048,200744034,6780433,9.237549,24.73,101214.11,1.1834952,1.0173838,0
200831604,200808983,6780433,9.237549,24.735,101214.11,1.1834753,1.0173923,0
200874910,200873934,6780433,8.85177,24.75,101218.72,1.1834697,1.0173947,0
200961505,200938884,6780433,9.04466,24.735,101216.41,1.1835022,1.0173807,0
201004802,201003833,6780433,9.065799,24.74,101216.164,1.1834797,1.0173905,0
201091402,201068782,6780433,9.1503525,24.74,101215.14,1.1834676,1.0173956,0
201134708,201133738,6780433,8.981244,24.74,101217.18,1.1834915,1.0173854,0
201221301,201198682,6780433,9.055229,24.74,101216.28,1.183481,1.0173899,0
201264601,201263632,6780433,9.04466,24.74,101216.414,1.1834825,1.0173892,0
201351206,201328609,6780433,8.960106,24.744999,101217.44,1.1834745,1.0173926,0
201394521,201393532,6780433,9.129214,24.74,101215.41,1.1834707,1.0173943,0
201481105,201458504,6780433,9.063156,24.744999,101216.18,1.1834599,1.017399,0
201524402,201523432,6780433,8.978601,24.75,101217.19,1.1834518,1.0174024,0
201611005,201588388,6780433,8.978601,24.744999,101217.19,1.1834717,1.017394,0
201654303,201653331,6780433,8.978601,24.75,101217.195,1.1834518,1.0174024,0
201740948,201718304,6780433,9.1503525,24.74,101215.16,1.1834679,1.0173955,0
201784253,201783265,6780433,9.213768,24.74,101214.39,1.1834588,1.0173994,0
201870801,201848182,6780433,9.160922,24.74,101215.016,1.1834662,1.0173962,0
201914112,201913138,6780433,9.14771,24.75,101215.164,1.1834282,1.0174125,0
202000711,201978082,6780433,8.999741,24.744999,101216.94,1.1834687,1.0173951,0
202044024,202043051,6780433,8.894048,24.75,101218.21,1.1834637,1.0173973,0
202130644,202107982,6780433,9.084294,24.75,101215.93,1.1834371,1.0174087,0
202173906,202172932,6780433,9.020879,24.75,101216.695,1.183446,1.0174049,0
202260519,202237885,6780433,8.999741,24.75,101216.94,1.1834489,1.0174037,0
202303802,202302833,6780433,9.105433,24.75,101215.69,1.1834342,1.0174099,0
202390444,202367804,6780433,9.105433,24.75,101215.67,1.1834341,1.01741,0
202433701,202432732,6780433,9.063156,24.75,101216.19,1.1834401,1.0174074,0
202520357,202497710,6780433,9.094864,24.75,101215.81,1.1834358,1.0174093,0
202563603,202562633,6780433,8.999741,24.75,101216.96,1.1834491,1.0174036,0
202650254,202627591,6780433,9.404016,24.744999,101212.11,1.1834123,1.0174193,0
202693502,202692532,6780433,9.084294,24.75,101215.945,1.1834372,1.0174086,0
202780105,202757494,6780433,9.221696,24.75,101214.28,1.1834178,1.0174171,0
202823422,202822452,6780433,9.168849,24.75,101214.914,1.1834252,1.0174139,0
202910053,202887406,6780433,9.274542,24.75,101213.65,1.1834104,1.0174202,0
202953324,202952334,6780433,9.253403,24.75,101213.91,1.1834134,1.0174189,0
203039902,203017282,6780433,9.084294,24.75,101215.94,1.1834372,1.0174086,0
203083224,203082251,6780433,9.084294,24.75,101215.94,1.1834372,1.0174086,0
203169803,203147181,6780433,9.052587,24.75,101216.32,1.1834416,1.0174068,0
203213194,203212133,6780433,9.063156,24.75,101216.195,1.1834402,1.0174074,0
203299710,203277086,6780433,9.073725,24.755001,101216.07,1.1834189,1.0174166,0
203343044,203342033,6780433,9.018237,24.75,101216.71,1.1834462,1.0174048,0
203429603,203406981,6780433,8.870267,24.76,101218.51,1.1834275,1.0174129,0
203472947,203471976,6780433,9.293037,24.76,101213.414,1.183368,1.0174385,0
203559522,203536882,6780433,9.039375,24.76,101216.48,1.1834036,1.0174232,0
203602846,203601876,6780433,8.891405,24.76,101218.26,1.1834246,1.0174141,0
203689400,203666781,6780433,8.933682,24.765,101217.75,1.1833988,1.0174252,0
203732724,203731745,6780433,8.954821,24.76,101217.48,1.1834154,1.017418,0
203819371,203796682,6780433,8.975959,24.765,101217.24,1.1833929,1.0174278,0
203862603,203861633,6780433,9.102791,24.76,101215.71,1.1833948,1.017427,0
203949221,203926604,6780433,9.0605135,24.76,101216.22,1.1834008,1.0174243,0
203992516,203991532,6780433,9.208484,24.76,101214.44,1.1833799,1.0174333,0
204079104,204056481,6780433,9.0605135,24.765,101216.234,1.1833812,1.0174327,0
204122419,204121432,6780433,9.208484,24.76,101214.445,1.18338,1.0174333,0
204209007,204186383,6780433,9.145068,24.765,101215.21,1.1833692,1.0174379,0
204252359,204251332,6780433,9.0605135,24.769999,101216.23,1.1833612,1.0174414,0
204338902,204316285,6780433,9.208484,24.76,101214.45,1.18338,1.0174333,0
204382228,204381255,6780433,9.166206,24.76,101214.96,1.183386,1.0174307,0
204468803,204446182,6780433,9.100148,24.769999,101215.734,1.1833555,1.0174438,0
204512125,204511134,6780433,9.163565,24.769999,101214.97,1.1833464,1.0174477,0
204598702,204576103,6780433,9.0605135,24.765,101216.23,1.1833811,1.0174328,0
204642017,204641032,6780433,9.271899,24.769999,101213.695,1.1833316,1.017454,0
204728601,204706010,6780433,9.250761,24.765,101213.94,1.1833543,1.0174444,0
204771952,204770931,6780433,9.356454,24.76,101212.66,1.183359,1.0174422,0
204858501,204835889,6780433,9.142426,24.769999,101215.22,1.1833494,1.0174464,0
204901897,204900831,6780433,9.332672,24.769999,101212.94,1.1833227,1.017458,0
204988423,204965792,6780433,9.271899,24.765,101213.69,1.1833513,1.0174456,0
205031706,205030732,6780433,9.166206,24.76,101214.96,1.183386,1.0174307,0
205118310,205095682,6780433,9.261331,24.765,101213.81,1.1833527,1.0174451,0
205161606,205160637,6780433,9.417227,24.769999,101211.94,1.183311,1.017463,0
205248223,205225582,6780433,9.176776,24.765,101214.836,1.1833647,1.0174398,0
205291502,205290532,6780433,9.163565,24.779999,101214.984,1.1833068,1.0174648,0
205378184,205355483,6780433,9.271899,24.765,101213.69,1.1833513,1.0174456,0
205421401,205420431,6780433,9.311534,24.769999,101213.195,1.1833258,1.0174565,0
205508023,205485385,6780433,9.374949,24.769999,101212.43,1.1833168,1.0174605,0
205551319,205550333,6780433,9.248118,24.769999,101213.96,1.1833346,1.0174527,0
205637957,205615309,6780433,9.195272,24.765,101214.586,1.1833619,1.017441,0
205681205,205680232,6780433,9.205841,24.779999,101214.48,1.183301,1.0174673,0
205767848,205745204,6780433,9.237549,24.769999,101214.09,1.1833361,1.0174521,0
205811105,205810132,6780433,9.226979,24.769999,101214.21,1.1833376,1.0174515,0
205897718,205875088,6780433,9.300965,24.774998,101213.33,1.1833074,1.0174645,0
205941004,205940031,6780433,9.184703,24.769999,101214.73,1.1833436,1.0174489,0
206027602,206004982,6780433,9.174133,24.774998,101214.86,1.1833253,1.0174568,0
206070946,206069972,6780433,9.353811,24.769999,101212.69,1.1833198,1.0174592,0
206157517,206134882,6780433,9.52292,24.774998,101210.67,1.1832763,1.0174779,0
206200801,206199832,6780433,9.586335,24.769999,101209.91,1.1832871,1.0174732,0
206287419,206264781,6780433,9.237549,24.774998,101214.09,1.1833162,1.0174607,0
206330710,206329731,6780433,9.692028,24.779999,101208.65,1.1832328,1.0174966,0
206677122,206654483,6780433,9.66032,24.779999,101209.03,1.1832373,1.0174946,0
206720445,206719474,6780433,9.562554,24.779999,101210.19,1.1832508,1.0174888,0
206807033,206784383,6780433,9.850567,24.774998,101206.74,1.1832304,1.0174975,0
206850363,206849390,6780433,9.731663,24.779999,101208.16,1.1832271,1.0174991,0
206936944,206914303,6780433,9.945691,24.774998,101205.6,1.183217,1.0175034,0
206980218,206979245,6780433,10.157077,24.779999,101203.08,1.1831677,1.0175245,0
207066898,207044182,6780433,10.157077,24.779999,101203.08,1.1831677,1.0175245,0
207110107,207109134,6780433,9.900771,24.779999,101206.14,1.1832035,1.0175092,0
207196720,207174092,6780433,10.04874,24.785,101204.36,1.1831627,1.0175267,0
207240024,207239032,6780433,10.04874,24.779999,101204.35,1.1831826,1.0175182,0
207326605,207303983,6780433,10.122726,24.785,101203.47,1.1831524,1.017531,0
207369901,207368932,6780433,10.283908,24.779999,101201.555,1.1831498,1.0175322,0
207456502,207433883,6780433,10.302404,24.785,101201.305,1.183127,1.017542,0
207499801,207498832,6780433,10.558709,24.779999,101198.26,1.1831113,1.0175488,0
207586402,207563782,6780433,10.577205,24.779999,101198.01,1.1831083,1.0175501,0
207629709,207628740,6780433,10.386958,24.789999,101200.3,1.1830955,1.0175556,0
207716306,207693682,6780433,10.558709,24.779999,101198.26,1.1831113,1.0175488,0
207759601,207758631,6780433,10.302404,24.789999,101201.33,1.1831074,1.0175505,0
207846209,207823608,6780433,10.682898,24.785,101196.75,1.1830739,1.0175649,0
207889521,207888531,6780433,10.746313,24.779999,101195.984,1.1830847,1.0175602,0
207976105,207953507,6780433,10.801802,24.779999,101195.33,1.1830771,1.0175636,0
208019400,208018431,6780433,10.661759,24.789999,101197.01,1.183057,1.0175722,0
208106002,208083389,6780433,11.076603,24.779999,101192.04,1.1830386,1.01758,0
208149401,208148331,6780433,11.147946,24.779999,101191.164,1.1830283,1.0175844,0
208235949,208213304,6780433,11.150589,24.785,101191.16,1.1830083,1.0175931,0
208279248,208278255,6780433,11.084531,24.789999,101191.94,1.1829977,1.0175977,0
208365801,208343182,6780433,11.298558,24.779999,101189.375,1.1830075,1.0175935,0
208409105,208408131,6780433,11.401609,24.779999,101188.12,1.1829928,1.0175997,0
208495712,208473082,6780433,11.327623,24.789999,101189.016,1.1829635,1.0176123,0
208539011,208538043,6780433,11.42539,24.779999,101187.86,1.1829897,1.0176011,0
208625647,208602982,6780433,11.626206,24.779999,101185.44,1.1829615,1.0176133,0
208668902,208667932,6780433,11.760964,24.779999,101183.805,1.1829423,1.0176215,0
208755519,208732884,6780433,11.718687,24.779999,101184.31,1.1829482,1.0176189,0
208798803,208797832,6780433,11.908934,24.779999,101182.03,1.1829216,1.0176303,0
208885444,208862803,6780433,12.038408,24.779999,101180.5,1.1829036,1.0176381,0
208928701,208927732,6780433,11.930073,24.779999,101181.78,1.1829187,1.0176316,0
209015363,208992711,6780433,12.088613,24.789999,101179.88,1.1828568,1.0176582,0
209058602,209057632,6780433,12.120319,24.779999,101179.5,1.182892,1.0176431,0
209145223,209122590,6780433,12.078043,24.785,101180.0,1.182878,1.0176492,0
209188500,209187532,6780433,12.355486,24.779999,101176.695,1.1828592,1.0176573,0
209275109,209252496,6780433,12.299997,24.785,101177.34,1.1828469,1.0176625,0
209318422,209317452,6780433,12.289429,24.789999,101177.48,1.1828285,1.0176704,0
209405024,209382382,6780433,12.437398,24.789999,101175.7,1.1828079,1.0176793,0
209448329,209447334,6780433,12.669923,24.789999,101172.914,1.1827753,1.0176933,0
209534905,209512283,6780433,12.595937,24.789999,101173.81,1.1827857,1.0176889,0
209578221,209577231,6780433,12.69106,24.789999,101172.65,1.1827722,1.0176947,0
209664816,209642189,6780433,12.923585,24.789999,101169.86,1.1827396,1.0177087,0
209708197,209707132,6780433,13.1138315,24.789999,101167.6,1.1827132,1.01772,0
209794708,209772085,6780433,13.177247,24.789999,101166.83,1.1827042,1.0177239,0
209838018,209837032,6780433,13.705711,24.789999,101160.484,1.18263,1.0177559,0
209924603,209901981,6780433,13.663434,24.789999,101160.984,1.1826358,1.0177534,0
209967949,209966979,6780433,13.7268505,24.789999,101160.23,1.182627,1.0177572,0
210054521,210031882,6780433,13.705711,24.789999,101160.484,1.18263,1.0177559,0
210097842,210096872,6780433,13.705711,24.8,101160.5,1.1825906,1.0177728,0
210184414,210161781,6780433,13.674004,24.789999,101160.875,1.1826345,1.0177538,0
210227714,210226744,6780433,13.914454,24.8,101157.97,1.182561,1.0177855,0
210314393,210291694,6780433,14.139052,24.794998,101155.3,1.1825495,1.0177904,0
210357604,210356634,6780433,14.065066,24.8,101156.19,1.18254,1.0177945,0
210444247,210421614,6780433,14.287022,24.8,101153.52,1.182509,1.017808,0
210487516,210486532,6780433,14.4667,24.789999,101151.36,1.1825233,1.0178018,0
210574104,210551481,6780433,14.678085,24.794998,101148.83,1.1824738,1.0178231,0
210617435,210616432,6780433,14.804916,24.789999,101147.3,1.1824758,1.0178221,0
210704023,210681392,6780433,14.910609,24.794998,101146.04,1.1824412,1.017837,0
210747306,210746332,6780433,14.889471,24.8,101146.29,1.1824244,1.0178443,0
210833904,210811282,6780433,15.132564,24.789999,101143.36,1.1824298,1.0178419,0
210877230,210876256,6780433,14.931747,24.8,101145.79,1.1824186,1.0178468,0
210963808,210941182,6780433,15.174841,24.794998,101142.86,1.182404,1.0178531,0
211266901,211265932,6780433,15.481351,24.789999,101139.18,1.1823809,1.017863,0
211353503,211330888,6780433,15.7165165,24.789999,101136.38,1.1823483,1.0178771,0
211396897,211395851,6780433,15.77729,24.789999,101135.625,1.1823393,1.0178809,0
211483421,211460792,6780433,15.980748,24.789999,101133.21,1.1823112,1.0178931,0
211526702,211525732,6780433,16.202703,24.789999,101130.55,1.18228,1.0179065,0
211613305,211590682,6780433,16.052092,24.794998,101132.336,1.182281,1.0179061,0
211656616,211655644,6780433,16.287256,24.789999,101129.53,1.1822681,1.0179116,0
211743228,211720581,6780433,16.318966,24.789999,101129.16,1.1822637,1.0179135,0
211786502,211785533,6780433,16.266119,24.789999,101129.79,1.1822711,1.0179104,0
211873192,211850486,6780433,16.453724,24.794998,101127.516,1.1822248,1.0179303,0
211916437,211915463,6780433,16.815722,24.789999,101123.19,1.182194,1.0179435,0
212003019,211980386,6780433,16.51714,24.8,101126.76,1.182196,1.0179427,0
212046306,212045333,6780433,16.68889,24.789999,101124.72,1.1822119,1.0179358,0
212132945,212110303,6780433,16.921413,24.789999,101121.92,1.1821791,1.0179499,0
212176205,212175232,6780433,16.93991,24.789999,101121.68,1.1821764,1.0179511,0
212262869,212240214,6780433,17.238493,24.789999,101118.12,1.1821346,1.017969,0
212306102,212305131,6780433,17.449879,24.789999,101115.58,1.182105,1.0179819,0
212392717,212370088,6780433,17.259632,24.789999,101117.86,1.1821316,1.0179703,0
212436008,212435032,6780433,17.386463,24.789999,101116.336,1.1821139,1.017978,0
212522602,212499981,6780433,17.299267,24.8,101117.375,1.1820863,1.0179899,0
212565944,212564973,6780433,17.57671,24.8,101114.07,1.1820477,1.0180064,0
212652519,212629882,6780433,17.72468,24.789999,101112.29,1.1820666,1.0179983,0
212695803,212694831,6780433,17.959846,24.789999,101109.48,1.1820337,1.0180125,0
212782422,212759781,6780433,17.957203,24.789999,101109.5,1.182034,1.0180124,0
212825711,212824732,6780433,17.788095,24.8,101111.54,1.1820182,1.0180192,0
213042215,213019585,6780433,17.777525,24.794998,101111.66,1.1820393,1.0180101,0
213085518,213084531,6780433,17.72468,24.8,101112.3,1.1820271,1.0180154,0
213172101,213149482,6780433,17.735249,24.789999,101112.16,1.182065,1.017999,0
213215447,213214475,6780433,17.616344,24.8,101113.57,1.1820419,1.018009,0
213302021,213279382,6780433,17.735249,24.789999,101112.16,1.182065,1.017999,0
213345347,213344370,6780433,17.682402,24.789999,101112.8,1.1820725,1.0179958,0
213431907,213409282,6780433,17.43931,24.8,101115.72,1.182067,1.0179981,0
213475240,213474267,6780433,17.492155,24.8,101115.086,1.1820596,1.0180013,0
213561879,213539182,6780433,17.426098,24.794998,101115.85,1.1820884,1.017989,0
213605110,213604133,6780433,17.426098,24.8,101115.86,1.1820687,1.0179974,0
213691701,213669091,6780433,17.523863,24.794998,101114.7,1.1820749,1.0179948,0
213735021,213734031,6780433,17.597849,24.789999,101113.805,1.1820842,1.0179907,0
213821602,213798981,6780433,17.682402,24.794998,101112.8,1.1820526,1.0180044,0
213864902,213863932,6780433,17.766956,24.8,101111.79,1.1820211,1.0180179,0
213951503,213928886,6780433,17.375893,24.8,101116.484,1.182076,1.0179943,0
213994803,213993833,6780433,17.256989,24.8,101117.89,1.1820924,1.0179873,0
214081405,214058782,6780433,17.587278,24.794998,101113.94,1.182066,1.0179986,0
214124707,214123737,6780433,17.492155,24.8,101115.086,1.1820596,1.0180013,0
214211348,214188728,6780433,17.661263,24.794998,101113.055,1.1820556,1.0180031,0
214254602,214253632,6780433,17.468374,24.8,101115.35,1.1820627,1.018,0
214341228,214318604,6780433,17.53179,24.8,101114.59,1.1820539,1.0180038,0
214384522,214383532,6780433,17.53179,24.8,101114.586,1.1820538,1.0180038,0
214471102,214448512,6780433,17.798664,24.8,101111.41,1.1820166,1.0180199,0
214514437,214513432,6780433,17.574068,24.8,101114.086,1.182048,1.0180064,0
214601002,214578389,6780433,17.682402,24.794998,101112.8,1.1820526,1.0180044,0
214644395,214643331,6780433,17.809235,24.8,101111.28,1.1820152,1.0180205,0
214730949,214708303,6780433,17.71411,24.794998,101112.42,1.1820482,1.0180063,0
214774255,214773264,6780433,17.552929,24.8,101114.336,1.182051,1.0180051,0
214860801,214838182,6780433,17.851511,24.794998,101110.77,1.182029,1.0180146,0
214904124,214903154,6780433,18.105173,24.8,101107.73,1.1819736,1.0180384,0
214990711,214968082,6780433,17.880577,24.8,101110.41,1.1820049,1.0180249,0
215034012,215033034,6780433,17.936066,24.8,101109.766,1.1819974,1.0180281,0
215120651,215097981,6780433,18.263712,24.8,101105.83,1.1819514,1.0180479,0
215163903,215162932,6780433,18.144808,24.8,101107.234,1.1819679,1.0180409,0
215250518,215227886,6780433,18.538515,24.794998,101102.52,1.1819324,1.0180562,0
215293801,215292832,6780433,18.527945,24.8,101102.664,1.1819143,1.0180639,0
215380449,215357804,6780433,18.697054,24.8,101100.63,1.1818907,1.018074,0
215423702,215422732,6780433,18.823883,24.8,101099.11,1.1818728,1.0180818,0
215510345,215487702,6780433,18.57022,24.794998,101102.16,1.1819283,1.018058,0
215553602,215552632,6780433,18.781607,24.8,101099.62,1.1818788,1.0180793,0
215640233,215617589,6780433,18.72876,24.794998,101100.24,1.1819059,1.0180676,0
215683505,215682532,6780433,18.443392,24.789999,101103.66,1.1819656,1.0180418,0
215770101,215747482,6780433,18.432821,24.8,101103.81,1.1819279,1.0180581,0
215813424,215812451,6780433,18.950716,24.8,101097.586,1.1818551,1.0180895,0
215900023,215877383,6780433,18.633638,24.794998,101101.38,1.1819191,1.0180619,0
215943327,215942332,6780433,18.549084,24.789999,101102.4,1.1819509,1.0180482,0
216029901,216007283,6780433,18.6125,24.8,101101.64,1.1819025,1.018069,0
216073214,216072232,6780433,18.549084,24.8,101102.414,1.1819115,1.0180652,0
216159806,216137184,6780433,18.559652,24.8,101102.29,1.18191,1.0180658,0
216203214,216202132,6780433,18.464529,24.8,101103.43,1.1819234,1.01806,0
216289730,216267096,6780433,18.675915,24.794998,101100.875,1.1819133,1.0180644,0
216333019,216332032,6780433,18.845022,24.8,101098.86,1.18187,1.018083,0
216419616,216396982,6780433,18.697054,24.8,101100.63,1.1818907,1.018074,0
216462958,216461984,6780433,18.950716,24.789999,101097.58,1.1818945,1.0180725,0
216549526,216526882,6780433,18.940145,24.8,101097.72,1.1818566,1.0180888,0
216592870,216591896,6780433,18.781607,24.8,101099.625,1.1818789,1.0180792,0
216679446,216656782,6780433,19.214949,24.789999,101094.41,1.1818575,1.0180885,0
216722714,216721744,6780433,19.056408,24.789999,101096.305,1.1818798,1.0180788,0
216809396,216786681,6780433,19.18324,24.794998,101094.79,1.1818421,1.018095,0
216852604,216851632,6780433,19.18324,24.8,101094.79,1.1818224,1.0181035,0
216939221,216916614,6780433,19.20702,24.794998,101094.53,1.1818391,1.0180963,0
216982527,216981532,6780433,19.246655,24.8,101094.05,1.1818137,1.0181073,0
217069101,217046481,6780433,19.33121,24.8,101093.02,1.1818017,1.0181124,0
217112439,217111433,6780433,19.373487,24.8,101092.53,1.181796,1.0181149,0
217199002,217176382,6780433,19.510887,24.8,101090.87,1.1817765,1.0181233,0
217242338,217241332,6780433,19.45804,24.8,101091.5,1.1817839,1.01812,0
217328902,217306282,6780433,19.47918,24.8,101091.25,1.181781,1.0181214,0
217372228,217371258,6780433,19.394627,24.8,101092.266,1.1817929,1.0181162,0
217458803,217436182,6780433,19.566378,24.794998,101090.22,1.1817887,1.018118,0
217502101,217501131,6780433,19.584873,24.8,101089.98,1.181766,1.0181278,0
217588701,217566102,6780433,19.637718,24.8,101089.34,1.1817586,1.018131,0
217632023,217631032,6780433,19.648287,24.8,101089.22,1.1817572,1.0181316,0
217718604,217696013,6780433,19.711704,24.8,101088.45,1.1817484,1.0181354,0
217761909,217760934,6780433,19.925732,24.789999,101085.91,1.1817582,1.0181313,0
217848510,217825889,6780433,19.62715,24.8,101089.484,1.1817603,1.0181303,0
217891890,217890831,6780433,19.563734,24.8,101090.23,1.181769,1.0181265,0
217978425,217955792,6780433,19.78569,24.8,101087.56,1.1817379,1.01814,0
218021720,218020732,6780433,20.179394,24.8,101082.87,1.181683,1.0181636,0
218108305,218085682,6780433,19.777761,24.8,101087.69,1.1817393,1.0181392,0
218151612,218150640,6780433,19.796259,24.8,101087.44,1.1817365,1.0181406,0
218238244,218215582,6780433,19.796259,24.8,101087.44,1.1817365,1.0181406,0
218281506,218280532,6780433,20.092197,24.8,101083.89,1.181695,1.0181584,0
218368158,218345491,6780433,19.880812,24.8,101086.42,1.1817245,1.0181457,0
218411407,218410432,6780433,20.007643,24.8,101084.91,1.1817069,1.0181533,0
218498025,218475386,6780433,20.123905,24.8,101083.51,1.1816905,1.0181603,0
218541304,218540332,6780433,20.24281,24.8,101082.11,1.1816741,1.0181674,0
218627959,218605310,6780433,20.602165,24.794998,101077.79,1.1816434,1.0181806,0
218671242,218670251,6780433,20.454195,24.8,101079.58,1.1816446,1.0181801,0
218757871,218735215,6780433,20.623304,24.794998,101077.53,1.1816404,1.0181819,0
218801101,218800131,6780433,20.876966,24.8,101074.5,1.1815852,1.0182058,0
218887715,218865088,6780433,20.887537,24.8,101074.375,1.1815838,1.0182064,0
218931001,218930031,6780433,20.85583,24.8,101074.76,1.1815882,1.0182045,0
219017602,218994982,6780433,20.993229,24.789999,101073.086,1.1816083,1.0181957,0
219060943,219059972,6780433,20.876966,24.8,101074.51,1.1815853,1.0182056,0
219147521,219124882,6780433,20.771273,24.789999,101075.76,1.1816396,1.0181823,0
219190801,219189832,6780433,20.707859,24.789999,101076.516,1.1816484,1.0181785,0
219277420,219254781,6780433,21.046076,24.789999,101072.46,1.1816009,1.018199,0
219320711,219319731,6780433,20.792412,24.8,101075.516,1.1815971,1.0182006,0
219407311,219384691,6780433,20.929811,24.8,101073.86,1.1815777,1.018209,0
219450664,219449632,6780433,21.151768,24.789999,101071.19,1.181586,1.0182053,0
219537235,219514590,6780433,21.02758,24.789999,101072.7,1.1816038,1.0181978,0
219580520,219579532,6780433,21.02758,24.789999,101072.695,1.1816037,1.0181978,0
219667101,219644482,6780433,21.194044,24.794998,101070.69,1.1815604,1.0182164,0
219710448,219709475,6780433,21.682873,24.789999,101064.836,1.1815118,1.0182374,0
219797026,219774386,6780433,21.2786,24.794998,101069.67,1.1815485,1.0182215,0
219840343,219839370,6780433,21.363153,24.789999,101068.66,1.1815565,1.018218,0
219926912,219904282,6780433,21.236322,24.789999,101070.17,1.1815741,1.0182105,0
219970214,219969244,6780433,21.046076,24.8,101072.47,1.1815615,1.0182159,0
220056906,220034198,6780433,20.95095,24.794998,101073.6,1.1815944,1.0182017,0
220100102,220099132,6780433,21.024937,24.8,101072.72,1.1815645,1.0182146,0
220186719,220164092,6780433,21.130629,24.789999,101071.44,1.1815889,1.0182041,0
220230023,220229033,6780433,21.299738,24.789999,101069.414,1.1815653,1.0182142,0
220316605,220293982,6780433,21.236322,24.789999,101070.17,1.1815741,1.0182105,0
220359902,220358932,6780433,21.408073,24.789999,101068.14,1.1815504,1.0182208,0
220446511,220423884,6780433,21.566612,24.794998,101066.24,1.1815083,1.0182389,0
220706320,220683682,6780433,21.74629,24.789999,101064.08,1.1815028,1.0182412,0
221009435,221008431,6780433,21.682873,24.789999,101064.836,1.1815118,1.0182374,0
221096003,221073388,6780433,21.482058,24.789999,101067.25,1.18154,1.0182252,0
221139391,221138334,6780433,21.30238,24.789999,101069.41,1.1815653,1.0182142,0
221225946,221203313,6780433,21.482058,24.785,101067.24,1.1815598,1.0182166,0
221269254,221268266,6780433,21.344658,24.789999,101068.91,1.1815594,1.0182168,0
221355804,221333181,6780433,21.334087,24.785,101069.016,1.1815805,1.0182077,0
221399110,221398140,6780433,21.492626,24.779999,101067.11,1.181578,1.0182087,0
221485711,221463082,6780433,21.503197,24.785,101066.984,1.1815567,1.0182179,0
221529002,221528032,6780433,21.365795,24.779999,101068.64,1.1815959,1.0182011,0
221615666,221592982,6780433,21.418642,24.779999,101068.0,1.1815884,1.0182043,0
221658903,221657932,6780433,21.682873,24.789999,101064.83,1.1815116,1.0182374,0
221745522,221722884,6780433,21.556044,24.785,101066.36,1.1815494,1.0182211,0
221788802,221787832,6780433,21.61946,24.779999,101065.586,1.1815603,1.0182165,0
221875446,221852803,6780433,21.46092,24.785,101067.5,1.1815628,1.0182153,0
221918702,221917732,6780433,21.429213,24.789999,101067.89,1.1815475,1.018222,0
222005338,221982701,6780433,21.418642,24.785,101068.0,1.1815686,1.0182128,0
222048604,222047631,6780433,21.3473,24.779999,101068.87,1.1815985,1.0181999,0
222135215,222112589,6780433,21.418642,24.779999,101068.0,1.1815884,1.0182043,0
222178504,222177532,6780433,21.260101,24.789999,101069.914,1.1815712,1.0182117,0
222265102,222242482,6780433,21.534904,24.779999,101066.59,1.1815721,1.0182114,0
222308430,222307457,6780433,21.622103,24.779999,101065.58,1.1815602,1.0182165,0
222395023,222372382,6780433,21.471487,24.779999,101067.36,1.181581,1.0182076,0
222438317,222437333,6780433,21.579824,24.779999,101066.086,1.1815661,1.018214,0
222524902,222502282,6780433,21.558685,24.779999,101066.336,1.181569,1.0182127,0
222568215,222567233,6780433,21.704012,24.779999,101064.57,1.1815484,1.0182216,0
222654803,222632182,6780433,21.643238,24.779999,101065.31,1.181557,1.0182178,0
222698168,222697132,6780433,21.622103,24.769999,101065.555,1.1815996,1.0181994,0
222784707,222762084,6780433,21.748932,24.769999,101064.03,1.1815817,1.0182072,0
222828018,222827032,6780433,21.960318,24.769999,101061.51,1.1815523,1.01822,0
222914621,222891982,6780433,21.899546,24.769999,101062.25,1.181561,1.0182161,0
222957954,222956985,6780433,21.81499,24.769999,101063.266,1.1815728,1.018211,0
223044526,223021882,6780433,21.63267,24.769999,101065.44,1.1815982,1.0182002,0
223087861,223086889,6780433,21.79121,24.769999,101063.54,1.181576,1.0182097,0
223174442,223151782,6780433,21.674948,24.769999,101064.92,1.1815922,1.0182027,0
223217714,223216744,6780433,21.622103,24.769999,101065.555,1.1815996,1.0181994,0
223304389,223281681,6780433,21.727795,24.769999,101064.28,1.1815847,1.0182059,0
223347606,223346632,6780433,21.81499,24.769999,101063.266,1.1815728,1.018211,0
223434205,223411601,6780433,21.886333,24.769999,101062.38,1.1815625,1.0182154,0
223477519,223476532,6780433,21.727795,24.769999,101064.29,1.1815848,1.0182059,0
223564133,223541497,6780433,21.61153,24.769999,101065.68,1.181601,1.0181988,0
223607423,223606432,6780433,21.600964,24.769999,101065.805,1.1816026,1.0181981,0
223694002,223671382,6780433,21.47413,24.765,101067.33,1.1816401,1.018182,0
223737302,223736332,6780433,21.706656,24.769999,101064.54,1.1815877,1.0182046,0
223823903,223801282,6780433,21.844055,24.769999,101062.89,1.1815684,1.0182129,0
223867224,223866254,6780433,21.81499,24.76,101063.26,1.1816124,1.018194,0
223953805,223931183,6780433,21.846699,24.765,101062.88,1.1815882,1.0182045,0
223997102,223996132,6780433,22.005238,24.76,101060.97,1.1815856,1.0182055,0
224083704,224061103,6780433,22.034302,24.769999,101060.61,1.1815418,1.0182244,0
224127028,224126033,6780433,21.836128,24.76,101063.01,1.1816094,1.0181953,0
224213606,224191001,6780433,22.153206,24.76,101059.195,1.1815648,1.0182145,0
224256921,224255932,6780433,22.089792,24.769999,101059.97,1.1815342,1.0182277,0
224343505,224320888,6780433,21.920683,24.76,101061.984,1.1815975,1.0182004,0
224386901,224385832,6780433,21.96296,24.76,101061.48,1.1815915,1.018203,0
224473425,224450791,6780433,21.984098,24.76,101061.22,1.1815884,1.0182043,0
224516719,224515732,6780433,21.984098,24.76,101061.23,1.1815885,1.0182043,0
224603304,224580683,6780433,22.219265,24.755001,101058.42,1.1815757,1.0182098,0
224646634,224645657,6780433,21.96296,24.769999,101061.484,1.1815519,1.0182201,0
224733201,224710582,6780433,21.952393,24.765,101061.6,1.1815733,1.0182109,0
224776506,224775533,6780433,21.941822,24.769999,101061.734,1.1815549,1.0182188,0
224863203,224840482,6780433,22.068653,24.76,101060.2,1.1815766,1.0182095,0
224906404,224905434,6780433,22.071297,24.75,101060.19,1.1816161,1.0181924,0
224993018,224970385,6780433,22.047514,24.755001,101060.45,1.1815994,1.0181996,0
225036302,225035333,6780433,22.219265,24.76,101058.414,1.1815556,1.0182184,0
225122959,225100309,6780433,22.005238,24.76,101060.97,1.1815856,1.0182055,0
225166251,225165238,6780433,22.113571,24.75,101059.68,1.1816101,1.0181949,0
225252870,225230214,6780433,22.145279,24.755001,101059.3,1.1815859,1.0182054,0
225296142,225295171,6780433,22.113571,24.75,101059.68,1.1816101,1.0181949,0
225382717,225360088,6780433,22.058084,24.755001,101060.33,1.1815978,1.0182003,0
225426051,225425080,6780433,22.110931,24.76,101059.695,1.1815706,1.018212,0
225555948,225554976,6780433,22.198126,24.75,101058.664,1.1815983,1.0182,0
225642519,225619891,6780433,22.43065,24.75,101055.87,1.1815655,1.0182142,0
225685802,225684832,6780433,22.346096,24.75,101056.875,1.1815773,1.0182091,0
225772418,225749793,6780433,22.356665,24.755001,101056.766,1.1815562,1.0182182,0
225815715,225814731,6780433,22.43065,24.75,101055.86,1.1815654,1.0182142,0
225902303,225879682,6780433,22.250973,24.75,101058.03,1.1815909,1.0182033,0
225945705,225944632,6780433,22.494068,24.75,101055.1,1.1815567,1.0182179,0
226032211,226009586,6780433,22.803219,24.74,101051.4,1.181553,1.0182196,0
226075522,226074531,6780433,22.684315,24.75,101052.82,1.18153,1.0182295,0
226162101,226139481,6780433,22.676386,24.744999,101052.94,1.1815512,1.0182204,0
226205450,226204474,6780433,22.771511,24.74,101051.79,1.1815577,1.0182176,0
226292026,226269382,6780433,22.708094,24.744999,101052.56,1.1815468,1.0182222,0
226335338,226334369,6780433,22.388374,24.75,101056.37,1.1815714,1.0182116,0
226421926,226399282,6780433,22.676386,24.744999,101052.94,1.1815512,1.0182204,0
226465215,226464245,6780433,22.538986,24.74,101054.58,1.1815902,1.0182036,0
226551922,226529194,6780433,22.634108,24.744999,101053.44,1.181557,1.0182178,0
226595104,226594132,6780433,22.79529,24.74,101051.516,1.1815544,1.018219,0
226681723,226659092,6780433,22.718664,24.74,101052.42,1.181565,1.0182143,0
226725036,226724032,6780433,22.940619,24.73,101049.75,1.1815734,1.0182108,0
226811607,226788982,6780433,22.676386,24.74,101052.92,1.1815709,1.0182118,0
226854902,226853932,6780433,22.813787,24.74,101051.28,1.1815517,1.0182202,0
226941505,226918882,6780433,23.004034,24.735,101048.984,1.1815445,1.0182233,0
226984815,226983845,6780433,22.900984,24.73,101050.25,1.1815792,1.0182083,0
227071404,227048782,6780433,22.78208,24.73,101051.65,1.1815956,1.0182012,0
227114711,227113739,6780433,22.877203,24.73,101050.51,1.1815822,1.018207,0
227201301,227178682,6780433,23.186354,24.73,101046.81,1.181539,1.0182256,0
227244620,227243632,6780433,23.048954,24.73,101048.47,1.1815584,1.0182173,0
227331206,227308609,6780433,23.26034,24.73,101045.92,1.1815286,1.0182301,0
227374530,227373532,6780433,23.09123,24.73,101047.945,1.1815523,1.01822,0
227461102,227438503,6780433,23.302616,24.73,101045.414,1.1815226,1.0182327,0
227504401,227503431,6780433,23.09123,24.73,101047.945,1.1815523,1.01822,0
227591003,227568390,6780433,23.059523,24.73,101048.33,1.1815567,1.0182179,0
227634301,227633331,6780433,23.220705,24.73,101046.414,1.1815343,1.0182276,0
227720944,227698302,6780433,23.154648,24.73,101047.19,1.1815435,1.0182238,0
227764252,227763264,6780433,23.154648,24.72,101047.18,1.181583,1.0182066,0
227850803,227828182,6780433,23.017244,24.72,101048.83,1.1816022,1.0181984,0
227894109,227893139,6780433,23.048954,24.73,101048.445,1.181558,1.0182174,0
227980715,227958082,6780433,23.093874,24.72,101047.94,1.1815919,1.0182028,0
228024054,228023081,6780433,23.136148,24.72,101047.414,1.1815858,1.0182054,0
228110689,228087982,6780433,23.083303,24.724998,101048.06,1.1815735,1.0182108,0
228153907,228152932,6780433,23.048954,24.72,101048.445,1.1815978,1.0182003,0
228240531,228217884,6780433,22.998749,24.72,101049.08,1.1816051,1.0181972,0
228283806,228282832,6780433,22.858706,24.73,101050.734,1.181585,1.0182058,0
228370445,228347804,6780433,22.869276,24.724998,101050.61,1.1816032,1.0181979,0
228413705,228412732,6780433,23.159931,24.71,101047.14,1.1816223,1.0181898,0
228500352,228477707,6780433,23.136148,24.715,101047.414,1.1816057,1.018197,0
228543607,228542632,6780433,22.837568,24.72,101050.984,1.1816275,1.0181875,0
228630219,228607589,6780433,23.136148,24.72,101047.42,1.1815858,1.0182054,0
228673506,228672533,6780433,23.11237,24.72,101047.69,1.181589,1.0182041,0
228760111,228737494,6780433,22.924763,24.72,101049.95,1.1816154,1.0181928,0
228803422,228802452,6780433,22.945902,24.72,101049.71,1.1816126,1.018194,0
228890023,228867382,6780433,23.093874,24.724998,101047.94,1.181572,1.0182114,0
228933322,228932333,6780433,23.136148,24.72,101047.414,1.1815858,1.0182054,0
229019901,228997281,6780433,23.136148,24.72,101047.42,1.1815858,1.0182054,0
229063221,229062251,6780433,23.093874,24.72,101047.94,1.1815919,1.0182028,0
229149805,229127182,6780433,23.315826,24.72,101045.266,1.1815606,1.0182163,0
229193165,229192132,6780433,22.943262,24.72,101049.72,1.1816127,1.0181938,0
229279710,229257085,6780433,23.146719,24.72,101047.3,1.1815844,1.0182061,0
229323018,229322031,6780433,23.434732,24.71,101043.85,1.1815838,1.0182064,0
229409621,229386981,6780433,23.252413,24.71,101046.01,1.181609,1.0181954,0
229452945,229451975,6780433,23.3079,24.71,101045.37,1.1816015,1.0181986,0
229539534,229516882,6780433,23.29469,24.71,101045.51,1.1816032,1.0181979,0
229582844,229581870,6780433,23.30526,24.71,101045.375,1.1816016,1.0181986,0
229669404,229646782,6780433,23.403025,24.71,101044.234,1.1815883,1.0182045,0
229712717,229711743,6780433,23.688395,24.699999,101040.79,1.1815876,1.0182047,0
229799374,229776681,6780433,23.601198,24.71,101041.83,1.1815602,1.0182165,0
229842605,229841632,6780433,23.624979,24.71,101041.555,1.1815569,1.0182178,0
229929201,229906603,6780433,23.561563,24.704998,101042.31,1.1815857,1.0182055,0
229972563,229971532,6780433,23.329039,24.71,101045.11,1.1815984,1.0182,0
230059110,230036485,6780433,23.487577,24.704998,101043.2,1.181596,1.0182011,0
230102419,230101432,6780433,23.688395,24.71,101040.8,1.181548,1.0182217,0
230189007,230166384,6780433,23.561563,24.704998,101042.32,1.1815857,1.0182055,0
230232307,230231332,6780433,23.561563,24.71,101042.32,1.1815659,1.0182141,0
230318902,230296282,6780433,23.550995,24.704998,101042.44,1.1815871,1.0182048,0
230362225,230361255,6780433,23.561563,24.699999,101042.305,1.1816052,1.0181971,0
230448806,230426201,6780433,23.669899,24.699999,101041.03,1.1815904,1.0182035,0
230492117,230491132,6780433,23.923561,24.689999,101037.98,1.1815944,1.0182017,0
230578705,230556103,6780433,23.902422,24.695,101038.24,1.1815777,1.018209,0
230622014,230621033,6780433,24.264421,24.689999,101033.9,1.1815467,1.0182223,0
230708605,230686005,6780433,23.97905,24.689999,101037.33,1.1815867,1.018205,0
230751944,230750932,6780433,23.9447,24.689999,101037.72,1.1815914,1.018203,0
230838501,230815892,6780433,23.902422,24.695,101038.234,1.1815776,1.018209,0
230881898,230880832,6780433,24.09267,24.699999,101035.96,1.1815311,1.018229,0
230968421,230945793,6780433,23.923561,24.695,101037.984,1.1815746,1.0182103,0
231011707,231010732,6780433,23.89978,24.71,101038.266,1.1815184,1.0182345,0
231098315,231075686,6780433,23.881285,24.695,101038.484,1.1815804,1.0182078,0
231141606,231140632,6780433,23.986979,24.699999,101037.23,1.181546,1.0182226,0
231228202,231205582,6780433,23.828438,24.695,101039.125,1.1815879,1.0182045,0
231271503,231270532,6780433,23.923561,24.689999,101037.98,1.1815944,1.0182017,0
231358169,231335482,6780433,24.008114,24.699999,101036.97,1.1815429,1.018224,0
231401401,231400431,6780433,23.9447,24.699999,101037.73,1.1815518,1.0182201,0
231488034,231465386,6780433,24.10324,24.689999,101035.81,1.181569,1.0182127,0
231531303,231530332,6780433,24.010757,24.68,101036.94,1.1816219,1.0181899,0
231617945,231595303,6780433,24.095312,24.689999,101035.92,1.1815704,1.0182121,0
231661202,231660232,6780433,24.433529,24.689999,101031.875,1.1815231,1.0182325,0
231747849,231725202,6780433,24.25385,24.685,101034.02,1.181568,1.0182132,0
231791102,231790132,6780433,24.454668,24.68,101031.61,1.1815597,1.0182167,0
231877718,231855088,6780433,24.12702,24.689999,101035.55,1.181566,1.018214,0
231921002,231920033,6780433,24.348976,24.689999,101032.9,1.181535,1.0182273,0
232007605,231984981,6780433,24.335764,24.689999,101033.03,1.1815366,1.0182267,0
232050945,232049972,6780433,24.243282,24.689999,101034.16,1.1815497,1.018221,0
232137515,232114882,6780433,24.444098,24.689999,101031.76,1.1815217,1.0182331,0
232180805,232179832,6780433,24.518084,24.689999,101030.86,1.1815112,1.0182376,0
232267419,232244796,6780433,24.54979,24.689999,101030.47,1.1815065,1.0182396,0
232310716,232309732,6780433,24.56036,24.68,101030.336,1.1815447,1.0182232,0
232397301,232374682,6780433,24.750607,24.689999,101028.07,1.1814786,1.0182517,0
232440665,232439631,6780433,24.56036,24.689999,101030.35,1.1815052,1.0182402,0
232527210,232504586,6780433,24.370113,24.685,101032.63,1.1815517,1.0182202,0
232570518,232569532,6780433,24.222143,24.68,101034.39,1.1815921,1.0182028,0
232657106,232634483,6780433,24.116451,24.68,101035.66,1.181607,1.0181963,0
232700444,232699474,6780433,24.327837,24.68,101033.125,1.1815774,1.0182091,0
232787013,232764382,6780433,24.148157,24.68,101035.27,1.1816025,1.0181983,0
232830364,232829394,6780433,23.926205,24.68,101037.945,1.1816337,1.0181848,0
232916931,232894282,6780433,24.193077,24.675,101034.75,1.1816162,1.0181923,0
232960214,232959245,6780433,24.393894,24.68,101032.35,1.1815683,1.018213,0
233046903,233024182,6780433,24.306698,24.68,101033.375,1.1815803,1.0182078,0
233090101,233089131,6780433,24.182508,24.68,101034.89,1.181598,1.0182003,0
233176705,233154092,6780433,24.193077,24.67,101034.76,1.1816361,1.0181838,0
233220023,233219032,6780433,24.224787,24.67,101034.37,1.1816314,1.0181857,0
233306609,233283982,6780433,24.267063,24.67,101033.87,1.1816256,1.0181882,0
233349904,233348933,6780433,24.055677,24.67,101036.41,1.1816553,1.0181755,0
233436502,233413882,6780433,24.319908,24.67,101033.234,1.1816182,1.0181915,0
233479832,233478859,6780433,24.245924,24.67,101034.12,1.1816286,1.018187,0
233566402,233543782,6780433,24.330479,24.67,101033.1,1.1816167,1.0181922,0
233609712,233608739,6780433,24.523367,24.67,101030.805,1.1815898,1.0182037,0
233696303,233673683,6780433,24.415033,24.67,101032.08,1.1816047,1.0181973,0
233739601,233738631,6780433,24.417675,24.66,101032.07,1.1816443,1.0181803,0
233826206,233803608,6780433,24.277634,24.67,101033.734,1.181624,1.018189,0
233869521,233868531,6780433,24.288202,24.67,101033.61,1.1816226,1.0181895,0
234086003,234063388,6780433,24.50223,24.665,101031.06,1.1816126,1.018194,0
234129377,234128331,6780433,24.671337,24.66,101029.016,1.1816087,1.0181956,0
234215955,234193306,6780433,24.512798,24.66,101030.91,1.1816307,1.0181861,0
234259224,234258253,6780433,24.544506,24.66,101030.53,1.1816263,1.018188,0
234345805,234323182,6780433,24.393894,24.66,101032.33,1.1816474,1.0181789,0
234389109,234388139,6780433,24.245924,24.67,101034.11,1.1816285,1.018187,0
234735517,234712885,6780433,24.48109,24.66,101031.305,1.1816354,1.0181841,0
234778805,234777832,6780433,24.523367,24.65,101030.78,1.181669,1.0181696,0
234865444,234842803,6780433,24.34369,24.66,101032.95,1.1816547,1.0181757,0
234908705,234907732,6780433,24.758535,24.64,101027.97,1.1816758,1.0181667,0
234995360,234972711,6780433,24.629059,24.66,101029.516,1.1816145,1.0181931,0
235038602,235037632,6780433,24.589424,24.65,101030.01,1.1816599,1.0181735,0
235125215,235102588,6780433,24.578857,24.654999,101030.14,1.1816416,1.0181814,0
235168507,235167532,6780433,24.652842,24.65,101029.25,1.181651,1.0181774,0
235255101,235232481,6780433,24.652842,24.65,101029.25,1.181651,1.0181774,0
235298424,235297454,6780433,24.864227,24.65,101026.72,1.1816214,1.0181901,0
235385023,235362382,6780433,24.737396,24.65,101028.23,1.1816392,1.0181824,0
235428322,235427333,6780433,24.906504,24.64,101026.19,1.1816549,1.0181756,0
235514978,235492303,6780433,24.83252,24.645,101027.09,1.1816456,1.0181797,0
235558220,235557233,6780433,24.737396,24.65,101028.234,1.1816392,1.0181824,0
235644822,235622191,6780433,24.948782,24.645,101025.69,1.1816293,1.0181867,0
235688191,235687132,6780433,24.821949,24.65,101027.21,1.1816273,1.0181876,0
235774713,235752086,6780433,24.895935,24.645,101026.31,1.1816366,1.0181836,0
235818017,235817031,6780433,24.951424,24.64,101025.664,1.1816489,1.0181782,0
235904601,235881981,6780433,24.898579,24.64,101026.305,1.1816564,1.018175,0
235947961,235946988,6780433,24.80081,24.64,101027.46,1.1816698,1.0181693,0
236077845,236076872,6780433,24.67398,24.65,101029.0,1.1816481,1.0181786,0
236164401,236141781,6780433,24.961992,24.64,101025.55,1.1816475,1.0181788,0
236207717,236206744,6780433,24.866869,24.63,101026.664,1.1817001,1.0181562,0
236294372,236271682,6780433,25.133743,24.63,101023.49,1.181663,1.0181721,0
236337601,236336632,6780433,24.930286,24.64,101025.914,1.1816518,1.018177,0
236424261,236401617,6780433,25.236794,24.634998,101022.234,1.1816285,1.018187,0
236467515,236466532,6780433,25.035978,24.64,101024.65,1.1816369,1.0181835,0
236554120,236531490,6780433,25.215656,24.64,101022.49,1.1816118,1.0181943,0
236597433,236596432,6780433,25.099394,24.64,101023.89,1.1816281,1.0181873,0
236684107,236661397,6780433,25.120533,24.634998,101023.64,1.1816449,1.01818,0
236727302,236726332,6780433,25.035978,24.64,101024.65,1.1816369,1.0181835,0
236813907,236791282,6780433,25.00427,24.63,101025.02,1.1816809,1.0181645,0
236857225,236856255,6780433,24.951424,24.64,101025.66,1.1816487,1.0181783,0
236943810,236921182,6780433,25.292282,24.63,101021.586,1.1816407,1.0181818,0
236987120,236986133,6780433,25.33456,24.63,101021.08,1.1816348,1.0181844,0
237073705,237051104,6780433,25.18659,24.634998,101022.86,1.1816357,1.018184,0
237117011,237116032,6780433,25.01484,24.63,101024.9,1.1816795,1.0181651,0
237203601,237181009,6780433,25.102036,24.63,101023.87,1.1816674,1.0181702,0
237246933,237245932,6780433,25.05976,24.63,101024.375,1.1816734,1.0181677,0
237333501,237310888,6780433,25.133743,24.63,101023.49,1.181663,1.0181721,0
237376924,237375856,6780433,25.183947,24.63,101022.87,1.1816558,1.0181752,0
237463422,237440792,6780433,25.120533,24.63,101023.625,1.1816646,1.0181715,0
237506704,237505732,6780433,25.271143,24.63,101021.836,1.1816436,1.0181806,0
237723207,237700581,6780433,25.366268,24.619999,101020.69,1.18167,1.0181692,0
237766503,237765532,6780433,25.376837,24.619999,101020.555,1.1816684,1.0181699,0
237853197,237830482,6780433,25.197159,24.619999,101022.72,1.1816937,1.0181589,0
237896404,237895433,6780433,25.20773,24.619999,101022.58,1.1816921,1.0181596,0
237983023,237960395,6780433,25.144312,24.625,101023.36,1.1816814,1.0181643,0
238026303,238025332,6780433,25.102036,24.63,101023.87,1.1816674,1.0181702,0
238112958,238090308,6780433,25.218298,24.625,101022.46,1.1816709,1.0181688,0
238156204,238155232,6780433,25.46139,24.619999,101019.54,1.1816565,1.018175,0
238242843,238220200,6780433,25.49574,24.619999,101019.15,1.181652,1.0181769,0
238286101,238285132,6780433,25.503668,24.63,101019.05,1.1816111,1.0181946,0
238372714,238350087,6780433,25.548588,24.614998,101018.5,1.1816642,1.0181717,0
238416009,238415032,6780433,25.612005,24.619999,101017.76,1.1816357,1.018184,0
238502602,238479982,6780433,25.717697,24.614998,101016.48,1.1816406,1.0181818,0
238545948,238544974,6780433,25.717697,24.619999,101016.48,1.1816207,1.0181904,0
238632570,238609882,6780433,25.868309,24.609999,101014.69,1.1816394,1.0181823,0
238675805,238674831,6780433,25.590866,24.619999,101018.01,1.1816386,1.0181826,0
238762435,238739782,6780433,25.868309,24.609999,101014.69,1.1816394,1.0181823,0
238805711,238804732,6780433,26.143108,24.6,101011.375,1.1816403,1.0181819,0
238892329,238869682,6780433,25.707127,24.614998,101016.6,1.181642,1.0181812,0
238935649,238934632,6780433,25.910585,24.609999,101014.18,1.1816335,1.0181849,0
239022210,238999584,6780433,25.759974,24.614998,101015.97,1.1816347,1.0181844,0
239065518,239064531,6780433,26.058556,24.6,101012.4,1.1816523,1.0181768,0
239152127,239129482,6780433,25.815462,24.605,101015.32,1.1816667,1.0181706,0
239195444,239194474,6780433,25.527449,24.609999,101018.75,1.181687,1.0181618,0
239282017,239259381,6780433,25.688631,24.609999,101016.84,1.1816647,1.0181714,0
239325362,239324389,6780433,25.84717,24.6,101014.914,1.1816818,1.0181642,0
239411941,239389281,6780433,25.707127,24.609999,101016.59,1.1816618,1.0181726,0
239455240,239454267,6780433,26.016277,24.6,101012.91,1.1816583,1.0181743,0
239541899,239519182,6780433,25.762617,24.605,101015.95,1.181674,1.0181675,0
239585103,239584132,6780433,25.844526,24.609999,101014.945,1.1816425,1.0181811,0
239671703,239649094,6780433,25.688631,24.605,101016.836,1.1816844,1.018163,0
239715028,239714033,6780433,25.57237,24.609999,101018.234,1.1816809,1.0181645,0
239801606,239778983,6780433,25.646353,24.6,101017.33,1.18171,1.018152,0
239844905,239843932,6780433,25.57237,24.6,101018.22,1.1817204,1.0181475,0
239931502,239908882,6780433,25.57237,24.6,101018.21,1.1817203,1.0181476,0
239974807,239973833,6780433,25.424398,24.6,101020.0,1.1817412,1.0181385,0
240061403,240038782,6780433,25.339846,24.6,101021.0,1.1817529,1.0181334,0
240104707,240103738,6780433,25.508953,24.6,101018.98,1.1817293,1.0181437,0
240191303,240168681,6780433,25.477245,24.6,101019.35,1.1817337,1.0181417,0
240234602,240233632,6780433,25.424398,24.6,101019.984,1.1817411,1.0181385,0
240321206,240298608,6780433,25.297567,24.6,101021.516,1.181759,1.0181308,0
240364521,240363531,6780433,25.532734,24.59,101018.71,1.1817659,1.0181279,0
240451103,240428500,6780433,25.170734,24.6,101023.03,1.1817768,1.0181231,0
240494402,240493432,6780433,25.191874,24.6,101022.78,1.1817738,1.0181245,0
240581005,240558388,6780433,25.342485,24.59,101020.984,1.1817925,1.0181164,0
240624389,240623332,6780433,25.384764,24.59,101020.47,1.1817864,1.0181191,0
240710955,240688302,6780433,25.086182,24.6,101024.05,1.1817887,1.018118,0
240754253,240753266,6780433,25.10732,24.59,101023.78,1.1818252,1.0181024,0
240840804,240818182,6780433,25.183947,24.595001,101022.89,1.181795,1.0181154,0
240884111,240883141,6780433,25.32135,24.58,101021.23,1.181835,1.0180981,0
240970714,240948082,6780433,25.067686,24.595001,101024.28,1.1818112,1.0181084,0
241014007,241013033,6780433,25.086182,24.6,101024.04,1.1817886,1.0181181,0
241100649,241077981,6780433,25.16281,24.59,101023.14,1.1818177,1.0181056,0
241143906,241142932,6780433,25.194517,24.59,101022.76,1.1818132,1.0181074,0
241230517,241207886,6780433,25.1311,24.585,101023.516,1.181842,1.0180951,0
241273807,241272832,6780433,25.257933,24.59,101021.984,1.1818042,1.0181113,0
241360445,241337803,6780433,24.9937,24.59,101025.17,1.1818415,1.0180953,0
241403705,241402736,6780433,25.1311,24.58,101023.51,1.1818618,1.0180866,0
241490359,241467711,6780433,25.16281,24.59,101023.125,1.1818175,1.0181056,0
241533602,241532632,6780433,25.215656,24.59,101022.5,1.1818103,1.0181087,0
241620217,241597589,6780433,25.1311,24.59,101023.516,1.1818221,1.0181036,0
241663501,241662532,6780433,25.109964,24.59,101023.766,1.1818249,1.0181024,0
241750106,241727482,6780433,25.205086,24.585,101022.625,1.1818315,1.0180995,0
241793424,241792455,6780433,24.961992,24.58,101025.54,1.1818855,1.0180763,0
241880026,241857382,6780433,25.268503,24.585,101021.85,1.1818225,1.0181035,0
241923321,241922332,6780433,25.405903,24.58,101020.21,1.1818233,1.0181031,0
242009905,241987283,6780433,25.236794,24.585,101022.234,1.181827,1.0181016,0
242053266,242052239,6780433,25.342485,24.58,101020.96,1.181832,1.0180994,0
242139848,242117198,6780433,25.16281,24.585,101023.125,1.1818373,1.018097,0
242183261,242182134,6780433,25.30021,24.58,101021.47,1.1818378,1.0180969,0
242269715,242247089,6780433,25.271143,24.58,101021.84,1.1818422,1.018095,0
242313165,242312081,6780433,25.046547,24.58,101024.51,1.1818734,1.0180815,0
242529521,242506882,6780433,25.215656,24.58,101022.484,1.1818497,1.0180918,0
242572852,242571881,6780433,25.067686,24.58,101024.26,1.1818706,1.0180829,0
242659415,242636782,6780433,25.228868,24.575,101022.34,1.1818678,1.0180839,0
242702714,242701744,6780433,25.239437,24.57,101022.22,1.1818863,1.0180761,0
242789394,242766681,6780433,25.102036,24.58,101023.87,1.1818659,1.0180848,0
242832636,242831666,6780433,24.983131,24.58,101025.266,1.1818824,1.0180777,0
242919221,242896615,6780433,25.080896,24.58,101024.125,1.1818689,1.0180835,0
242962518,242961532,6780433,25.281715,24.57,101021.71,1.1818804,1.0180786,0
243049104,243026481,6780433,25.197159,24.57,101022.72,1.1818922,1.0180734,0
243092419,243091432,6780433,25.07033,24.57,101024.23,1.1819098,1.0180659,0
243179005,243156381,6780433,25.091465,24.57,101023.984,1.1819069,1.0180671,0
243222324,243221332,6780433,25.345129,24.57,101020.93,1.1818712,1.0180825,0
243308905,243286283,6780433,25.250006,24.57,101022.08,1.1818846,1.0180767,0
243352243,243351256,6780433,25.133743,24.57,101023.48,1.181901,1.0180697,0
243438800,243416181,6780433,25.271143,24.575,101021.836,1.1818619,1.0180866,0
243482120,243481131,6780433,25.281715,24.57,101021.71,1.1818804,1.0180786,0
243568702,243546103,6780433,25.154882,24.57,101023.22,1.181898,1.0180709,0
243612018,243611034,6780433,25.450823,24.57,101019.664,1.1818564,1.0180889,0
243698602,243676013,6780433,25.239437,24.57,101022.2,1.1818861,1.0180761,0
243741909,243740931,6780433,25.345129,24.57,101020.94,1.1818713,1.0180825,0
243828501,243805888,6780433,25.440254,24.57,101019.79,1.181858,1.0180882,0
243871892,243870832,6780433,25.61993,24.57,101017.64,1.1818327,1.0180991,0
243958422,243935792,6780433,25.609362,24.57,101017.766,1.1818342,1.0180985,0
244001745,244000735,6780433,25.833958,24.56,101015.08,1.1818424,1.0180949,0
244088302,244065684,6780433,25.717697,24.564999,101016.484,1.181839,1.0180963,0
244131614,244130644,6780433,25.685987,24.57,101016.87,1.1818236,1.018103,0
244218219,244195582,6780433,25.833958,24.564999,101015.09,1.1818228,1.0181034,0
244261502,244260532,6780433,25.685987,24.56,101016.85,1.1818632,1.018086,0
244348196,244325487,6780433,25.514236,24.57,101018.91,1.1818476,1.0180928,0
244391402,244390432,6780433,25.559158,24.57,101018.39,1.1818415,1.0180953,0
244478020,244455385,6780433,25.717697,24.56,101016.48,1.1818589,1.0180877,0
244521301,244520332,6780433,25.707127,24.57,101016.61,1.1818206,1.0181043,0
244607959,244585308,6780433,25.65428,24.564999,101017.24,1.1818479,1.0180925,0
244651247,244650254,6780433,25.78904,24.57,101015.61,1.181809,1.0181093,0
244737874,244715214,6780433,25.397976,24.564999,101020.3,1.1818837,1.0180771,0
244781105,244780132,6780433,25.387407,24.57,101020.43,1.1818653,1.018085,0
244867726,244845088,6780433,25.580296,24.57,101018.13,1.1818385,1.0180966,0
244911007,244910032,6780433,25.685987,24.57,101016.87,1.1818236,1.018103,0
244997602,244974981,6780433,25.66485,24.56,101017.11,1.1818663,1.0180846,0
245040952,245039973,6780433,25.387407,24.57,101020.43,1.1818653,1.018085,0
245127524,245104882,6780433,25.284355,24.564999,101021.68,1.1818998,1.0180702,0
245170803,245169832,6780433,25.453465,24.56,101019.65,1.181896,1.0180719,0
245257418,245234782,6780433,25.506311,24.56,101019.016,1.1818885,1.0180751,0
245300711,245299732,6780433,25.580296,24.55,101018.11,1.1819177,1.0180625,0
245387302,245364692,6780433,25.551231,24.555,101018.484,1.1819022,1.0180691,0
245430646,245429632,6780433,25.390049,24.56,101020.41,1.1819048,1.0180681,0
245560516,245559532,6780433,25.53802,24.56,101018.625,1.181884,1.0180769,0
245647125,245624483,6780433,25.559158,24.555,101018.375,1.1819009,1.0180697,0
245690444,245689475,6780433,25.199802,24.56,101022.68,1.1819314,1.0180565,0
245777025,245754382,6780433,25.421755,24.56,101020.016,1.1819001,1.01807,0
245820337,245819368,6780433,25.242079,24.56,101022.18,1.1819255,1.0180591,0
245906905,245884282,6780433,25.530092,24.55,101018.734,1.1819249,1.0180594,0
245950214,245949245,6780433,25.477245,24.55,101019.37,1.1819323,1.0180562,0
246036901,246014197,6780433,25.40062,24.56,101020.266,1.1819031,1.0180688,0
246080105,246079132,6780433,25.350414,24.55,101020.9,1.1819503,1.0180484,0
246166719,246144092,6780433,25.297567,24.55,101021.53,1.1819577,1.0180452,0
246210025,246209031,6780433,25.286999,24.55,101021.66,1.1819592,1.0180446,0
246296609,246273986,6780433,25.360985,24.55,101020.766,1.1819488,1.0180491,0
246339905,246338932,6780433,25.434967,24.55,101019.87,1.1819382,1.0180537,0
246426502,246403884,6780433,25.405903,24.544998,101020.234,1.1819623,1.0180433,0
246469802,246468832,6780433,25.561798,24.55,101018.336,1.1819203,1.0180614,0
246556402,246533782,6780433,25.691275,24.539999,101016.81,1.1819421,1.018052,0
246599707,246598737,6780433,25.434967,24.55,101019.87,1.1819382,1.0180537,0
246686302,246663683,6780433,25.360985,24.544998,101020.75,1.1819683,1.0180407,0
246729618,246728632,6780433,25.181307,24.55,101022.91,1.1819738,1.0180383,0
246816210,246793608,6780433,25.181307,24.55,101022.91,1.1819738,1.0180383,0
246859523,246858532,6780433,25.268503,24.539999,101021.875,1.1820014,1.0180265,0
246946106,246923511,6780433,25.384764,24.544998,101020.484,1.1819652,1.018042,0
246989416,246988431,6780433,25.268503,24.539999,101021.875,1.1820014,1.0180265,0
247076006,247053394,6780433,25.342485,24.539999,101020.984,1.181991,1.0180309,0
247119388,247118332,6780433,25.286999,24.55,101021.64,1.181959,1.0180447,0
247379108,247378131,6780433,25.501024,24.539999,101019.086,1.1819687,1.0180405,0
247465710,247443082,6780433,25.44818,24.539999,101019.72,1.1819762,1.0180373,0
247638902,247637932,6780433,25.416471,24.539999,101020.086,1.1819804,1.0180355,0
247725518,247702889,6780433,25.543303,24.539999,101018.56,1.1819626,1.0180432,0
247768801,247767832,6780433,25.268503,24.539999,101021.875,1.1820014,1.0180265,0
247855444,247832804,6780433,25.691275,24.535,101016.79,1.1819617,1.0180435,0
247898701,247897732,6780433,25.796967,24.539999,101015.53,1.1819272,1.0180584,0
247985339,247962725,6780433,25.490458,24.539999,101019.22,1.1819702,1.0180398,0
248028601,248027632,6780433,25.524807,24.529999,101018.805,1.1820052,1.0180248,0
248115219,248092588,6780433,25.627857,24.535,101017.555,1.1819707,1.0180397,0
248158502,248157532,6780433,25.860382,24.539999,101014.766,1.1819181,1.0180624,0
248245105,248222481,6780433,25.820747,24.529999,101015.25,1.1819637,1.0180427,0
248288421,248287452,6780433,25.522163,24.539999,101018.82,1.1819656,1.0180418,0
248375027,248352381,6780433,25.860382,24.535,101014.76,1.1819379,1.0180538,0
248418320,248417333,6780433,25.754688,24.539999,101016.04,1.1819332,1.0180558,0
248504903,248482286,6780433,25.839243,24.529999,101015.016,1.1819608,1.0180439,0
248548215,248547232,6780433,25.820747,24.529999,101015.26,1.1819637,1.0180427,0
248634802,248612182,6780433,25.90266,24.529999,101014.25,1.1819519,1.0180477,0
248678191,248677131,6780433,26.053272,24.529999,101012.47,1.181931,1.0180568,0
248764707,248742084,6780433,25.860382,24.535,101014.766,1.181938,1.0180537,0
248808022,248807032,6780433,26.010994,24.529999,101012.97,1.1819369,1.0180542,0
248894617,248871982,6780433,25.989855,24.529999,101013.22,1.1819398,1.0180529,0
248937953,248936984,6780433,25.841887,24.529999,101015.01,1.1819607,1.018044,0
249024522,249001881,6780433,26.127256,24.529999,101011.58,1.1819205,1.0180613,0
249154436,249131781,6780433,26.23295,24.529999,101010.305,1.1819057,1.0180676,0
249197725,249196744,6780433,26.22238,24.529999,101010.445,1.1819073,1.0180669,0
249284389,249261682,6780433,26.338642,24.529999,101009.03,1.1818908,1.018074,0
249327603,249326632,6780433,26.433765,24.529999,101007.91,1.1818776,1.0180798,0
249414224,249391603,6780433,26.285795,24.529999,101009.67,1.1818984,1.0180708,0
249457514,249456532,6780433,26.581736,24.529999,101006.12,1.1818568,1.0180887,0
249544130,249521494,6780433,26.560596,24.529999,101006.375,1.1818597,1.0180874,0
249587419,249586432,6780433,26.49718,24.529999,101007.14,1.1818687,1.0180836,0
249674008,249651382,6780433,26.49718,24.529999,101007.14,1.1818687,1.0180836,0
249717302,249716332,6780433,26.708567,24.529999,101004.6,1.181839,1.0180963,0
249803945,249781303,6780433,26.571165,24.529999,101006.25,1.1818582,1.0180881,0
249847228,249846254,6780433,26.750843,24.529999,101004.086,1.1818329,1.0180991,0
249933801,249911184,6780433,26.785194,24.529999,101003.7,1.1818285,1.0181009,0
249977106,249976133,6780433,26.8169,24.529999,101003.33,1.1818241,1.0181028,0
250063702,250041103,6780433,26.806332,24.529999,101003.45,1.1818255,1.0181022,0
250107030,250106032,6780433,26.964872,24.529999,101001.55,1.1818033,1.0181117,0
250193602,250171009,6780433,27.028286,24.519999,101000.78,1.181834,1.0180986,0
250236914,250235933,6780433,27.049425,24.529999,101000.54,1.1817914,1.0181168,0
250323502,250300888,6780433,27.197395,24.519999,100998.74,1.1818101,1.0181088,0
250366887,250365832,6780433,27.13398,24.519999,100999.51,1.1818192,1.0181049,0
250453424,250430792,6780433,27.155119,24.519999,100999.266,1.1818162,1.0181061,0
250496744,250495757,6780433,26.901455,24.529999,101002.305,1.181812,1.018108,0
250583305,250560682,6780433,27.292519,24.519999,100997.61,1.1817969,1.0181146,0
250626608,250625638,6780433,27.665087,24.519999,100993.164,1.1817449,1.0181369,0
250713205,250690581,6780433,27.41935,24.519999,100996.086,1.181779,1.0181222,0
250756502,250755533,6780433,27.472197,24.519999,100995.445,1.1817715,1.0181254,0
250843205,250820481,6780433,27.622808,24.519999,100993.67,1.1817509,1.0181344,0
250886401,250885432,6780433,27.472197,24.519999,100995.46,1.1817718,1.0181254,0
250973018,250950385,6780433,27.527687,24.515,100994.81,1.181784,1.01812,0
251016305,251015333,6780433,27.665087,24.51,100993.16,1.1817844,1.0181199,0
251102958,251080308,6780433,27.61224,24.51,100993.78,1.1817917,1.0181167,0
251146259,251145265,6780433,27.517115,24.51,100994.93,1.1818051,1.018111,0
251232859,251210210,6780433,27.580532,24.51,100994.164,1.1817962,1.0181148,0
251276105,251275132,6780433,27.7285,24.51,100992.39,1.1817755,1.0181237,0
251362716,251340089,6780433,27.495977,24.515,100995.19,1.1817884,1.0181181,0
251406007,251405036,6780433,27.559393,24.51,100994.43,1.1817993,1.0181135,0
251492602,251469981,6780433,27.60167,24.51,100993.91,1.1817931,1.0181161,0
251535946,251534976,6780433,27.622808,24.51,100993.65,1.1817902,1.0181174,0
251622516,251599892,6780433,27.665087,24.51,100993.15,1.1817843,1.0181199,0
251665801,251664832,6780433,27.60167,24.51,100993.91,1.1817931,1.0181161,0
251752418,251729781,6780433,27.686226,24.51,100992.89,1.1817814,1.0181212,0
251795710,251794732,6780433,27.622808,24.51,100993.65,1.1817902,1.0181174,0
251882311,251859681,6780433,27.622808,24.51,100993.66,1.1817902,1.0181174,0
251925666,251924632,6780433,27.622808,24.51,100993.664,1.1817904,1.0181173,0
252012214,251989587,6780433,27.485409,24.51,100995.31,1.1818097,1.0181091,0
252055636,252054577,6780433,27.752283,24.5,100992.12,1.1818119,1.018108,0
252142105,252119481,6780433,27.622808,24.51,100993.65,1.1817902,1.0181174,0
252185443,252184474,6780433,27.879112,24.51,100990.6,1.1817545,1.0181328,0
252272021,252249392,6780433,27.506548,24.515,100995.06,1.1817869,1.0181189,0
252315344,252314370,6780433,27.74964,24.51,100992.125,1.1817724,1.018125,0
252401909,252379282,6780433,27.696795,24.51,100992.766,1.1817799,1.0181218,0
252445220,252444245,6780433,27.580532,24.51,100994.16,1.1817961,1.0181149,0
252531900,252509199,6780433,27.622808,24.51,100993.66,1.1817902,1.0181174,0
252575106,252574133,6780433,27.538254,24.51,100994.664,1.181802,1.0181123,0
252661742,252639094,6780433,27.63602,24.51,100993.516,1.1817887,1.018118,0
252705024,252704032,6780433,27.625452,24.5,100993.64,1.1818298,1.0181003,0
252791601,252768983,6780433,27.495977,24.51,100995.17,1.181808,1.0181097,0
