timestamp,timestamp_sample,ref_timestamp,ref_lat,ref_lon,x,y,z,delta_xy[0],delta_xy[1],delta_z,vx,vy,vz,z_deriv,delta_vxy[0],delta_vxy[1],delta_vz,ax,ay,az,heading,heading_var,unaided_heading,delta_heading,tilt_var,ref_alt,dist_bottom,eph,epv,evh,evv,vxy_max,vz_max,hagl_min,hagl_max,xy_valid,z_valid,v_xy_valid,v_z_valid,xy_reset_counter,z_reset_counter,vxy_reset_counter,vz_reset_counter,heading_reset_counter,heading_good_for_control,xy_global,z_global,dist_bottom_valid,dist_bottom_sensor_bitfield,dead_reckoning
200542525,200541729,42042859,60.1877325,24.832678599999998,0.045853835,-0.9829889,-3.0697494,0.2201162,0.143384,-2.0861626e-07,0.00040891996,-0.01142711,0.03109869,0.059271116,-0.025945434,0.04994766,0.011585729,0.032226723,-0.033136126,-0.10775197,-2.1899083,0.05088221,-0.0063723247,0.00729649,6.471999e-05,-9.646487,0.09535146,0.23967156,0.22687893,0.108122475,0.06458544,inf,inf,inf,inf,1,1,1,1,3,2,3,2,2,0,1,1,1,0,0
201042363,201041729,42042859,60.1877325,24.832678599999998,0.043541078,-0.9916016,-3.0393512,0.2201162,0.143384,-2.0861626e-07,0.0001987858,-0.008566642,0.04103892,0.06710285,-0.025945434,0.04994766,0.011585729,0.045312826,0.09685305,0.15378384,-2.1895094,0.05087928,-0.0063174805,0.00729649,6.474329e-05,-9.646487,0.090717554,0.24004516,0.22753772,0.10817117,0.06464299,inf,inf,inf,inf,1,1,1,1,3,2,3,2,2,0,1,1,1,0,0
201542176,201541729,42042859,60.1877325,24.832678599999998,0.03733008,-0.997446,-3.0078006,0.2201162,0.143384,-2.0861626e-07,-0.00542411,-0.0052147675,0.051184278,0.07323028,-0.025945434,0.04994766,0.011585729,0.035479397,-0.20549911,0.12134906,-2.1891067,0.05087423,-0.006321455,0.00729649,6.476657e-05,-9.646487,0.08639312,0.24040395,0.22771199,0.108209774,0.06464873,inf,inf,inf,inf,1,1,1,1,3,2,3,2,2,0,1,1,1,0,0
202042391,202041729,42042859,60.1877325,24.832678599999998,0.033211596,-1.0003251,-2.9823573,0.2201162,0.143384,-2.0861626e-07,-0.0068932865,-0.004465538,0.05815734,0.06995923,-0.025945434,0.04994766,0.011585729,0.086421594,0.27871734,0.2503125,-2.1888304,0.050867803,-0.006336029,0.00729649,6.4790955e-05,-9.646487,0.08000064,0.2407407,0.22786391,0.108224176,0.06464924,inf,inf,inf,inf,1,1,1,1,3,2,3,2,2,0,1,1,1,0,0
202542429,202541729,42042859,60.1877325,24.832678599999998,0.023917254,-1.0048494,-2.957064,0.2201162,0.143384,-2.0861626e-07,-0.010693271,-0.00026088048,0.06373089,0.0678346,-0.025945434,0.04994766,0.011585729,0.05462717,0.28031567,0.24415743,-2.1885567,0.05086017,-0.006326774,0.00729649,6.481169e-05,-9.646487,0.08197498,0.24102426,0.22846049,0.10821454,0.064692765,inf,inf,inf,inf,1,1,1,1,3,2,3,2,2,0,1,1,1,0,0
203042425,203041729,42042859,60.1877325,24.832678599999998,0.014377902,-1.0087183,-2.9321127,0.2201162,0.143384,-2.0861626e-07,-0.013149905,-0.0009718382,0.06715247,0.06476706,-0.025945434,0.04994766,0.011585729,-0.20588338,-0.03707824,-0.17453301,-2.188129,0.050852083,-0.006342641,0.00729649,6.48227e-05,-9.646487,0.08231497,0.24124143,0.22853817,0.10814648,0.06467483,inf,inf,inf,inf,1,1,1,1,3,2,3,2,2,0,1,1,1,0,0
203542348,203541731,42042859,60.1877325,24.832678599999998,0.0017856077,-1.0172454,-2.9038246,0.2201162,0.143384,-2.0861626e-07,-0.020091338,-0.004839687,0.07600116,0.069780454,-0.025945434,0.04994766,0.011585729,-0.2686807,-0.09593065,0.0062131607,-2.1876044,0.05084394,-0.006337891,0.00729649,6.483987e-05,-9.646487,0.08085799,0.24145375,0.22859725,0.1081017,0.06465947,inf,inf,inf,inf,1,1,1,1,3,2,3,2,2,0,1,1,1,0,0
204042361,204041729,42042859,60.1877325,24.832678599999998,-0.010092481,-1.0191442,-2.8708303,0.2201162,0.143384,-2.0861626e-07,-0.018370233,-0.005852987,0.082158536,0.075143114,-0.025945434,0.04994766,0.011585729,0.23064546,-0.2949541,0.14519748,-2.1873455,0.050836056,-0.0062941466,0.00729649,6.48658e-05,-9.646487,0.0843482,0.24168953,0.22917274,0.108098105,0.064701,inf,inf,inf,inf,1,1,1,1,3,2,3,2,2,0,1,1,1,0,0
204542192,204541729,42042859,60.1877325,24.832678599999998,-0.016524356,-1.0103507,-2.8337798,0.2201162,0.143384,-2.0861626e-07,-0.014743298,0.0028435776,0.08271438,0.075175725,-0.025945434,0.04994766,0.011585729,1.1139147,0.9378367,-0.12557897,-2.1869807,0.050826926,-0.0061698295,0.00729649,6.490605e-05,-9.646487,0.08062887,0.24193618,0.2292731,0.108129255,0.06470118,inf,inf,inf,inf,1,1,1,1,3,2,3,2,2,0,1,1,0,0,0
205042444,205041729,42042859,60.1877325,24.832678599999998,-0.015063956,-1.0123744,-2.8063574,0.2201162,0.143384,-2.0861626e-07,-0.014062851,0.008973822,0.071828485,0.056997437,-0.025945434,0.04994766,0.011585729,-0.9789715,0.9474877,0.3171457,-2.1861703,0.050818633,-0.006242092,0.00729649,6.493341e-05,-9.646487,0.077875614,0.24213885,0.22933693,0.10813297,0.064691864,inf,inf,inf,inf,1,1,1,1,3,2,3,2,2,0,1,1,0,0,0
205542376,205541729,42042859,60.1877325,24.832678599999998,-0.0013724355,-1.0261407,-2.8047872,0.2201162,0.143384,-2.0861626e-07,0.09462503,-0.07774372,-0.015882395,-0.042543434,-0.025945434,0.04994766,0.011585729,-1.1916438,-2.2793305,-1.1999058,-2.1810927,0.05076607,-0.0016168869,0.00729649,6.494137e-05,-9.646487,0.08841109,0.2423802,0.22941245,0.108644426,0.06469457,inf,inf,inf,inf,1,1,1,1,3,2,3,2,2,0,1,1,0,0,0
206042375,206041729,42042859,60.1877325,24.832678599999998,0.08935515,-1.0633954,-2.9112537,0.2201162,0.143384,-2.0861626e-07,0.21181089,-0.060146265,-0.29047465,-0.3200012,-0.025945434,0.04994766,0.011585729,-0.83228,1.6634471,-0.4186021,-2.1114914,0.047860477,0.061252356,0.00729649,6.473721e-05,-9.646487,0.19553256,0.24256657,0.22995937,0.11476842,0.0647395,inf,inf,inf,inf,1,1,1,1,3,2,3,2,2,0,1,1,0,0,0
207042433,207041729,42042859,60.1877325,24.832678599999998,0.19296318,-1.042937,-3.4309146,0.2201162,0.143384,-2.0861626e-07,-0.06529025,0.028309809,-0.71042806,-0.7305707,-0.025945434,0.04994766,0.011585729,0.32082674,-0.884958,-3.1134834,-2.0469003,0.041466977,0.10710802,0.00729649,6.391003e-05,-9.646487,0.7151935,0.2430126,0.22998282,0.111706525,0.064728074,inf,inf,inf,inf,1,1,1,1,3,2,3,2,2,0,1,1,0,0,0
207542376,207541729,42042859,60.1877325,24.832678599999998,0.13718416,-1.0325719,-3.8377974,0.2201162,0.143384,-2.0861626e-07,-0.16310573,0.056911733,-0.8645774,-0.88444686,-0.025945434,0.04994766,0.011585729,0.5402042,-0.40972045,1.2825364,-2.0701556,0.03720583,0.0788911,0.00729649,6.3363106e-05,-9.646487,1.1220763,0.24322923,0.230457,0.11430097,0.06478487,inf,inf,inf,inf,1,1,1,1,3,2,3,2,2,0,1,1,0,0,0
208042344,208041729,42042859,60.1877325,24.832678599999998,0.0443561,-1.011366,-4.3252387,0.2201162,0.143384,-2.0861626e-07,-0.18729496,0.0765241,-1.0188494,-1.041443,-0.025945434,0.04994766,0.011585729,-0.67906046,1.5412486,1.176056,-2.1424985,0.033453662,-0.003104773,0.00729649,6.314895e-05,-9.646487,1.6095176,0.24346656,0.23042251,0.114892475,0.06479779,inf,inf,inf,inf,1,1,1,1,3,2,3,2,2,0,1,1,0,0,0
208542386,208541729,42042859,60.1877325,24.832678599999998,-0.0050785504,-0.99774706,-4.8778133,0.2201162,0.143384,-2.0861626e-07,-0.090155154,-0.015406041,-1.1090143,-1.1401781,-0.025945434,0.04994766,0.011585729,-0.69430053,0.33448052,-1.95587,-2.2132134,0.06716236,-0.05168843,-0.026442554,6.303322e-05,-9.646487,2.1620922,0.24374755,0.2303833,0.11165592,0.064812325,inf,inf,inf,inf,1,1,1,1,3,2,3,2,3,0,1,1,0,0,0
209042379,209041729,42042859,60.1877325,24.832678599999998,-0.087894514,-1.0629478,-5.4877505,0.2201162,0.143384,-2.0861626e-07,-0.27964392,-0.31625375,-1.199899,-1.2486918,-0.025945434,0.04994766,0.011585729,-1.2515316,0.7350629,0.98783153,-2.1974928,0.06132964,-0.04276552,-0.026442554,6.312417e-05,-9.646487,2.7720294,0.24401112,0.2308219,0.11934202,0.06488751,inf,inf,inf,inf,1,1,1,1,3,2,3,2,3,0,1,1,0,0,0
209542348,209541729,42042859,60.1877325,24.832678599999998,-0.291364,-1.3439379,-6.1669664,0.2201162,0.143384,-2.0861626e-07,-0.55440986,-0.7856072,-1.3279153,-1.3918191,-0.025945434,0.04994766,0.011585729,-0.29404622,-0.39438438,-0.086859934,-2.0924845,0.03777525,0.035646074,-0.026442554,6.401179e-05,-9.646487,3.4512453,0.24419072,0.2307274,0.1509558,0.0649268,inf,inf,inf,inf,1,1,1,1,3,2,3,2,3,1,1,1,0,0,0
210042347,210041729,42042859,60.1877325,24.832678599999998,-0.6447583,-1.9030659,-6.8848925,0.2201162,0.143384,-2.0861626e-07,-0.906468,-1.42061,-1.3546028,-1.4245507,-0.025945434,0.04994766,0.011585729,-1.6200737,-1.1572473,2.644784,-1.9915353,0.017050603,0.12601455,-0.026442554,6.565532e-05,-9.646487,4.1691713,0.2444478,0.2306385,0.15841489,0.065002285,inf,inf,inf,inf,1,1,1,1,3,2,3,2,3,1,1,1,0,0,0
210542227,210541729,42042859,60.1877325,24.832678599999998,-1.157801,-2.762517,-7.6269174,0.2201162,0.143384,-2.0861626e-07,-1.1720041,-1.952876,-1.3654174,-1.4464114,-0.025945434,0.04994766,0.011585729,-1.4768465,-1.4199402,2.174211,-1.9870414,0.0081429025,0.12066375,-0.026442554,6.7275556e-05,-9.646487,4.911196,0.24468231,0.23051837,0.14658348,0.06508515,inf,inf,inf,inf,1,1,1,1,3,2,3,2,3,1,1,1,0,0,0
211542420,211541729,42042859,60.1877325,24.832678599999998,-2.406147,-5.194675,-9.203403,0.2201162,0.143384,-2.0861626e-07,-1.2236176,-2.6533763,-1.6746022,-1.7584382,-0.025945434,0.04994766,0.011585729,0.10702319,-5.126845,0.61506236,-1.930009,0.003974416,0.18547888,-0.026442554,7.07168e-05,-9.646487,6.4876823,0.24525318,0.23079559,0.12228244,0.065163895,inf,inf,inf,inf,1,1,1,1,3,2,3,2,3,1,1,1,0,0,0
212042195,212041729,42042859,60.1877325,24.832678599999998,-2.9971642,-6.5234346,-10.056478,0.2201162,0.143384,-2.0861626e-07,-1.1105534,-2.6008093,-1.2274661,-1.303279,-0.025945434,0.04994766,0.011585729,2.8886285,-5.236019,4.0954556,-1.9607854,0.0036660437,0.15256652,-0.026442554,7.2135896e-05,-9.646487,7.3407564,0.24548039,0.23067416,0.11233624,0.065079145,inf,inf,inf,inf,1,1,1,1,3,2,3,2,3,1,1,1,0,0,0
212542211,212541729,42042859,60.1877325,24.832678599999998,-3.5482986,-7.789841,-10.482931,0.2201162,0.143384,-2.0861626e-07,-1.0007854,-2.415438,-0.6437984,-0.7328545,-0.025945434,0.04994766,0.011585729,-0.9683096,1.8713677,0.03650989,-1.964058,0.003628896,0.15059581,-0.026442554,7.3396695e-05,-9.646487,7.76721,0.24567431,0.23110527,0.10762058,0.06506801,inf,inf,inf,inf,1,1,1,1,3,2,3,2,3,1,1,1,0,0,0
213042456,213041729,42042859,60.1877325,24.832678599999998,-3.9755418,-8.826504,-10.886146,0.2201162,0.143384,-2.0861626e-07,-0.58519703,-1.6291177,-0.62905014,-0.75122726,-0.025945434,0.04994766,0.011585729,0.48590508,0.916267,-1.7550709,-1.9586476,0.003443686,0.15614475,-0.026442554,7.252653e-05,-9.646487,8.170424,0.24600413,0.23121428,0.11784544,0.065077886,inf,inf,inf,inf,1,1,1,1,3,2,3,2,3,1,1,1,0,0,0
213542158,213541729,42042859,60.1877325,24.832678599999998,-4.1862655,-9.468845,-11.233814,0.2201162,0.143384,-2.0861626e-07,-0.23516591,-0.85943824,-0.5563204,-0.6769582,-0.025945434,0.04994766,0.011585729,1.3591027,2.5409708,0.19918333,-1.9390608,0.0025846842,0.18358825,-0.026442554,6.806311e-05,-9.646487,8.518093,0.24660039,0.23158106,0.13500154,0.065256916,inf,inf,inf,inf,1,1,1,1,3,2,3,2,3,1,1,1,0,0,0
214042351,214041729,42042859,60.1877325,24.832678599999998,-4.252638,-9.79361,-11.546968,0.2201162,0.143384,-2.0861626e-07,-0.060953647,-0.363578,-0.5750156,-0.6690399,-0.025945434,0.04994766,0.011585729,0.95496094,0.097738884,1.8724835,-1.9232981,0.001774588,0.20505506,-0.026442554,6.492756e-05,-9.646487,8.831247,0.24702366,0.23246418,0.1322645,0.06537038,inf,inf,inf,inf,1,1,1,1,3,2,3,2,3,1,1,1,0,0,0
214542198,214541729,42042859,60.1877325,24.832678599999998,-4.2315307,-9.889204,-11.856661,0.2201162,0.143384,-2.0861626e-07,0.06566959,-0.055753887,-0.63230604,-0.6918772,-0.025945434,0.04994766,0.011585729,0.94870096,2.0274591,-0.7248009,-1.9182189,0.0013647608,0.21409129,-0.026442554,6.409302e-05,-9.646487,9.14094,0.24835406,0.23325555,0.1264572,0.06555637,inf,inf,inf,inf,1,1,1,1,3,2,3,2,3,1,1,1,0,0,0
215042203,215041730,42042859,60.1877325,24.832678599999998,-4.1973305,-9.889716,-12.160153,0.2201162,0.143384,-2.0861626e-07,0.10206923,-0.022978347,-0.61457884,-0.641263,-0.025945434,0.04994766,0.011585729,0.22317433,0.19161376,4.568369,-1.9222776,0.0011741647,0.20662528,-0.026442554,6.418566e-05,-9.646487,9.444432,0.2504969,0.23444879,0.12111045,0.06583805,inf,inf,inf,inf,1,1,1,1,3,2,3,2,3,1,1,1,0,0,0
215542184,215541729,42042859,60.1877325,24.832678599999998,-4.134263,-9.852908,-12.451718,0.2201162,0.143384,-2.0861626e-07,0.110893674,0.13687265,-0.6428196,-0.6399096,-0.025945434,0.04994766,0.011585729,0.6159536,1.2061151,1.6403457,-1.9394389,0.0010976713,0.1912588,-0.026442554,6.468222e-05,-9.646487,9.735997,0.2535641,0.2366423,0.11898802,0.06633631,inf,inf,inf,inf,1,1,1,1,3,2,3,2,3,1,1,1,0,0,0
216042164,216041729,42042859,60.1877325,24.832678599999998,-4.054567,-9.750177,-12.730542,0.2201162,0.143384,-2.0861626e-07,0.057605617,0.15201922,-0.60013795,-0.58087534,-0.025945434,0.04994766,0.011585729,-0.24264657,-1.5567203,-1.9944596,-1.9684528,0.0010597076,0.16318318,-0.026442554,6.5199114e-05,-9.646487,10.014821,0.25677887,0.2385018,0.11801902,0.06679233,inf,inf,inf,inf,1,1,1,1,3,2,3,2,3,1,1,1,0,0,0
216542194,216541729,42042859,60.1877325,24.832678599999998,-4.015445,-9.726337,-12.972942,0.2201162,0.143384,-2.0861626e-07,-0.071047984,-0.1707096,-0.48563448,-0.45192134,-0.025945434,0.04994766,0.011585729,-0.20824303,-4.906883,-0.38216132,-1.9667058,0.0010487629,0.1667206,-0.026442554,6.53756e-05,-9.646487,10.257221,0.25897402,0.24016318,0.1159422,0.067001455,inf,inf,inf,inf,1,1,1,1,3,2,3,2,3,1,1,1,0,0,0
217042227,217041729,42042859,60.1877325,24.832678599999998,-4.052344,-9.837263,-13.16429,0.2201162,0.143384,-2.0861626e-07,-0.11714629,-0.21887311,-0.5054889,-0.45238805,-0.025945434,0.04994766,0.011585729,1.8450154,1.9640746,2.3433743,-1.9597174,0.00104854,0.17628382,-0.026442554,6.4971e-05,-9.646487,10.448569,0.2586883,0.24098526,0.11339057,0.06672255,inf,inf,inf,inf,1,1,1,1,3,2,3,2,3,1,1,1,0,0,0
217542159,217541729,42042859,60.1877325,24.832678599999998,-4.063718,-9.882544,-13.364113,0.2201162,0.143384,-2.0861626e-07,0.033799198,0.06408057,-0.5448294,-0.46892843,-0.025945434,0.04994766,0.011585729,1.5024469,3.606332,0.672218,-1.9455441,0.0010485149,0.18971154,-0.026442554,6.461222e-05,-9.646487,10.648392,0.2581862,0.24207997,0.111405924,0.06652243,inf,inf,inf,inf,1,1,1,1,3,2,3,2,3,1,1,1,0,0,0
218042208,218041729,42042859,60.1877325,24.832678599999998,-4.121684,-9.936255,-13.579414,0.2201162,0.143384,-2.0861626e-07,-0.22021554,-0.5764937,-0.5775433,-0.49138257,-0.025945434,0.04994766,0.011585729,-0.29458788,-10.208728,-3.94953,-1.9292804,0.001050506,0.21157965,-0.026442554,6.438828e-05,-9.646487,10.863693,0.25780284,0.2422664,0.11068226,0.06629272,inf,inf,inf,inf,1,1,1,1,3,2,3,2,3,1,1,1,0,0,0
218542220,218541729,42042859,60.1877325,24.832678599999998,-4.368073,-10.518696,-13.794937,0.2201162,0.143384,-2.0861626e-07,-0.5870035,-1.5368214,-0.49059263,-0.4202365,-0.025945434,0.04994766,0.011585729,2.2534294,3.1107419,-2.8781648,-1.9458741,0.0009976061,0.18627663,-0.026442554,6.3773e-05,-9.646487,11.079216,0.25745717,0.24226168,0.117637135,0.0662108,inf,inf,inf,inf,1,1,1,1,3,2,3,2,3,1,1,1,0,0,0
219042393,219041729,42042859,60.1877325,24.832678599999998,-4.6417875,-11.250948,-14.053402,0.2201162,0.143384,-2.0861626e-07,-0.49087483,-1.3035972,-0.6012912,-0.5354726,-0.025945434,0.04994766,0.011585729,-1.3179904,-1.2898966,0.6954683,-1.9668262,0.0009074578,0.16264246,-0.026442554,6.3310894e-05,-9.646487,11.337681,0.2572854,0.24278389,0.115058325,0.066236235,inf,inf,inf,inf,1,1,1,1,3,2,3,2,3,1,1,1,0,0,0
219542331,219541729,42042859,60.1877325,24.832678599999998,-4.9065933,-11.87459,-14.248644,0.2201162,0.143384,-2.0861626e-07,-0.48236138,-1.1353018,-0.3437886,-0.28863212,-0.025945434,0.04994766,0.011585729,-4.922085,2.1293824,5.125906,-1.967446,0.0008839313,0.16282117,-0.026442554,6.316426e-05,-9.646487,11.532923,0.25723344,0.24264757,0.11039985,0.06620897,inf,inf,inf,inf,1,1,1,1,3,2,3,2,3,1,1,1,0,0,0
220042326,220041729,42042859,60.1877325,24.832678599999998,-5.1664386,-12.486648,-14.418359,0.2201162,0.143384,-2.0861626e-07,-0.43795535,-1.1758776,-0.290709,-0.25582835,-0.025945434,0.04994766,0.011585729,1.0682104,-3.7249002,-2.0179448,-1.9584693,0.0008803141,0.16920638,-0.026442554,6.32137e-05,-9.646487,11.702638,0.2573516,0.24250746,0.109904766,0.06622748,inf,inf,inf,inf,1,1,1,1,3,2,3,2,3,1,1,1,0,0,0
221042592,221041729,42042859,60.1877325,24.832678599999998,-5.624813,-13.568699,-14.696142,0.2201162,0.143384,-2.0861626e-07,-0.24974135,-0.7096123,-0.36955917,-0.33350593,-0.025945434,0.04994766,0.011585729,-3.7383173,0.09812617,-0.13688523,-1.9615455,0.0008858187,0.16829266,-0.026442554,6.3115134e-05,-9.646487,11.980421,0.25757283,0.24271148,0.10950115,0.066307664,inf,inf,inf,inf,1,1,1,1,3,2,3,2,3,1,1,1,0,0,0
221542561,221541729,42042859,60.1877325,24.832678599999998,-5.735367,-13.835503,-14.814579,0.2201162,0.143384,-2.0861626e-07,-0.07240439,-0.32482946,-0.2926829,-0.24265048,-0.025945434,0.04994766,0.011585729,1.9998628,0.05657879,-1.1343021,-1.922405,0.0008835641,0.20710641,-0.026442554,6.281382e-05,-9.646487,12.098858,0.2574754,0.24239975,0.1100249,0.06621944,inf,inf,inf,inf,1,1,1,1,3,2,3,2,3,1,1,1,0,0,0
222042587,222041729,42042859,60.1877325,24.832678599999998,-5.7658434,-13.907815,-14.926106,0.2201162,0.143384,-2.0861626e-07,0.027924614,-0.09683445,-0.340165,-0.27528715,-0.025945434,0.04994766,0.011585729,0.86511356,-5.2648315,0.96191025,-1.902889,0.0008717118,0.22673966,-0.026442554,6.2578336e-05,-9.646487,12.210385,0.25729167,0.2419607,0.11051618,0.066094115,inf,inf,inf,inf,1,1,1,1,3,2,3,2,3,1,1,1,0,0,0
223042586,223041729,42042859,60.1877325,24.832678599999998,-5.803384,-13.987224,-15.1626625,0.2201162,0.143384,-2.0861626e-07,-0.16174479,-0.13831237,-0.3352015,-0.25409117,-0.025945434,0.04994766,0.011585729,0.48938385,0.20126452,-0.32278913,-1.9566199,0.00086447847,0.17146523,-0.026442554,6.227745e-05,-9.646487,12.446941,0.25680947,0.24143729,0.109030664,0.065803945,inf,inf,inf,inf,1,1,1,1,3,2,3,2,3,1,1,1,0,0,0
223542557,223541729,42042859,60.1877325,24.832678599999998,-5.898656,-14.022019,-15.293719,0.2201162,0.143384,-2.0861626e-07,-0.23197311,-0.102608494,-0.34061983,-0.25870305,-0.025945434,0.04994766,0.011585729,0.8315573,0.023520628,-1.3869869,-1.9321035,0.000868902,0.1975269,-0.026442554,6.217713e-05,-9.646487,12.577998,0.25659862,0.24084422,0.1090722,0.06564461,inf,inf,inf,inf,1,1,1,1,3,2,3,2,3,1,1,1,0,0,0
224042558,224041729,42042859,60.1877325,24.832678599999998,-5.9605994,-14.05228,-15.400702,0.2201162,0.143384,-2.0861626e-07,-0.025743928,-0.07637373,-0.3043001,-0.21939006,-0.025945434,0.04994766,0.011585729,-1.5524479,-3.0005884,-0.39589348,-1.9167295,0.0008743728,0.2131729,-0.026442554,6.2105486e-05,-9.646487,12.684981,0.2563593,0.24079253,0.10866569,0.06554496,inf,inf,inf,inf,1,1,1,1,3,2,3,2,3,1,1,1,0,0,0
224542642,224541729,42042859,60.1877325,24.832678599999998,-5.9369392,-14.052035,-15.536335,0.2201162,0.143384,-2.0861626e-07,0.08835806,-0.008843597,-0.33466616,-0.26071444,-0.025945434,0.04994766,0.011585729,-2.4758234,-0.80321294,1.3058891,-1.9671203,0.0008802443,0.16264507,-0.026442554,6.201605e-05,-9.646487,12.820614,0.25611675,0.2401816,0.108828366,0.06544807,inf,inf,inf,inf,1,1,1,1,3,2,3,2,3,1,1,1,0,0,0
225042591,225041733,42042859,60.1877325,24.832678599999998,-5.9028482,-14.026699,-15.673766,0.2201162,0.143384,-2.0861626e-07,0.053005017,0.06547063,-0.33118126,-0.2641382,-0.025945434,0.04994766,0.011585729,-0.69635147,0.29123563,0.97992086,-2.0010324,0.0008861942,0.12895182,-0.026442554,6.2035135e-05,-9.646487,12.958045,0.25629348,0.23980369,0.10926422,0.065481186,inf,inf,inf,inf,1,1,1,1,3,2,3,2,3,1,1,1,0,0,0
226042327,226041729,42042859,60.1877325,24.832678599999998,-5.8570037,-13.979053,-15.930897,0.2201162,0.143384,-2.0861626e-07,-0.07582978,0.085008696,-0.22311005,-0.17477989,-0.025945434,0.04994766,0.011585729,-0.6012211,0.6943722,0.27364475,-1.9625763,0.00089910236,0.16660929,-0.026442554,6.188611e-05,-9.646487,13.215176,0.25611538,0.23947836,0.109098636,0.06541335,inf,inf,inf,inf,1,1,1,1,3,2,3,2,3,1,1,1,0,0,0
226542594,226541729,42042859,60.1877325,24.832678599999998,-5.915428,-13.924169,-16.063002,0.2201162,0.143384,-2.0861626e-07,-0.111450575,0.12591664,-0.23009336,-0.19424656,-0.025945434,0.04994766,0.011585729,-3.7277653,-3.12194,-0.45547652,-1.9437263,0.0009049737,0.18524624,-0.026442554,6.182344e-05,-9.646487,13.3472805,0.25602907,0.23907305,0.10906504,0.0653831,inf,inf,inf,inf,1,1,1,1,3,2,3,2,3,1,1,1,0,0,0
227042612,227041729,42042859,60.1877325,24.832678599999998,-5.9707904,-13.876881,-16.167856,0.2201162,0.143384,-2.0861626e-07,-0.071315646,0.061115813,-0.13033612,-0.10177295,-0.025945434,0.04994766,0.011585729,0.34482068,-0.44974735,-0.026497435,-1.9682862,0.0009109076,0.16186485,-0.026442554,6.180419e-05,-9.646487,13.452135,0.25603634,0.23872334,0.108775996,0.06537724,inf,inf,inf,inf,1,1,1,1,3,2,3,2,3,1,1,1,0,0,0
227542561,227541729,42042859,60.1877325,24.832678599999998,-5.9937143,-13.853667,-16.280771,0.2201162,0.143384,-2.0861626e-07,-0.04352361,0.016054422,-0.2224347,-0.20539826,-0.025945434,0.04994766,0.011585729,-0.5934358,-2.1462047,0.31725842,-2.00277,0.0009168115,0.12669562,-0.026442554,6.1793835e-05,-9.646487,13.56505,0.25597665,0.2388899,0.10888582,0.06542438,inf,inf,inf,inf,1,1,1,1,3,2,3,2,3,1,1,1,0,0,0
228042557,228041729,42042859,60.1877325,24.832678599999998,-6.036087,-13.869053,-16.420345,0.2201162,0.143384,-2.0861626e-07,-0.04676091,-0.040791914,-0.21139865,-0.1972331,-0.025945434,0.04994766,0.011585729,-1.7544826,-2.241623,-0.12322981,-1.9834476,0.0009226426,0.14695828,-0.026442554,6.168058e-05,-9.646487,13.704624,0.25589713,0.23845682,0.109049864,0.06544974,inf,inf,inf,inf,1,1,1,1,3,2,3,2,3,1,1,1,0,0,0
228542619,228541732,42042859,60.1877325,24.832678599999998,-6.0027413,-13.942996,-16.54529,0.2201162,0.143384,-2.0861626e-07,0.25585267,-0.14929833,-0.20607096,-0.18811835,-0.025945434,0.04994766,0.011585729,3.29561,-1.932481,2.383443,-1.9054784,0.0009276539,0.22220518,-0.026442554,6.156835e-05,-9.646487,13.829569,0.25575405,0.2379769,0.10920018,0.06542383,inf,inf,inf,inf,1,1,1,1,3,2,3,2,3,1,1,1,0,0,0
229042378,229041729,42042859,60.1877325,24.832678599999998,-5.917446,-14.042097,-16.652822,0.2201162,0.143384,-2.0861626e-07,0.0846918,-0.106429845,-0.16500017,-0.13965106,-0.025945434,0.04994766,0.011585729,-3.5135264,-1.0927259,1.2537947,-1.9442722,0.00093119656,0.18284868,-0.026442554,6.148339e-05,-9.646487,13.937101,0.25555906,0.23800665,0.10888732,0.06542719,inf,inf,inf,inf,1,1,1,1,3,2,3,2,3,1,1,1,0,0,0
229542349,229541729,42042859,60.1877325,24.832678599999998,-5.9100914,-14.105623,-16.759733,0.2201162,0.143384,-2.0861626e-07,0.049371287,-0.03959597,-0.19670415,-0.17554125,-0.025945434,0.04994766,0.011585729,0.85973155,-1.5407659,-0.29318872,-1.9264072,0.0009386749,0.20146494,-0.026442554,6.1455e-05,-9.646487,14.044012,0.25533405,0.23746686,0.10864125,0.06541271,inf,inf,inf,inf,1,1,1,1,3,2,3,2,3,1,1,1,0,0,0
230042346,230041729,42042859,60.1877325,24.832678599999998,-5.8933816,-14.147178,-16.883505,0.2201162,0.143384,-2.0861626e-07,0.061443463,-0.0018269492,-0.20034283,-0.1817367,-0.025945434,0.04994766,0.011585729,-1.6833482,-0.33911216,0.5844204,-1.9403707,0.00094729965,0.18726401,-0.026442554,6.139489e-05,-9.646487,14.167784,0.2550948,0.23691931,0.1086787,0.0653835,inf,inf,inf,inf,1,1,1,1,3,2,3,2,3,1,1,1,0,0,0
230542378,230541729,42042859,60.1877325,24.832678599999998,-5.88117,-14.178415,-17.000437,0.2201162,0.143384,-2.0861626e-07,0.04808122,-0.013258196,-0.29968488,-0.28638944,-0.025945434,0.04994766,0.011585729,-0.9781937,1.2679114,0.029516775,-1.9582256,0.0009562886,0.16953069,-0.026442554,6.136813e-05,-9.646487,14.284716,0.25485557,0.2369127,0.10848987,0.06539822,inf,inf,inf,inf,1,1,1,1,3,2,3,2,3,1,1,1,0,0,0
231042452,231041729,42042859,60.1877325,24.832678599999998,-5.862134,-14.17509,-17.172874,0.2201162,0.143384,-2.0861626e-07,0.081208274,0.034943264,-0.3004726,-0.289487,-0.025945434,0.04994766,0.011585729,1.101342,-1.2850066,-0.39551127,-1.9545405,0.0009654871,0.17324501,-0.026442554,6.122858e-05,-9.646487,14.457153,0.2545813,0.23636414,0.10884399,0.065347515,inf,inf,inf,inf,1,1,1,1,3,2,3,2,3,1,1,1,0,0,0
231542347,231541729,42042859,60.1877325,24.832678599999998,-5.827583,-14.156315,-17.32554,0.2201162,0.143384,-2.0861626e-07,0.079372585,-0.018232347,-0.32727465,-0.3142385,-0.025945434,0.04994766,0.011585729,2.5989623,-1.1839647,-1.3749855,-1.9648318,0.0009747763,0.16209732,-0.026442554,6.115511e-05,-9.646487,14.609819,0.25429916,0.23581451,0.10857132,0.065286905,inf,inf,inf,inf,1,1,1,1,3,2,3,2,3,1,1,1,0,0,0
232042420,232041729,42042859,60.1877325,24.832678599999998,-5.796215,-14.174056,-17.47498,0.2201162,0.143384,-2.0861626e-07,0.102155335,-0.049756207,-0.2917964,-0.27959394,-0.025945434,0.04994766,0.011585729,1.3395969,-0.9869719,3.3055816,-1.959341,0.0009842765,0.16770962,-0.026442554,6.110569e-05,-9.646487,14.759258,0.25401127,0.23526481,0.1084836,0.06521189,inf,inf,inf,inf,1,1,1,1,3,2,3,2,3,1,1,1,0,0,0
232542380,232541729,42042859,60.1877325,24.832678599999998,-5.768217,-14.170643,-17.619284,0.2201162,0.143384,-2.0861626e-07,0.08270566,0.016967285,-0.25851002,-0.25167912,-0.025945434,0.04994766,0.011585729,-0.7291582,-1.9194921,-2.387605,-1.931443,0.0009939923,0.19571476,-0.026442554,6.109671e-05,-9.646487,14.903563,0.25372824,0.23523933,0.10835883,0.06519102,inf,inf,inf,inf,1,1,1,1,3,2,3,2,3,1,1,1,0,0,0
233042198,233041729,42042859,60.1877325,24.832678599999998,-5.7682376,-14.143542,-17.749916,0.2201162,0.143384,-2.0861626e-07,-0.08652229,0.07951787,-0.21663536,-0.21596539,-0.025945434,0.04994766,0.011585729,0.5960398,1.4839481,2.0468762,-1.9562055,0.0010039693,0.16975468,-0.026442554,6.1134575e-05,-9.646487,15.034195,0.2534806,0.23470129,0.10839943,0.0651537,inf,inf,inf,inf,1,1,1,1,3,2,3,2,3,1,1,1,0,0,0
233542380,233541730,42042859,60.1877325,24.832678599999998,-5.854055,-14.099592,-17.86427,0.2201162,0.143384,-2.0861626e-07,-0.17418133,0.13947918,-0.16609778,-0.16315158,-0.025945434,0.04994766,0.011585729,-2.668094,3.837079,1.4526657,-1.9983187,0.0010125116,0.12906136,-0.026442554,6.121167e-05,-9.646487,15.148548,0.25320154,0.23416062,0.10850749,0.0651312,inf,inf,inf,inf,1,1,1,1,3,2,3,2,3,1,1,1,0,0,0
235042379,235041729,42042859,60.1877325,24.832678599999998,-5.932703,-14.013341,-18.194857,0.2201162,0.143384,-2.0861626e-07,0.21269366,-0.017729225,-0.20130801,-0.18778518,-0.025945434,0.04994766,0.011585729,-0.82685614,-2.1311002,-0.6314205,-1.9259825,0.001039507,0.20237723,-0.026442554,6.117728e-05,-9.646487,15.4791355,0.252429,0.23313083,0.10833879,0.06507863,inf,inf,inf,inf,1,1,1,1,3,2,3,2,3,1,1,1,0,0,0
235542440,235541729,42042859,60.1877325,24.832678599999998,-5.8458943,-13.998745,-18.28518,0.2201162,0.143384,-2.0861626e-07,0.13305724,-0.04724923,-0.23542832,-0.22977819,-0.025945434,0.04994766,0.011585729,1.2095565,1.4883499,-2.204598,-1.9429824,0.0010470883,0.18402532,-0.026442554,6.120389e-05,-9.646487,15.569458,0.25218186,0.23314199,0.10832483,0.06507926,inf,inf,inf,inf,1,1,1,1,3,2,3,2,3,1,1,1,0,0,0
236042351,236041729,42042859,60.1877325,24.832678599999998,-5.8233438,-14.060689,-18.4154,0.2201162,0.143384,-2.0861626e-07,0.09616501,-0.17142814,-0.2508467,-0.25187245,-0.025945434,0.04994766,0.011585729,-0.20491654,0.98071754,0.9206139,-1.8965425,0.0010565511,0.23203512,-0.026442554,6.1168204e-05,-9.646487,15.699678,0.25199068,0.23266834,0.10846151,0.06504462,inf,inf,inf,inf,1,1,1,1,3,2,3,2,3,1,1,1,0,0,0
236542356,236541729,42042859,60.1877325,24.832678599999998,-5.785011,-14.128565,-18.53775,0.2201162,0.143384,-2.0861626e-07,0.03955187,-0.092178814,-0.23181474,-0.23437962,-0.025945434,0.04994766,0.011585729,-1.3246144,-2.4334733,2.183061,-1.9433435,0.0010661539,0.18369927,-0.026442554,6.111079e-05,-9.646487,15.822029,0.25173935,0.23216847,0.10823478,0.06497472,inf,inf,inf,inf,1,1,1,1,3,2,3,2,3,1,1,1,0,0,0
237042434,237041729,42042859,60.1877325,24.832678599999998,-5.782539,-14.159364,-18.674574,0.2201162,0.143384,-2.0861626e-07,0.076497786,-0.05862725,-0.26256663,-0.27022746,-0.025945434,0.04994766,0.011585729,2.6554828,-0.60699713,-0.48542562,-1.9537817,0.0010771776,0.17425151,-0.026442554,6.107542e-05,-9.646487,15.958853,0.25146642,0.23165365,0.10823103,0.06491956,inf,inf,inf,inf,1,1,1,1,3,2,3,2,3,1,1,1,0,0,0
237542444,237541729,42042859,60.1877325,24.832678599999998,-5.7586813,-14.202903,-18.815346,0.2201162,0.143384,-2.0861626e-07,0.032936405,-0.09749752,-0.27712232,-0.28480577,-0.025945434,0.04994766,0.011585729,-0.047254473,0.8516792,-0.060823753,-1.9339944,0.0010883813,0.1927962,-0.026442554,6.1035964e-05,-9.646487,16.099625,0.25118986,0.2316362,0.10842228,0.06490189,inf,inf,inf,inf,1,1,1,1,3,2,3,2,3,1,1,1,0,0,0
238042354,238041729,42042859,60.1877325,24.832678599999998,-5.753406,-14.242882,-18.952854,0.2201162,0.143384,-2.0861626e-07,0.01911262,-0.076718524,-0.2896998,-0.28866655,-0.025945434,0.04994766,0.011585729,-0.11432992,-1.4677525,-0.056453988,-1.9034549,0.0010998466,0.22335126,-0.026442554,6.100833e-05,-9.646487,16.237133,0.25094026,0.23111027,0.10839408,0.06484831,inf,inf,inf,inf,1,1,1,1,3,2,3,2,3,1,1,1,0,0,0
238542429,238541729,42042859,60.1877325,24.832678599999998,-5.7678876,-14.252695,-19.091604,0.2201162,0.143384,-2.0861626e-07,-0.06826691,0.027464928,-0.33548227,-0.3240212,-0.025945434,0.04994766,0.011585729,0.36342368,0.5631712,-1.397902,-1.9129277,0.0011115008,0.21386604,-0.026442554,6.0965966e-05,-9.646487,16.375883,0.25066048,0.23056784,0.108397104,0.06479402,inf,inf,inf,inf,1,1,1,1,3,2,3,2,3,1,1,1,0,0,0
239042380,239041729,42042859,60.1877325,24.832678599999998,-5.8077416,-14.203568,-19.212564,0.2201162,0.143384,-2.0861626e-07,-0.063167796,0.161484,-0.2275289,-0.21349722,-0.025945434,0.04994766,0.011585729,-0.60785,0.88970906,1.9473059,-1.927321,0.0011219361,0.19938187,-0.026442554,6.0951737e-05,-9.646487,16.496843,0.25035414,0.23051521,0.108198136,0.06481586,inf,inf,inf,inf,1,1,1,1,3,2,3,2,3,1,1,1,0,0,0
239542447,239541729,42042859,60.1877325,24.832678599999998,-5.768566,-14.137137,-19.185463,0.2201162,0.143384,-2.0861626e-07,0.45002607,0.08510675,0.51921076,0.533285,-0.025945434,0.04994766,0.011585729,2.3392758,-0.73208106,0.46344978,-1.9416419,0.0011314643,0.18064865,-0.026442554,6.108204e-05,-9.646487,16.469742,0.2500877,0.22998567,0.10724372,0.06478515,inf,inf,inf,inf,1,1,1,1,3,2,3,2,3,1,1,1,0,0,0
240042347,240041729,42042859,60.1877325,24.832678599999998,-5.2480993,-14.135611,-18.934135,0.2201162,0.143384,-2.0861626e-07,1.4788547,-0.031837337,0.44678614,0.4405277,-0.025945434,0.04994766,0.011585729,0.5151592,-3.0168452,3.6613238,-1.9811805,0.0011063738,0.14959273,-0.026442554,6.161859e-05,-9.646487,16.218414,0.24975505,0.22946292,0.11166735,0.064881206,inf,inf,inf,inf,1,1,1,1,3,2,3,2,3,1,1,1,0,0,0
240542347,240541729,42042859,60.1877325,24.832678599999998,-4.432673,-14.162573,-18.772434,0.2201162,0.143384,-2.0861626e-07,1.6787553,-0.07014165,0.24679272,0.2443907,-0.025945434,0.04994766,0.011585729,-0.4918675,0.009498004,1.1011025,-1.9883043,0.0010325704,0.14211096,-0.026442554,6.1954255e-05,-9.646487,16.056713,0.24942558,0.22943136,0.113050014,0.06497479,inf,inf,inf,inf,1,1,1,1,3,2,3,2,3,1,1,1,0,0,0
241042381,241041729,42042859,60.1877325,24.832678599999998,-3.636662,-14.207684,-18.654894,0.2201162,0.143384,-2.0861626e-07,1.3913502,-0.07759067,0.08767438,0.11610571,-0.025945434,0.04994766,0.011585729,-0.4263792,0.2495468,0.3321102,-1.9793546,0.0010019112,0.1478521,-0.026442554,6.206711e-05,-9.646487,15.939173,0.24912527,0.22892526,0.109864675,0.064917594,inf,inf,inf,inf,1,1,1,1,3,2,3,2,3,1,1,1,0,0,0
241542382,241541729,42042859,60.1877325,24.832678599999998,-3.0473182,-14.234832,-18.584368,0.2201162,0.143384,-2.0861626e-07,0.9067553,-0.041317593,-0.0065482007,0.049957335,-0.025945434,0.04994766,0.011585729,0.6491629,0.56533396,-0.49891862,-1.9656986,0.0010066612,0.1597946,-0.026442554,6.183633e-05,-9.646487,15.868647,0.24881738,0.22841758,0.10871571,0.06484573,inf,inf,inf,inf,1,1,1,1,3,2,3,2,3,1,1,1,0,0,0
242042346,242041729,42042859,60.1877325,24.832678599999998,-2.707785,-14.23778,-18.564882,0.2201162,0.143384,-2.0861626e-07,0.4358524,0.005379705,-0.08613235,-0.017997947,-0.025945434,0.04994766,0.011585729,-1.1038316,-0.045746725,-0.11370052,-1.9470192,0.0010060482,0.17807256,-0.026442554,6.133386e-05,-9.646487,15.849161,0.2484787,0.22838926,0.11021461,0.06486021,inf,inf,inf,inf,1,1,1,1,3,2,3,2,3,1,1,1,0,0,0
242542345,242541729,42042859,60.1877325,24.832678599999998,-2.60002,-14.219033,-18.559992,0.2201162,0.143384,-2.0861626e-07,0.05776973,-0.0033343516,-0.074293405,-0.006320347,-0.025945434,0.04994766,0.011585729,-1.3437984,-1.3574355,-0.0055598128,-1.9314524,0.0009849076,0.19683816,-0.026442554,6.0857645e-05,-9.646487,15.844271,0.24812554,0.22786832,0.11148764,0.06482805,inf,inf,inf,inf,1,1,1,1,3,2,3,2,3,1,1,1,0,0,0
243042388,243041729,42042859,60.1877325,24.832678599999998,-2.6533585,-14.219641,-18.572836,0.2201162,0.143384,-2.0861626e-07,-0.18007742,-0.021930797,-0.105435126,-0.04461873,-0.025945434,0.04994766,0.011585729,-1.5619109,0.9709987,-0.83643293,-1.956149,0.0009568952,0.17399518,-0.026442554,6.0605293e-05,-9.646487,15.857115,0.2477678,0.22734015,0.11134389,0.06478199,inf,inf,inf,inf,1,1,1,1,3,2,3,2,3,1,1,1,0,0,0
243542423,243541729,42042859,60.1877325,24.832678599999998,-2.997727,-14.216646,-18.62877,0.2201162,0.143384,-2.0861626e-07,-1.2603974,-0.021997772,-0.14126395,-0.085806035,-0.025945434,0.04994766,0.011585729,-2.0743895,0.669192,2.9196982,-1.9477309,0.00092483027,0.16292533,-0.026442554,6.052372e-05,-9.646487,15.91305,0.24743426,0.22681358,0.11357622,0.064801216,inf,inf,inf,inf,1,1,1,1,3,2,3,2,3,1,1,1,0,0,0
244042393,244041729,42042859,60.1877325,24.832678599999998,-3.8390791,-14.218633,-18.662115,0.2201162,0.143384,-2.0861626e-07,-1.8289545,-0.0013260164,-0.14536417,-0.092028946,-0.025945434,0.04994766,0.011585729,-1.88828,0.9966433,-2.6255126,-1.9389216,0.0008368575,0.19131057,-0.026442554,6.093365e-05,-9.646487,15.946394,0.24716341,0.2267661,0.116866834,0.06493932,inf,inf,inf,inf,1,1,1,1,3,2,3,2,3,1,1,1,0,0,0
244542349,244541729,42042859,60.1877325,24.832678599999998,-4.752036,-14.2088785,-18.709248,0.2201162,0.143384,-2.0861626e-07,-1.6142386,0.042934198,-0.10098839,-0.055987157,-0.025945434,0.04994766,0.011585729,0.014241759,2.7179594,-0.9626703,-1.9433917,0.0007876537,0.18945679,-0.026442554,6.153526e-05,-9.646487,15.993526,0.24693745,0.22625266,0.11143362,0.06477851,inf,inf,inf,inf,1,1,1,1,3,2,3,2,3,1,1,1,0,0,0
245042462,245041729,42042859,60.1877325,24.832678599999998,-5.463199,-14.179759,-18.72671,0.2201162,0.143384,-2.0861626e-07,-1.0468627,0.04372312,-0.038757674,-0.0019652033,-0.025945434,0.04994766,0.011585729,2.2399673,-2.7818608,-0.6134795,-1.9348757,0.0007891551,0.1987031,-0.026442554,6.1876395e-05,-9.646487,16.010988,0.2466924,0.22573178,0.10797988,0.06459077,inf,inf,inf,inf,1,1,1,1,3,2,3,2,3,1,1,1,0,0,0
245542381,245541729,42042859,60.1877325,24.832678599999998,-5.857791,-14.144883,-18.729788,0.2201162,0.143384,-2.0861626e-07,-0.4630536,0.016060794,-0.03592106,0.0002795095,-0.025945434,0.04994766,0.011585729,1.2885019,-0.18359952,0.047575492,-1.9489774,0.0007943083,0.18446057,-0.026442554,6.169987e-05,-9.646487,16.014067,0.24638046,0.22566456,0.109250255,0.064563274,inf,inf,inf,inf,1,1,1,1,3,2,3,2,3,1,1,1,0,0,0
246042369,246041729,42042859,60.1877325,24.832678599999998,-5.982319,-14.138804,-18.72396,0.2201162,0.143384,-2.0861626e-07,-0.05095942,-0.047186222,-0.035869204,0.003038217,-0.025945434,0.04994766,0.011585729,1.4756867,-0.47684833,-1.2368077,-1.9637728,0.00077781826,0.16869755,-0.026442554,6.118918e-05,-9.646487,16.00824,0.24604964,0.22514021,0.11117311,0.06454747,inf,inf,inf,inf,1,1,1,1,3,2,3,2,3,1,1,1,0,0,0
246542345,246541729,42042859,60.1877325,24.832678599999998,-5.932211,-14.17708,-18.721409,0.2201162,0.143384,-2.0861626e-07,0.25988021,-0.09323092,-0.010394322,0.02924641,-0.025945434,0.04994766,0.011585729,-0.1639526,1.3500459,-3.0069227,-1.9632488,0.0007501102,0.16900373,-0.026442554,6.0711318e-05,-9.646487,16.005688,0.24574997,0.22463638,0.111703515,0.064528964,inf,inf,inf,inf,1,1,1,1,3,2,3,2,3,1,1,1,0,0,0
247042379,247041729,42042859,60.1877325,24.832678599999998,-5.4886703,-14.246808,-18.737926,0.2201162,0.143384,-2.0861626e-07,1.4478153,-0.11347496,-0.09035693,-0.05060316,-0.025945434,0.04994766,0.011585729,2.613306,-0.4663244,-1.2657719,-1.9785585,0.00070855767,0.15519662,-0.026442554,6.0291757e-05,-9.646487,16.022205,0.24549171,0.22460638,0.115773425,0.06465745,inf,inf,inf,inf,1,1,1,1,3,2,3,2,3,1,1,1,0,0,0
248042163,248041729,42042859,60.1877325,24.832678599999998,-3.9933772,-14.350014,-18.987036,0.2201162,0.143384,-2.0861626e-07,0.9116942,-0.013076941,-0.4590634,-0.41603687,-0.025945434,0.04994766,0.011585729,-1.472454,-0.94120985,0.37567896,-1.980675,0.00061624584,0.15659188,-0.026442554,5.9888444e-05,-9.646487,16.271315,0.24515058,0.2237213,0.11005374,0.06453729,inf,inf,inf,inf,1,1,1,1,3,2,3,2,3,1,1,1,0,0,0
248542384,248541729,42042859,60.1877325,24.832678599999998,-3.6912982,-14.347094,-19.222773,0.2201162,0.143384,-2.0861626e-07,0.13610765,0.06526397,-0.5329647,-0.49258858,-0.025945434,0.04994766,0.011585729,1.0538968,-0.65480685,1.1329687,-1.9756101,0.0006213173,0.1616844,-0.026442554,5.9568076e-05,-9.646487,16.507051,0.24494371,0.22328876,0.10890251,0.06445315,inf,inf,inf,inf,1,1,1,1,3,2,3,2,3,1,1,1,0,0,0
249042381,249041729,42042859,60.1877325,24.832678599999998,-3.7508945,-14.3202915,-19.48455,0.2201162,0.143384,-2.0861626e-07,-0.48332044,0.06338744,-0.5904966,-0.5537122,-0.025945434,0.04994766,0.011585729,-0.5144632,-0.099817604,-0.20534042,-1.9373323,0.00061866577,0.20131363,-0.026442554,5.9245707e-05,-9.646487,16.76883,0.24470966,0.22331113,0.11041485,0.06451551,inf,inf,inf,inf,1,1,1,1,3,2,3,2,3,1,1,1,0,0,0
249542383,249541729,42042859,60.1877325,24.832678599999998,-4.0990605,-14.30202,-19.771555,0.2201162,0.143384,-2.0861626e-07,-0.9150039,0.08376046,-0.5815617,-0.554191,-0.025945434,0.04994766,0.011585729,-1.45415,-0.008582578,0.95887685,-1.933008,0.00060512486,0.20610675,-0.026442554,5.9091468e-05,-9.646487,17.055834,0.24448425,0.22289704,0.111106984,0.0645291,inf,inf,inf,inf,1,1,1,1,3,2,3,2,3,1,1,1,0,0,0
250042345,250041729,42042859,60.1877325,24.832678599999998,-4.616462,-14.2694,-20.05776,0.2201162,0.143384,-2.0861626e-07,-1.1017253,0.13030453,-0.57402325,-0.55567896,-0.025945434,0.04994766,0.011585729,1.474118,-0.8081208,-0.15858728,-1.9390985,0.0005914804,0.2002534,-0.026442554,5.9194655e-05,-9.646487,17.34204,0.24431741,0.22250335,0.1104302,0.06450807,inf,inf,inf,inf,1,1,1,1,3,2,3,2,3,1,1,1,0,0,0
250542411,250541729,42042859,60.1877325,24.832678599999998,-5.1693892,-14.194325,-20.311659,0.2201162,0.143384,-2.0861626e-07,-0.9790251,0.17597255,-0.38784435,-0.38070813,-0.025945434,0.04994766,0.011585729,1.5239062,-1.5352772,0.42798576,-1.9286743,0.00058721146,0.21145508,-0.026442554,5.946948e-05,-9.646487,17.595938,0.24418014,0.22256054,0.108587384,0.06447468,inf,inf,inf,inf,1,1,1,1,3,2,3,2,3,1,1,1,0,0,0
251042379,251041729,42042859,60.1877325,24.832678599999998,-5.612139,-14.122801,-20.469688,0.2201162,0.143384,-2.0861626e-07,-0.63589525,0.12773935,-0.16336928,-0.17434269,-0.025945434,0.04994766,0.011585729,-0.19682057,-2.1464674,0.07606949,-1.9331903,0.00059326144,0.20718913,-0.026442554,5.9876038e-05,-9.646487,17.753967,0.2440372,0.22217599,0.107104994,0.064396426,inf,inf,inf,inf,1,1,1,1,3,2,3,2,3,1,1,1,0,0,0
251542430,251541729,42042859,60.1877325,24.832678599999998,-5.8434205,-14.069818,-20.545527,0.2201162,0.143384,-2.0861626e-07,-0.21982583,0.10351425,-0.04406645,-0.06796976,-0.025945434,0.04994766,0.011585729,2.5929482,1.8853204,-0.55210537,-1.9398245,0.00060085306,0.20004459,-0.026442554,6.0256345e-05,-9.646487,17.829805,0.24387842,0.22181846,0.107328236,0.064350784,inf,inf,inf,inf,1,1,1,1,3,2,3,2,3,1,1,1,0,0,0
252042350,252041728,42042859,60.1877325,24.832678599999998,-5.8972764,-14.043859,-20.567999,0.2201162,0.143384,-2.0861626e-07,0.033800166,0.060899943,-0.013832056,-0.034729876,-0.025945434,0.04994766,0.011585729,1.2008797,-2.5704494,1.3508488,-1.948194,0.00060362625,0.19148967,-0.026442554,6.054111e-05,-9.646487,17.852278,0.2437424,0.2219285,0.10812076,0.06438714,inf,inf,inf,inf,1,1,1,1,3,2,3,2,3,1,1,1,0,0,0
252542347,252541729,42042859,60.1877325,24.832678599999998,-5.86691,-14.042202,-20.575443,0.2201162,0.143384,-2.0861626e-07,0.087000445,0.017500049,-0.01589651,-0.02119191,-0.025945434,0.04994766,0.011585729,2.4216,3.7790022,-2.8766627,-1.97305,0.0006037602,0.16630244,-0.026442554,6.071599e-05,-9.646487,17.859722,0.24362893,0.22162423,0.108390234,0.06437987,inf,inf,inf,inf,1,1,1,1,3,2,3,2,3,1,1,1,0,0,0
253042413,253041729,42042859,60.1877325,24.832678599999998,-5.8073072,-14.0611105,-20.55129,0.2201162,0.143384,-2.0861626e-07,0.1446551,-0.048070528,0.04679496,0.06532948,-0.025945434,0.04994766,0.011585729,1.4000269,-2.9918697,4.1292973,-1.9735247,0.0006061438,0.1661815,-0.026442554,6.0852042e-05,-9.646487,17.83557,0.2435785,0.22136062,0.108218916,0.06437818,inf,inf,inf,inf,1,1,1,1,3,2,3,2,3,1,1,1,0,0,0
253542442,253541729,42042859,60.1877325,24.832678599999998,-5.6164846,-14.116001,-20.280455,0.2201162,0.143384,-2.0861626e-07,0.5467028,-0.114592746,0.6695922,0.70427954,-0.025945434,0.04994766,0.011585729,1.6589601,1.7484949,-2.0280392,-1.9657103,0.0006084258,0.17654094,-0.026442554,6.121243e-05,-9.646487,17.564734,0.24356641,0.22113279,0.10724891,0.064399794,inf,inf,inf,inf,1,1,1,1,3,2,3,2,3,1,1,1,0,0,0
254042160,254041729,42042859,60.1877325,24.832678599999998,-5.2975807,-14.180247,-19.916327,0.2201162,0.143384,-2.0861626e-07,0.6142448,-0.092760675,0.7004029,0.73222846,-0.025945434,0.04994766,0.011585729,-2.4368067,-1.0842044,0.9218087,-1.9278312,0.0006070149,0.21220095,-0.026442554,6.1773e-05,-9.646487,17.200605,0.24358308,0.22139858,0.10776606,0.06446039,inf,inf,inf,inf,1,1,1,1,3,2,3,2,3,1,1,1,0,0,0
254542345,254541729,42042859,60.1877325,24.832678599999998,-5.0447216,-14.202469,-19.548765,0.2201162,0.143384,-2.0861626e-07,0.27728248,0.0008661091,0.69429594,0.7334288,-0.025945434,0.04994766,0.011585729,-0.2528868,2.1374142,-0.49907434,-1.935021,0.0006106538,0.20189695,-0.026442554,6.2108345e-05,-9.646487,16.833044,0.24364792,0.22126621,0.10748582,0.06442028,inf,inf,inf,inf,1,1,1,1,3,2,3,2,3,1,1,1,0,0,0
255042228,255041729,42042859,60.1877325,24.832678599999998,-4.992101,-14.1828785,-19.177979,0.2201162,0.143384,-2.0861626e-07,-0.17257723,0.07280861,0.5586144,0.6167837,-0.025945434,0.04994766,0.011585729,-3.6470733,0.77296484,-2.786016,-1.9546224,0.00061788684,0.18371524,-0.026442554,6.2248815e-05,-9.646487,16.462257,0.24383175,0.22120738,0.10808106,0.06442075,inf,inf,inf,inf,1,1,1,1,3,2,3,2,3,1,1,1,0,0,0
255542190,255541729,42042859,60.1877325,24.832678599999998,-5.1244287,-14.146765,-18.918482,0.2201162,0.143384,-2.0861626e-07,-0.42366213,0.08868758,0.24802387,0.33151352,-0.025945434,0.04994766,0.011585729,-2.4766164,-0.1017453,2.319034,-1.979482,0.00062155153,0.16300887,-0.026442554,6.203848e-05,-9.646487,16.20276,0.24403524,0.22163275,0.10960348,0.06449466,inf,inf,inf,inf,1,1,1,1,3,2,3,2,3,1,1,1,0,0,0
256042351,256041729,42042859,60.1877325,24.832678599999998,-5.2771153,-14.096413,-18.758186,0.2201162,0.143384,-2.0861626e-07,-0.37325227,0.04198061,0.057227153,0.17165697,-0.025945434,0.04994766,0.011585729,2.3343694,-3.090783,2.145349,-1.9919145,0.0006248096,0.15360026,-0.026442554,6.158065e-05,-9.646487,16.042465,0.2444408,0.22170831,0.10985603,0.064491935,inf,inf,inf,inf,1,1,1,1,3,2,3,2,3,1,1,1,0,0,0
256542157,256541729,42042859,60.1877325,24.832678599999998,-5.397337,-14.11421,-18.67369,0.2201162,0.143384,-2.0861626e-07,-0.31248692,-0.059974235,-0.08366192,0.053417232,-0.025945434,0.04994766,0.011585729,-1.7393613,0.08508571,-0.64392006,-1.9686966,0.0006314373,0.17529114,-0.026442554,6.120265e-05,-9.646487,15.95797,0.24564756,0.22207975,0.1104663,0.06463779,inf,inf,inf,inf,1,1,1,1,3,2,3,2,3,1,1,1,0,0,0
257542378,257541729,42042859,60.1877325,24.832678599999998,-5.6157517,-14.166905,-18.625986,0.2201162,0.143384,-2.0861626e-07,-0.1267011,-0.001591968,-0.062391892,0.0612598,-0.025945434,0.04994766,0.011585729,1.7319725,-0.108766,-0.034845065,-1.9286575,0.000648446,0.21584561,-0.026442554,6.056237e-05,-9.646487,15.910265,0.24968168,0.22399671,0.11143771,0.065166034,inf,inf,inf,inf,1,1,1,1,3,2,3,2,3,1,1,1,0,0,0
258042385,258041729,42042859,60.1877325,24.832678599999998,-5.656971,-14.156753,-18.653534,0.2201162,0.143384,-2.0861626e-07,0.07430975,0.051379263,-0.5572005,-0.44649652,-0.025945434,0.04994766,0.011585729,7.1139493,4.900203,-3.422786,-1.9321467,0.0006567742,0.21297835,-0.026442554,6.0101513e-05,-9.646487,15.937813,0.24967943,0.22402203,0.1101613,0.06496661,inf,inf,inf,inf,1,1,1,1,3,2,3,2,3,1,1,1,0,0,0
258542191,258541729,42042859,60.1877325,24.832678599999998,-5.5720816,-14.064282,-18.893414,0.2201162,0.143384,-2.0861626e-07,0.27329963,0.2797887,-0.49516845,-0.37996277,-0.025945434,0.04994766,0.011585729,-0.67728025,-1.7066834,-0.041540157,-1.9569982,0.000662039,0.18903887,-0.026442554,5.9323924e-05,-9.646487,16.177692,0.24974075,0.22407459,0.11097588,0.06485685,inf,inf,inf,inf,1,1,1,1,3,2,3,2,3,1,1,1,0,0,0
259042385,259041729,42042859,60.1877325,24.832678599999998,-5.450016,-13.841947,-19.003624,0.2201162,0.143384,-2.0861626e-07,0.28755718,0.5723868,-0.23043989,-0.12320202,-0.025945434,0.04994766,0.011585729,1.6558604,3.1474576,-0.66073334,-1.9605671,0.0006643851,0.18502724,-0.026442554,5.9029953e-05,-9.646487,16.287903,0.24971099,0.22454935,0.10916039,0.06479263,inf,inf,inf,inf,1,1,1,1,3,2,3,2,3,1,1,1,0,0,0
259542383,259541729,42042859,60.1877325,24.832678599999998,-5.3267136,-13.479318,-19.057356,0.2201162,0.143384,-2.0861626e-07,0.17585252,0.78697044,-0.034214754,0.039809756,-0.025945434,0.04994766,0.011585729,0.023291625,0.61238325,0.5939005,-1.9570495,0.0006659172,0.18837315,-0.026442554,5.9138394e-05,-9.646487,16.341635,0.24966791,0.2245427,0.108543344,0.06472338,inf,inf,inf,inf,1,1,1,1,3,2,3,2,3,1,1,1,0,0,0
260042372,260041729,42042859,60.1877325,24.832678599999998,-5.243119,-13.039772,-19.042816,0.2201162,0.143384,-2.0861626e-07,0.06819268,0.88337016,0.08075867,0.121529624,-0.025945434,0.04994766,0.011585729,1.4853476,1.528567,1.3063049,-1.9452904,0.00066917937,0.19995742,-0.026442554,5.9477097e-05,-9.646487,16.327095,0.24952671,0.22444917,0.107742086,0.06462664,inf,inf,inf,inf,1,1,1,1,3,2,3,2,3,1,1,1,0,0,0
260542416,260541729,42042859,60.1877325,24.832678599999998,-5.251006,-12.592457,-18.971457,0.2201162,0.143384,-2.0861626e-07,-0.08403642,0.8315382,0.16074643,0.18035509,-0.025945434,0.04994766,0.011585729,1.9144627,-3.618176,-2.9628048,-1.9700843,0.0006748735,0.17568542,-0.026442554,5.9891296e-05,-9.646487,16.255735,0.24936312,0.22476456,0.107229285,0.064589284,inf,inf,inf,inf,1,1,1,1,3,2,3,2,3,1,1,1,0,0,0
261042416,261041729,42042859,60.1877325,24.832678599999998,-5.3118563,-12.179374,-18.88427,0.2201162,0.143384,-2.0861626e-07,-0.22213943,0.80926925,0.24551998,0.25795236,-0.025945434,0.04994766,0.011585729,-1.950055,-0.5866163,1.347473,-1.9921081,0.0006823173,0.15207349,-0.026442554,6.023103e-05,-9.646487,16.168549,0.2491882,0.2245751,0.107430845,0.06450654,inf,inf,inf,inf,1,1,1,1,3,2,3,2,3,1,1,1,0,0,0
261542383,261541729,42042859,60.1877325,24.832678599999998,-5.4618225,-11.757418,-18.778002,0.2201162,0.143384,-2.0861626e-07,-0.37764725,0.7432665,0.15332067,0.16942976,-0.025945434,0.04994766,0.011585729,-0.16287781,-2.1489172,-3.3312883,-1.9509636,0.0006895225,0.1968299,-0.026442554,6.05333e-05,-9.646487,16.06228,0.24901164,0.22434843,0.10786206,0.064447306,inf,inf,inf,inf,1,1,1,1,3,2,3,2,3,1,1,1,0,0,0
262042346,262041729,42042859,60.1877325,24.832678599999998,-5.6393147,-11.413322,-18.716547,0.2201162,0.143384,-2.0861626e-07,-0.31486082,0.52235025,0.012392216,0.04219005,-0.025945434,0.04994766,0.011585729,-1.4751236,-0.61184865,-1.3150537,-1.9508878,0.00069612864,0.20011099,-0.026442554,6.062024e-05,-9.646487,16.000826,0.2488733,0.22455432,0.10844006,0.06444889,inf,inf,inf,inf,1,1,1,1,3,2,3,2,3,1,1,1,0,0,0
262542347,262541729,42042859,60.1877325,24.832678599999998,-5.749001,-11.201904,-18.690147,0.2201162,0.143384,-2.0861626e-07,-0.1397595,0.29287833,-0.027247682,0.021510579,-0.025945434,0.04994766,0.011585729,1.3689859,1.649867,-2.5113196,-1.935623,0.00070060825,0.21441557,-0.026442554,6.0480692e-05,-9.646487,15.974426,0.2487902,0.22429568,0.10906562,0.06442344,inf,inf,inf,inf,1,1,1,1,3,2,3,2,3,1,1,1,0,0,0
263042379,263041729,42042859,60.1877325,24.832678599999998,-5.7884364,-11.129514,-18.654594,0.2201162,0.143384,-2.0861626e-07,-0.007543623,0.033937775,0.0057960087,0.06248225,-0.025945434,0.04994766,0.011585729,-3.6299632,-0.72013223,1.1933876,-1.91769,0.0007011425,0.23182265,-0.026442554,6.032399e-05,-9.646487,15.938873,0.24873063,0.22403438,0.10942533,0.06441844,inf,inf,inf,inf,1,1,1,1,3,2,3,2,3,1,1,1,0,0,0
263542508,263541733,42042859,60.1877325,24.832678599999998,-5.7478137,-11.175742,-18.633484,0.2201162,0.143384,-2.0861626e-07,0.11658287,-0.16036698,-0.013819021,0.039268814,-0.025945434,0.04994766,0.011585729,-0.62752706,1.1528006,-0.6924576,-1.9036156,0.00069839513,0.24312614,-0.026442554,6.022316e-05,-9.646487,15.917763,0.24870189,0.22377919,0.10964706,0.06442091,inf,inf,inf,inf,1,1,1,1,3,2,3,2,3,1,1,1,0,0,0
264042354,264041729,42042859,60.1877325,24.832678599999998,-5.7070084,-11.265742,-18.635887,0.2201162,0.143384,-2.0861626e-07,0.054590452,-0.14961247,-0.06949734,-0.027124505,-0.025945434,0.04994766,0.011585729,-0.08349426,0.5601323,-3.6948097,-1.9159304,0.0006972052,0.2305279,-0.026442554,6.0155566e-05,-9.646487,15.920166,0.24871807,0.22399972,0.10905719,0.064445004,inf,inf,inf,inf,1,1,1,1,3,2,3,2,3,1,1,1,0,0,0
264542392,264541729,42042859,60.1877325,24.832678599999998,-5.6503687,-11.468188,-18.7145,0.2201162,0.143384,-2.0861626e-07,0.141707,-0.6803493,-0.14802268,-0.11219185,-0.025945434,0.04994766,0.011585729,0.18483199,-0.9364372,-1.0555857,-1.9618788,0.0006992413,0.18653572,-0.026442554,6.0035603e-05,-9.646487,15.998779,0.24877645,0.22379158,0.109676264,0.06445056,inf,inf,inf,inf,1,1,1,1,3,2,3,2,3,1,1,1,0,0,0
265042424,265041729,42042859,60.1877325,24.832678599999998,-5.5938644,-11.921831,-18.743095,0.2201162,0.143384,-2.0861626e-07,0.08157736,-1.0665479,-0.008129952,0.031602673,-0.025945434,0.04994766,0.011585729,1.3785421,-0.6092225,0.90090686,-1.9707175,0.0006942895,0.17621411,-0.026442554,6.0081366e-05,-9.646487,16.027374,0.24886408,0.22361499,0.10958975,0.06448832,inf,inf,inf,inf,1,1,1,1,3,2,3,2,3,1,1,1,0,0,0
265542198,265541729,42042859,60.1877325,24.832678599999998,-5.5776696,-12.546112,-18.708569,0.2201162,0.143384,-2.0861626e-07,-0.0011460552,-1.2861245,-0.0025480248,0.0365553,-0.025945434,0.04994766,0.011585729,3.3633888,1.4863267,-0.0045532393,-1.9646618,0.00068915274,0.17783438,-0.026442554,6.0423747e-05,-9.646487,15.992847,0.24902593,0.22394216,0.109219,0.064569965,inf,inf,inf,inf,1,1,1,1,3,2,3,2,3,1,1,1,0,0,0
266042167,266041729,42042859,60.1877325,24.832678599999998,-5.6176615,-13.216546,-18.690489,0.2201162,0.143384,-2.0861626e-07,-0.07998295,-1.272773,0.0014844848,0.040570345,-0.025945434,0.04994766,0.011585729,2.3682153,2.5422602,1.5048912,-1.9568717,0.00069005304,0.18519418,-0.026442554,6.070812e-05,-9.646487,15.974768,0.24912636,0.22380671,0.10850632,0.064550355,inf,inf,inf,inf,1,1,1,1,3,2,3,2,3,1,1,1,0,0,0
266542348,266541729,42042859,60.1877325,24.832678599999998,-5.667337,-13.792362,-18.6689,0.2201162,0.143384,-2.0861626e-07,-0.069601625,-0.94977975,-0.011236017,0.030579882,-0.025945434,0.04994766,0.011585729,-0.7095071,0.14045754,-0.7680865,-1.9567809,0.0006969925,0.18538329,-0.026442554,6.0810686e-05,-9.646487,15.953178,0.24918686,0.22366506,0.108126976,0.06449421,inf,inf,inf,inf,1,1,1,1,3,2,3,2,3,1,1,1,0,0,0
267042191,267041729,42042859,60.1877325,24.832678599999998,-5.719225,-14.171117,-18.66163,0.2201162,0.143384,-2.0861626e-07,-0.044822264,-0.522777,-0.03895484,0.0038501853,-0.025945434,0.04994766,0.011585729,1.9356651,1.6752446,1.503401,-1.9675846,0.000700855,0.1741638,-0.026442554,6.067568e-05,-9.646487,15.9459095,0.24931018,0.22401898,0.109160095,0.06452363,inf,inf,inf,inf,1,1,1,1,3,2,3,2,3,1,1,1,0,0,0
267542193,267541729,42042859,60.1877325,24.832678599999998,-5.762156,-14.356033,-18.654833,0.2201162,0.143384,-2.0861626e-07,-0.061167497,-0.18702412,-0.05123004,-0.004359571,-0.025945434,0.04994766,0.011585729,0.6302785,-0.63882715,1.7119719,-1.9492487,0.0006940366,0.19220957,-0.026442554,6.039856e-05,-9.646487,15.939112,0.2494564,0.22394152,0.11037909,0.064523175,inf,inf,inf,inf,1,1,1,1,3,2,3,2,3,1,1,1,0,0,0
268042344,268041729,42042859,60.1877325,24.832678599999998,-5.8017073,-14.379836,-18.648632,0.2201162,0.143384,-2.0861626e-07,-0.03022378,0.0458583,-0.044630498,0.005074451,-0.025945434,0.04994766,0.011585729,0.20576923,0.7004443,-0.48549193,-1.9397763,0.0006809701,0.20116402,-0.026442554,6.0158425e-05,-9.646487,15.932911,0.24955744,0.22385581,0.1107299,0.06450576,inf,inf,inf,inf,1,1,1,1,3,2,3,2,3,1,1,1,0,0,0
268542185,268541729,42042859,60.1877325,24.832678599999998,-5.807471,-14.309289,-18.651974,0.2201162,0.143384,-2.0861626e-07,0.023468815,0.16383672,-0.036763765,0.014139519,-0.025945434,0.04994766,0.011585729,1.0286889,1.0863714,2.94506,-1.9531875,0.00066933985,0.18796113,-0.026442554,6.003948e-05,-9.646487,15.936253,0.24966708,0.22420889,0.11041358,0.06452965,inf,inf,inf,inf,1,1,1,1,3,2,3,2,3,1,1,1,0,0,0
269042198,269041729,42042859,60.1877325,24.832678599999998,-5.8053365,-14.17696,-18.65324,0.2201162,0.143384,-2.0861626e-07,0.024911096,0.41721585,-0.10122278,-0.054071385,-0.025945434,0.04994766,0.011585729,-1.6889244,-0.66927195,1.402775,-1.9080881,0.00066379,0.23535143,-0.026442554,6.0044476e-05,-9.646487,15.937519,0.24976215,0.22409806,0.10972667,0.06451058,inf,inf,inf,inf,1,1,1,1,3,2,3,2,3,1,1,1,0,0,0
269542190,269541729,42042859,60.1877325,24.832678599999998,-5.773508,-13.817403,-18.673336,0.2201162,0.143384,-2.0861626e-07,0.110611275,0.8477725,-0.02596682,0.016155254,-0.025945434,0.04994766,0.011585729,-0.9624377,-2.0732543,-0.7379638,-1.5584005,0.0006551476,0.581016,-0.026442554,6.0076723e-05,-9.646487,15.957615,0.24987602,0.22399442,0.11087477,0.06453137,inf,inf,inf,inf,1,1,1,1,3,2,3,2,3,1,1,1,0,0,0
270042246,270041729,42042859,60.1877325,24.832678599999998,-5.7462807,-13.385816,-18.670977,0.2201162,0.143384,-2.0861626e-07,0.13474125,0.7831996,-0.020680519,0.010748793,-0.025945434,0.04994766,0.011585729,-1.472244,0.6604934,-2.20973,-1.1141999,0.00064910064,1.0234866,-0.026442554,5.997876e-05,-9.646487,15.9552555,0.25000268,0.22389518,0.11013559,0.0644958,inf,inf,inf,inf,1,1,1,1,3,2,3,2,3,1,1,1,0,0,0
270542157,270541729,42042859,60.1877325,24.832678599999998,-5.7044353,-13.0477295,-18.666796,0.2201162,0.143384,-2.0861626e-07,0.1476147,0.54137576,-0.02479981,0.0024476405,-0.025945434,0.04994766,0.011585729,0.3032274,-1.4004409,-1.1890905,-0.60806537,0.0006555339,1.5285306,-0.026442554,5.8503196e-05,-9.646487,15.951075,0.25003788,0.22420791,0.11212949,0.06447888,inf,inf,inf,inf,1,1,1,1,3,2,3,2,3,1,1,1,0,0,0
271042422,271041729,42042859,60.1877325,24.832678599999998,-5.6758,-12.82916,-18.667557,0.2201162,0.143384,-2.0861626e-07,0.09918622,0.33601296,-0.034675654,-0.008657645,-0.025945434,0.04994766,0.011585729,-0.37194794,-0.29565063,1.1993905,-0.08287054,0.0006655261,2.0537868,-0.026442554,5.408388e-05,-9.646487,15.951836,0.25003773,0.22403815,0.118374795,0.06445829,inf,inf,inf,inf,1,1,1,1,3,2,3,2,3,1,1,1,0,0,0
272042351,272041729,42042859,60.1877325,24.832678599999998,-5.639736,-12.743528,-18.698593,0.2201162,0.143384,-2.0861626e-07,0.08540387,0.060026728,-0.027964694,-0.0054505523,-0.025945434,0.04994766,0.011585729,-0.38934577,-1.0729814,1.725634,0.8855332,0.0006791739,3.0216064,-0.026442554,3.837931e-05,-9.646487,15.982872,0.25043306,0.2242197,0.13171378,0.06462332,inf,inf,inf,inf,1,1,1,1,3,2,3,2,3,1,1,1,0,0,0
272542344,272541729,42042859,60.1877325,24.832678599999998,-5.5978246,-12.761799,-18.706835,0.2201162,0.143384,-2.0861626e-07,0.090330064,0.037280157,-0.054260544,-0.03155101,-0.025945434,0.04994766,0.011585729,-0.2780421,1.6783496,0.0066010254,1.3621818,0.00068658823,-2.785909,-0.026442554,3.102815e-05,-9.646487,15.991114,0.25055182,0.22405921,0.13247563,0.06457824,inf,inf,inf,inf,1,1,1,1,3,2,3,2,3,1,1,1,0,0,0
273042349,273041729,42042859,60.1877325,24.832678599999998,-5.5750294,-12.80245,-18.720407,0.2201162,0.143384,-2.0861626e-07,0.052630246,0.025361802,-0.020824172,-0.0034392239,-0.025945434,0.04994766,0.011585729,0.21235488,-0.7952342,-1.2663165,1.8555928,0.0006950514,-2.2925513,-0.026442554,2.585015e-05,-9.646487,16.004686,0.25078014,0.22395048,0.1304407,0.06454614,inf,inf,inf,inf,1,1,1,1,3,2,3,2,3,1,1,1,0,0,0
274042380,274041729,42042859,60.1877325,24.832678599999998,-5.580816,-12.781131,-18.71698,0.2201162,0.143384,-2.0861626e-07,-0.0096306205,0.07525283,0.031165177,0.03263615,-0.025945434,0.04994766,0.011585729,-1.0226516,-1.8098321,1.8883494,2.769883,0.000712109,-1.3780301,-0.026442554,2.1004787e-05,-9.646487,16.001259,0.2536374,0.22528163,0.12455754,0.06498919,inf,inf,inf,inf,1,1,1,1,3,2,3,2,3,1,1,1,0,0,0
274542348,274541729,42042859,60.1877325,24.832678599999998,-5.603504,-12.765831,-18.706223,0.2201162,0.143384,-2.0861626e-07,-0.008736428,0.02029866,0.006175511,0.010895913,-0.025945434,0.04994766,0.011585729,0.9538185,-2.452759,0.05512218,-3.0169196,0.0007194739,-0.88144094,-0.026442554,2.008972e-05,-9.646487,15.990501,0.25489247,0.22581446,0.12082317,0.06516062,inf,inf,inf,inf,1,1,1,1,3,2,3,2,3,1,1,1,0,0,0
275042370,275041729,42042859,60.1877325,24.832678599999998,-5.6041584,-12.759844,-18.699137,0.2201162,0.143384,-2.0861626e-07,0.017048545,-0.021056565,0.028501458,0.029972771,-0.025945434,0.04994766,0.011585729,0.14938661,0.8499354,-0.5462641,-2.4896944,0.0007257059,-0.35384116,-0.026442554,1.9769257e-05,-9.646487,15.983416,0.25656825,0.22663665,0.1176419,0.06543784,inf,inf,inf,inf,1,1,1,1,3,2,3,2,3,1,1,1,0,0,0
275542382,275541729,42042859,60.1877325,24.832678599999998,-5.5874367,-12.782961,-18.708765,0.2201162,0.143384,-2.0861626e-07,0.057137545,-0.085440665,-0.02905593,-0.03137532,-0.025945434,0.04994766,0.011585729,-0.12148947,0.47071725,0.4231764,-1.9618915,0.0007307122,0.17420505,-0.026442554,1.9459569e-05,-9.646487,15.993044,0.25654262,0.22749868,0.11270745,0.06535967,inf,inf,inf,inf,1,1,1,1,3,2,3,2,3,1,1,1,0,0,0
276042203,276041729,42042859,60.1877325,24.832678599999998,-5.61278,-12.832402,-18.706545,0.2201162,0.143384,-2.0861626e-07,0.022176228,-0.035710923,-0.0033839366,0.0042880336,-0.025945434,0.04994766,0.011585729,2.0809746,-3.097296,1.8370268,-1.5093267,0.0007353013,0.6280065,-0.026442554,1.9592233e-05,-9.646487,15.990824,0.25807106,0.22852266,0.11120626,0.06564697,inf,inf,inf,inf,1,1,1,1,3,2,3,2,3,1,1,1,0,0,0
276542212,276541729,42042859,60.1877325,24.832678599999998,-5.6309485,-12.875633,-18.696274,0.2201162,0.143384,-2.0861626e-07,0.028427944,0.012221628,0.004610681,0.018131273,-0.025945434,0.04994766,0.011585729,1.5716476,0.69018334,2.496182,-1.0071201,0.00074092136,1.1315308,-0.026442554,1.9701507e-05,-9.646487,15.980553,0.25935262,0.22946467,0.110430814,0.065827146,inf,inf,inf,inf,1,1,1,1,3,2,3,2,3,1,1,1,0,0,0
277042160,277041729,42042859,60.1877325,24.832678599999998,-5.6325064,-12.902509,-18.68519,0.2201162,0.143384,-2.0861626e-07,0.009260741,-0.0027904124,-0.027714608,-0.010063408,-0.025945434,0.04994766,0.011585729,-0.7884165,0.90680027,-0.17652604,-0.5041198,0.0007480757,1.6357049,-0.026442554,1.9635354e-05,-9.646487,15.969469,0.25933567,0.23031579,0.10913619,0.06571044,inf,inf,inf,inf,1,1,1,1,3,2,3,2,3,1,1,1,0,0,0
277542425,277541729,42042859,60.1877325,24.832678599999998,-5.597636,-12.94131,-18.666443,0.2201162,0.143384,-2.0861626e-07,0.12952721,-0.027286762,-0.03317024,-0.0067651565,-0.025945434,0.04994766,0.011585729,-1.3335998,-1.45669,-4.2034445,-0.1383785,0.0007573564,2.002435,-0.026442554,1.9524672e-05,-9.646487,15.950722,0.25859776,0.23020989,0.108047016,0.06537715,inf,inf,inf,inf,1,1,1,1,3,2,3,2,3,1,1,1,0,0,0
