timestamp,timestamp_sample,q[0],q[1],q[2],q[3],delta_q_reset[0],delta_q_reset[1],delta_q_reset[2],delta_q_reset[3],quat_reset_counter
200067033,200066733,-0.4579672,0.011656888,-0.012919379,0.88879883,0.9999934,-6.8016615e-10,1.4617427e-09,0.0036482369,2
200072080,200071732,-0.4579651,0.011658539,-0.012922042,0.88879985,0.9999934,-6.8016615e-10,1.4617427e-09,0.0036482369,2
200077043,200076729,-0.45796338,0.01165767,-0.012921831,0.88880074,0.9999934,-6.8016615e-10,1.4617427e-09,0.0036482369,2
200082023,200081730,-0.4579633,0.0116573265,-0.012923732,0.88880074,0.9999934,-6.8016615e-10,1.4617427e-09,0.0036482369,2
200087020,200086730,-0.45796326,0.011658421,-0.012926023,0.8888007,0.9999934,-6.8016615e-10,1.4617427e-09,0.0036482369,2
200217022,200216730,-0.45800793,0.011669151,-0.012927599,0.8887775,0.9999934,-6.8016615e-10,1.4617427e-09,0.0036482369,2
200222023,200221729,-0.45798945,0.011651891,-0.0129324095,0.8887872,0.9999934,-6.8016615e-10,1.4617427e-09,0.0036482369,2
200227021,200226729,-0.45796937,0.011657054,-0.012937849,0.8887974,0.9999934,-6.8016615e-10,1.4617427e-09,0.0036482369,2
200232034,200231730,-0.4579468,0.011648679,-0.01293681,0.88880914,0.9999934,-6.8016615e-10,1.4617427e-09,0.0036482369,2
200237071,200236730,-0.4579388,0.011646832,-0.01294352,0.8888132,0.9999934,-6.8016615e-10,1.4617427e-09,0.0036482369,2
200242028,200241730,-0.45793486,0.011629537,-0.012946921,0.8888155,0.9999934,-6.8016615e-10,1.4617427e-09,0.0036482369,2
200247031,200246731,-0.4579343,0.011629415,-0.012949259,0.88881564,0.9999934,-6.8016615e-10,1.4617427e-09,0.0036482369,2
200252042,200251731,-0.4579446,0.0116206445,-0.01295111,0.88881046,0.9999934,-6.8016615e-10,1.4617427e-09,0.0036482369,2
200257042,200256730,-0.45795864,0.011621627,-0.012948611,0.88880324,0.9999934,-6.8016615e-10,1.4617427e-09,0.0036482369,2
200262021,200261730,-0.45797685,0.011617954,-0.012951806,0.8887939,0.9999934,-6.8016615e-10,1.4617427e-09,0.0036482369,2
200267021,200266730,-0.45799342,0.0116257975,-0.012944597,0.88878536,0.9999934,-6.8016615e-10,1.4617427e-09,0.0036482369,2
200272066,200271729,-0.45800385,0.0116310865,-0.0129521815,0.8887797,0.9999934,-6.8016615e-10,1.4617427e-09,0.0036482369,2
200277045,200276730,-0.45801222,0.011638305,-0.012948039,0.88877547,0.9999934,-6.8016615e-10,1.4617427e-09,0.0036482369,2
200282016,200281729,-0.4580125,0.011642797,-0.012954752,0.88877517,0.9999934,-6.8016615e-10,1.4617427e-09,0.0036482369,2
200287027,200286730,-0.45800632,0.011650503,-0.0129453605,0.88877827,0.9999934,-6.8016615e-10,1.4617427e-09,0.0036482369,2
200292063,200291729,-0.45799008,0.011649885,-0.012950232,0.8887866,0.9999934,-6.8016615e-10,1.4617427e-09,0.0036482369,2
200297022,200296729,-0.45797545,0.011648832,-0.01294526,0.88879424,0.9999934,-6.8016615e-10,1.4617427e-09,0.0036482369,2
200302017,200301730,-0.4579579,0.011655124,-0.012947133,0.8888032,0.9999934,-6.8016615e-10,1.4617427e-09,0.0036482369,2
200307035,200306730,-0.45794043,0.01164602,-0.012945686,0.88881236,0.9999934,-6.8016615e-10,1.4617427e-09,0.0036482369,2
200312118,200311729,-0.45793027,0.011645744,-0.012946152,0.8888176,0.9999934,-6.8016615e-10,1.4617427e-09,0.0036482369,2
200317030,200316736,-0.45792493,0.011638616,-0.012941059,0.8888205,0.9999934,-6.8016615e-10,1.4617427e-09,0.0036482369,2
200322015,200321730,-0.4579307,0.011630737,-0.012945459,0.8888175,0.9999934,-6.8016615e-10,1.4617427e-09,0.0036482369,2
200327021,200326729,-0.45794082,0.011628113,-0.012948995,0.8888124,0.9999934,-6.8016615e-10,1.4617427e-09,0.0036482369,2
200332063,200331734,-0.45795777,0.0116144745,-0.012953652,0.88880366,0.9999934,-6.8016615e-10,1.4617427e-09,0.0036482369,2
200337026,200336733,-0.45797744,0.011614498,-0.012958878,0.8887936,0.9999934,-6.8016615e-10,1.4617427e-09,0.0036482369,2
200342069,200341730,-0.45799384,0.011605169,-0.012965655,0.888785,0.9999934,-6.8016615e-10,1.4617427e-09,0.0036482369,2
200347031,200346730,-0.4580078,0.011609381,-0.012968287,0.8887778,0.9999934,-6.8016615e-10,1.4617427e-09,0.0036482369,2
200352069,200351730,-0.4580136,0.011613078,-0.012969393,0.8887748,0.9999934,-6.8016615e-10,1.4617427e-09,0.0036482369,2
200357055,200356730,-0.45801267,0.011619927,-0.012969603,0.88877517,0.9999934,-6.8016615e-10,1.4617427e-09,0.0036482369,2
200372074,200371729,-0.45797884,0.011620398,-0.012954149,0.8887928,0.9999934,-6.8016615e-10,1.4617427e-09,0.0036482369,2
200377021,200376730,-0.45796013,0.011624827,-0.012952051,0.8888024,0.9999934,-6.8016615e-10,1.4617427e-09,0.0036482369,2
200382018,200381730,-0.45794326,0.011630237,-0.012948267,0.8888111,0.9999934,-6.8016615e-10,1.4617427e-09,0.0036482369,2
200387064,200386733,-0.45793507,0.01163449,-0.012947394,0.8888153,0.9999934,-6.8016615e-10,1.4617427e-09,0.0036482369,2
200392033,200391729,-0.457931,0.011643191,-0.012948243,0.88881713,0.9999934,-6.8016615e-10,1.4617427e-09,0.0036482369,2
200397024,200396730,-0.4579347,0.011637661,-0.01295381,0.8888153,0.9999934,-6.8016615e-10,1.4617427e-09,0.0036482369,2
200402042,200401729,-0.45794737,0.011630348,-0.01294404,0.888809,0.9999934,-6.8016615e-10,1.4617427e-09,0.0036482369,2
200407062,200406729,-0.4579631,0.011622647,-0.012940808,0.88880104,0.9999934,-6.8016615e-10,1.4617427e-09,0.0036482369,2
200412032,200411730,-0.45798418,0.011609808,-0.012940318,0.8887903,0.9999934,-6.8016615e-10,1.4617427e-09,0.0036482369,2
200417023,200416730,-0.45800364,0.011597396,-0.012952497,0.8887804,0.9999934,-6.8016615e-10,1.4617427e-09,0.0036482369,2
200422022,200421730,-0.45801544,0.01159164,-0.012957937,0.88877416,0.9999934,-6.8016615e-10,1.4617427e-09,0.0036482369,2
200427023,200426730,-0.45802587,0.011595958,-0.012972829,0.88876855,0.9999934,-6.8016615e-10,1.4617427e-09,0.0036482369,2
200432034,200431730,-0.45802417,0.011599319,-0.012981416,0.8887694,0.9999934,-6.8016615e-10,1.4617427e-09,0.0036482369,2
200437023,200436731,-0.45800886,0.011601236,-0.0129747,0.8887773,0.9999934,-6.8016615e-10,1.4617427e-09,0.0036482369,2
200442127,200441730,-0.45799306,0.011601773,-0.012962993,0.8887855,0.9999934,-6.8016615e-10,1.4617427e-09,0.0036482369,2
200447050,200446730,-0.457975,0.011603717,-0.012952623,0.88879496,0.9999934,-6.8016615e-10,1.4617427e-09,0.0036482369,2
200452079,200451731,-0.4579553,0.01160512,-0.012944924,0.8888053,0.9999934,-6.8016615e-10,1.4617427e-09,0.0036482369,2
200457028,200456730,-0.4579388,0.011612034,-0.012951295,0.8888136,0.9999934,-6.8016615e-10,1.4617427e-09,0.0036482369,2
200462019,200461729,-0.45792452,0.0116170645,-0.012961534,0.88882077,0.9999934,-6.8016615e-10,1.4617427e-09,0.0036482369,2
200467027,200466730,-0.4579243,0.011613374,-0.012962993,0.88882077,0.9999934,-6.8016615e-10,1.4617427e-09,0.0036482369,2
200472079,200471730,-0.4579366,0.011609505,-0.012966505,0.88881445,0.9999934,-6.8016615e-10,1.4617427e-09,0.0036482369,2
200477047,200476729,-0.4579592,0.0116084,-0.012963272,0.8888029,0.9999934,-6.8016615e-10,1.4617427e-09,0.0036482369,2
200482017,200481729,-0.45798078,0.011598476,-0.012961172,0.88879204,0.9999934,-6.8016615e-10,1.4617427e-09,0.0036482369,2
200487022,200486730,-0.4580077,0.011609234,-0.012967159,0.88877785,0.9999934,-6.8016615e-10,1.4617427e-09,0.0036482369,2
200492038,200491730,-0.45803365,0.011612137,-0.01297215,0.8887644,0.9999934,-6.8016615e-10,1.4617427e-09,0.0036482369,2
200497076,200496753,-0.45803994,0.011614436,-0.012961943,0.8887613,0.9999934,-6.8016615e-10,1.4617427e-09,0.0036482369,2
200502051,200501730,-0.45804536,0.011619988,-0.012964247,0.88875836,0.9999934,-6.8016615e-10,1.4617427e-09,0.0036482369,2
200507033,200506730,-0.458033,0.011623313,-0.012964528,0.8887647,0.9999934,-6.8016615e-10,1.4617427e-09,0.0036482369,2
200512032,200511730,-0.45801482,0.011623896,-0.012979649,0.8887738,0.9999934,-6.8016615e-10,1.4617427e-09,0.0036482369,2
200517022,200516732,-0.4579852,0.011620867,-0.0129821915,0.8887891,0.9999934,-6.8016615e-10,1.4617427e-09,0.0036482369,2
200522018,200521729,-0.45796213,0.011606533,-0.012990567,0.8888011,0.9999934,-6.8016615e-10,1.4617427e-09,0.0036482369,2
200527019,200526730,-0.4579426,0.011598483,-0.012983156,0.88881135,0.9999934,-6.8016615e-10,1.4617427e-09,0.0036482369,2
200532031,200531729,-0.45793352,0.011593186,-0.012977191,0.8888162,0.9999934,-6.8016615e-10,1.4617427e-09,0.0036482369,2
200537022,200536729,-0.45794597,0.011589157,-0.012994781,0.88880956,0.9999934,-6.8016615e-10,1.4617427e-09,0.0036482369,2
200542043,200541729,-0.45795256,0.01159817,-0.012991379,0.8888061,0.9999934,-6.8016615e-10,1.4617427e-09,0.0036482369,2
200547063,200546730,-0.45797122,0.011599264,-0.012987124,0.8887965,0.9999934,-6.8016615e-10,1.4617427e-09,0.0036482369,2
200552034,200551729,-0.45798662,0.011608458,-0.012982555,0.8887885,0.9999934,-6.8016615e-10,1.4617427e-09,0.0036482369,2
200557034,200556730,-0.45800847,0.011620711,-0.012974004,0.8887772,0.9999934,-6.8016615e-10,1.4617427e-09,0.0036482369,2
200562019,200561729,-0.45802495,0.01163024,-0.012982733,0.88876855,0.9999934,-6.8016615e-10,1.4617427e-09,0.0036482369,2
200567047,200566730,-0.45803103,0.011633609,-0.012992208,0.8887651,0.9999934,-6.8016615e-10,1.4617427e-09,0.0036482369,2
200572098,200571730,-0.4580305,0.011626124,-0.012992032,0.88876563,0.9999934,-6.8016615e-10,1.4617427e-09,0.0036482369,2
200577046,200576730,-0.45802903,0.011621723,-0.013002488,0.8887661,0.9999934,-6.8016615e-10,1.4617427e-09,0.0036482369,2
200582016,200581730,-0.4580304,0.011613029,-0.013018126,0.88876545,0.9999934,-6.8016615e-10,1.4617427e-09,0.0036482369,2
200587027,200586730,-0.45801854,0.011623098,-0.013016448,0.8887713,0.9999934,-6.8016615e-10,1.4617427e-09,0.0036482369,2
200592039,200591729,-0.45801038,0.011609501,-0.013014046,0.8887759,0.9999934,-6.8016615e-10,1.4617427e-09,0.0036482369,2
200597023,200596730,-0.45799217,0.011625715,-0.012993322,0.8887853,0.9999934,-6.8016615e-10,1.4617427e-09,0.0036482369,2
200602017,200601729,-0.4579819,0.011626678,-0.01298449,0.8887907,0.9999934,-6.8016615e-10,1.4617427e-09,0.0036482369,2
200607032,200606729,-0.45796746,0.011630358,-0.012985398,0.88879806,0.9999934,-6.8016615e-10,1.4617427e-09,0.0036482369,2
200612031,200611729,-0.45796072,0.011622679,-0.0129853245,0.88880163,0.9999934,-6.8016615e-10,1.4617427e-09,0.0036482369,2
200617017,200616729,-0.45796657,0.01160968,-0.012988097,0.8887987,0.9999934,-6.8016615e-10,1.4617427e-09,0.0036482369,2
200622017,200621730,-0.457974,0.011606719,-0.013001719,0.8887948,0.9999934,-6.8016615e-10,1.4617427e-09,0.0036482369,2
200627026,200626730,-0.4579945,0.011602449,-0.0130076045,0.88878417,0.9999934,-6.8016615e-10,1.4617427e-09,0.0036482369,2
200632036,200631730,-0.45801952,0.011593682,-0.013027413,0.8887711,0.9999934,-6.8016615e-10,1.4617427e-09,0.0036482369,2
200637018,200636730,-0.45803925,0.011594153,-0.013028285,0.8887609,0.9999934,-6.8016615e-10,1.4617427e-09,0.0036482369,2
200642060,200641730,-0.45805714,0.011599652,-0.013023095,0.8887517,0.9999934,-6.8016615e-10,1.4617427e-09,0.0036482369,2
200647068,200646730,-0.45806053,0.011604887,-0.013002786,0.88875026,0.9999934,-6.8016615e-10,1.4617427e-09,0.0036482369,2
200652066,200651729,-0.4580565,0.0116173355,-0.013002128,0.88875204,0.9999934,-6.8016615e-10,1.4617427e-09,0.0036482369,2
200657059,200656732,-0.45803785,0.011634786,-0.013012529,0.8887614,0.9999934,-6.8016615e-10,1.4617427e-09,0.0036482369,2
200662017,200661730,-0.45801595,0.0116343275,-0.013015224,0.8887726,0.9999934,-6.8016615e-10,1.4617427e-09,0.0036482369,2
200667024,200666730,-0.45799926,0.011624432,-0.013021972,0.88878125,0.9999934,-6.8016615e-10,1.4617427e-09,0.0036482369,2
200672080,200671729,-0.45799062,0.011626812,-0.013019612,0.88878566,0.9999934,-6.8016615e-10,1.4617427e-09,0.0036482369,2
200677048,200676729,-0.45799628,0.011615582,-0.013029471,0.88878274,0.9999934,-6.8016615e-10,1.4617427e-09,0.0036482369,2
200682015,200681730,-0.45799923,0.011605028,-0.013025827,0.8887814,0.9999934,-6.8016615e-10,1.4617427e-09,0.0036482369,2
200687027,200686730,-0.4580046,0.011606657,-0.013015778,0.8887788,0.9999934,-6.8016615e-10,1.4617427e-09,0.0036482369,2
200692030,200691729,-0.45801544,0.011608486,-0.013000592,0.88877344,0.9999934,-6.8016615e-10,1.4617427e-09,0.0036482369,2
200697077,200696763,-0.45802313,0.011613655,-0.013003227,0.8887694,0.9999934,-6.8016615e-10,1.4617427e-09,0.0036482369,2
200702044,200701729,-0.45802286,0.011628906,-0.013010184,0.8887692,0.9999934,-6.8016615e-10,1.4617427e-09,0.0036482369,2
200707061,200706729,-0.45803,0.011627677,-0.013017369,0.88876545,0.9999934,-6.8016615e-10,1.4617427e-09,0.0036482369,2
200712079,200711730,-0.45803773,0.011628454,-0.013029522,0.8887613,0.9999934,-6.8016615e-10,1.4617427e-09,0.0036482369,2
200717095,200716772,-0.45805416,0.011624579,-0.013049392,0.88875246,0.9999934,-6.8016615e-10,1.4617427e-09,0.0036482369,2
200722044,200721730,-0.45807138,0.011619727,-0.013048233,0.8887437,0.9999934,-6.8016615e-10,1.4617427e-09,0.0036482369,2
200727020,200726730,-0.45806995,0.011616934,-0.013048933,0.8887445,0.9999934,-6.8016615e-10,1.4617427e-09,0.0036482369,2
200732066,200731731,-0.45806947,0.011614701,-0.013037504,0.8887449,0.9999934,-6.8016615e-10,1.4617427e-09,0.0036482369,2
200737022,200736731,-0.4580573,0.011604743,-0.013024009,0.8887515,0.9999934,-6.8016615e-10,1.4617427e-09,0.0036482369,2
200742027,200741730,-0.45803913,0.0116228005,-0.013018106,0.8887608,0.9999934,-6.8016615e-10,1.4617427e-09,0.0036482369,2
200747024,200746730,-0.45802057,0.011622107,-0.013020257,0.88877034,0.9999934,-6.8016615e-10,1.4617427e-09,0.0036482369,2
200752086,200751730,-0.45800754,0.0116331875,-0.01302775,0.8887768,0.9999934,-6.8016615e-10,1.4617427e-09,0.0036482369,2
200757031,200756733,-0.45800138,0.011638493,-0.013037792,0.88877976,0.9999934,-6.8016615e-10,1.4617427e-09,0.0036482369,2
200762015,200761729,-0.45801544,0.011638211,-0.013028109,0.88877267,0.9999934,-6.8016615e-10,1.4617427e-09,0.0036482369,2
200767023,200766730,-0.4580368,0.011642982,-0.013039919,0.8887614,0.9999934,-6.8016615e-10,1.4617427e-09,0.0036482369,2
200772071,200771731,-0.45805958,0.011642706,-0.013033091,0.8887497,0.9999934,-6.8016615e-10,1.4617427e-09,0.0036482369,2
200777063,200776733,-0.45807764,0.011631602,-0.013025452,0.88874066,0.9999934,-6.8016615e-10,1.4617427e-09,0.0036482369,2
200782025,200781730,-0.45809218,0.011635029,-0.013024897,0.88873315,0.9999934,-6.8016615e-10,1.4617427e-09,0.0036482369,2
200787021,200786730,-0.45809612,0.011639717,-0.013036457,0.8887309,0.9999934,-6.8016615e-10,1.4617427e-09,0.0036482369,2
200792029,200791729,-0.4580877,0.011640064,-0.013042176,0.8887351,0.9999934,-6.8016615e-10,1.4617427e-09,0.0036482369,2
200797027,200796731,-0.45808142,0.011637783,-0.013053024,0.8887382,0.9999934,-6.8016615e-10,1.4617427e-09,0.0036482369,2
200802014,200801730,-0.4580842,0.011644823,-0.013049665,0.88873684,0.9999934,-6.8016615e-10,1.4617427e-09,0.0036482369,2
200807064,200806730,-0.45808536,0.011648644,-0.013053581,0.888736,0.9999934,-6.8016615e-10,1.4617427e-09,0.0036482369,2
200812064,200811731,-0.4580818,0.011647532,-0.013050262,0.88873804,0.9999934,-6.8016615e-10,1.4617427e-09,0.0036482369,2
200817051,200816730,-0.4580776,0.011627685,-0.013034886,0.88874054,0.9999934,-6.8016615e-10,1.4617427e-09,0.0036482369,2
200822048,200821729,-0.4580709,0.0116314795,-0.013024465,0.8887441,0.9999934,-6.8016615e-10,1.4617427e-09,0.0036482369,2
200827026,200826729,-0.45806506,0.011629076,-0.013027047,0.88874716,0.9999934,-6.8016615e-10,1.4617427e-09,0.0036482369,2
200832074,200831730,-0.45805463,0.011635966,-0.013031996,0.88875234,0.9999934,-6.8016615e-10,1.4617427e-09,0.0036482369,2
200837030,200836732,-0.45805204,0.011634852,-0.013036173,0.88875365,0.9999934,-6.8016615e-10,1.4617427e-09,0.0036482369,2
200842067,200841730,-0.45805693,0.011641403,-0.013038063,0.88875103,0.9999934,-6.8016615e-10,1.4617427e-09,0.0036482369,2
200847026,200846730,-0.45807147,0.011654147,-0.013053539,0.88874316,0.9999934,-6.8016615e-10,1.4617427e-09,0.0036482369,2
200852037,200851730,-0.4580961,0.011657892,-0.013040316,0.8887306,0.9999934,-6.8016615e-10,1.4617427e-09,0.0036482369,2
200857034,200856731,-0.45811254,0.011654519,-0.013042524,0.8887221,0.9999934,-6.8016615e-10,1.4617427e-09,0.0036482369,2
200862013,200861730,-0.45812353,0.011656369,-0.013036465,0.8887165,0.9999934,-6.8016615e-10,1.4617427e-09,0.0036482369,2
200867022,200866730,-0.45812717,0.011652003,-0.013026345,0.88871485,0.9999934,-6.8016615e-10,1.4617427e-09,0.0036482369,2
200872075,200871730,-0.45811942,0.011644868,-0.013020563,0.888719,0.9999934,-6.8016615e-10,1.4617427e-09,0.0036482369,2
200877051,200876732,-0.45810673,0.011649677,-0.013041696,0.88872516,0.9999934,-6.8016615e-10,1.4617427e-09,0.0036482369,2
200882017,200881730,-0.4580958,0.011648786,-0.013041136,0.8887308,0.9999934,-6.8016615e-10,1.4617427e-09,0.0036482369,2
200887021,200886730,-0.45808938,0.011657212,-0.013039363,0.88873416,0.9999934,-6.8016615e-10,1.4617427e-09,0.0036482369,2
200892034,200891729,-0.458087,0.01165435,-0.013039876,0.8887353,0.9999934,-6.8016615e-10,1.4617427e-09,0.0036482369,2
200897044,200896729,-0.45808464,0.011656466,-0.013036924,0.8887366,0.9999934,-6.8016615e-10,1.4617427e-09,0.0036482369,2
200902016,200901729,-0.45809275,0.011656934,-0.013027823,0.88873255,0.9999934,-6.8016615e-10,1.4617427e-09,0.0036482369,2
200907075,200906730,-0.45809186,0.011652132,-0.0130175315,0.8887332,0.9999934,-6.8016615e-10,1.4617427e-09,0.0036482369,2
200912038,200911729,-0.4580982,0.011654516,-0.013012703,0.88873,0.9999934,-6.8016615e-10,1.4617427e-09,0.0036482369,2
200917021,200916729,-0.45810577,0.011655506,-0.0130177215,0.888726,0.9999934,-6.8016615e-10,1.4617427e-09,0.0036482369,2
200922025,200921730,-0.4581115,0.011649516,-0.013025376,0.888723,0.9999934,-6.8016615e-10,1.4617427e-09,0.0036482369,2
200927021,200926730,-0.45812523,0.01165752,-0.013040187,0.88871557,0.9999934,-6.8016615e-10,1.4617427e-09,0.0036482369,2
200932067,200931731,-0.4581365,0.011653383,-0.013037932,0.88870984,0.9999934,-6.8016615e-10,1.4617427e-09,0.0036482369,2
200937023,200936732,-0.4581481,0.011672056,-0.013044132,0.8887035,0.9999934,-6.8016615e-10,1.4617427e-09,0.0036482369,2
200942028,200941729,-0.45815095,0.011669409,-0.013038405,0.88870215,0.9999934,-6.8016615e-10,1.4617427e-09,0.0036482369,2
200947028,200946730,-0.45815533,0.011668575,-0.013028077,0.88870007,0.9999934,-6.8016615e-10,1.4617427e-09,0.0036482369,2
200952070,200951729,-0.45814544,0.011671572,-0.013018866,0.88870525,0.9999934,-6.8016615e-10,1.4617427e-09,0.0036482369,2
200957021,200956730,-0.45813394,0.01167333,-0.01300336,0.8887115,0.9999934,-6.8016615e-10,1.4617427e-09,0.0036482369,2
200962036,200961729,-0.45812395,0.01166182,-0.013009354,0.8887166,0.9999934,-6.8016615e-10,1.4617427e-09,0.0036482369,2
200967023,200966730,-0.45810467,0.01166681,-0.0130158635,0.8887265,0.9999934,-6.8016615e-10,1.4617427e-09,0.0036482369,2
200972083,200971729,-0.45810702,0.011669852,-0.01302682,0.88872504,0.9999934,-6.8016615e-10,1.4617427e-09,0.0036482369,2
200977023,200976730,-0.4581109,0.011671687,-0.013013925,0.8887232,0.9999934,-6.8016615e-10,1.4617427e-09,0.0036482369,2
200982017,200981729,-0.45811647,0.011674368,-0.0130282855,0.8887201,0.9999934,-6.8016615e-10,1.4617427e-09,0.0036482369,2
200987023,200986730,-0.45812055,0.011665297,-0.013031712,0.88871807,0.9999934,-6.8016615e-10,1.4617427e-09,0.0036482369,2
200992068,200991731,-0.45813364,0.011674157,-0.013017289,0.8887114,0.9999934,-6.8016615e-10,1.4617427e-09,0.0036482369,2
200997031,200996731,-0.4581354,0.011662137,-0.013011612,0.88871074,0.9999934,-6.8016615e-10,1.4617427e-09,0.0036482369,2
201002028,201001730,-0.45813704,0.011657849,-0.013020189,0.8887097,0.9999934,-6.8016615e-10,1.4617427e-09,0.0036482369,2
201007017,201006729,-0.45814377,0.01166619,-0.013020497,0.88870627,0.9999934,-6.8016615e-10,1.4617427e-09,0.0036482369,2
201012020,201011729,-0.4581466,0.011679004,-0.0130332215,0.8887044,0.9999934,-6.8016615e-10,1.4617427e-09,0.0036482369,2
201017072,201016769,-0.4581489,0.011681959,-0.013037229,0.88870317,0.9999934,-6.8016615e-10,1.4617427e-09,0.0036482369,2
201022030,201021729,-0.45815194,0.011677098,-0.013039534,0.8887015,0.9999934,-6.8016615e-10,1.4617427e-09,0.0036482369,2
201027006,201026729,-0.4581507,0.011679817,-0.0130384285,0.8887022,0.9999934,-6.8016615e-10,1.4617427e-09,0.0036482369,2
201032027,201031739,-0.45814943,0.011678098,-0.01303547,0.8887029,0.9999934,-6.8016615e-10,1.4617427e-09,0.0036482369,2
201036957,201036730,-0.45814073,0.011672029,-0.01302017,0.88870776,0.9999934,-6.8016615e-10,1.4617427e-09,0.0036482369,2
201042023,201041729,-0.45812815,0.011675505,-0.013006528,0.8887144,0.9999934,-6.8016615e-10,1.4617427e-09,0.0036482369,2
201047014,201046729,-0.4581143,0.011674984,-0.013009709,0.8887214,0.9999934,-6.8016615e-10,1.4617427e-09,0.0036482369,2
201052022,201051730,-0.45811152,0.011673757,-0.013014696,0.8887228,0.9999934,-6.8016615e-10,1.4617427e-09,0.0036482369,2
201057012,201056729,-0.45811504,0.011687445,-0.013019166,0.88872075,0.9999934,-6.8016615e-10,1.4617427e-09,0.0036482369,2
201062011,201061729,-0.45812207,0.011689805,-0.013018512,0.8887171,0.9999934,-6.8016615e-10,1.4617427e-09,0.0036482369,2
201067029,201066729,-0.45813692,0.011694816,-0.0130371,0.8887091,0.9999934,-6.8016615e-10,1.4617427e-09,0.0036482369,2
201072013,201071729,-0.45814833,0.011684662,-0.013033292,0.8887034,0.9999934,-6.8016615e-10,1.4617427e-09,0.0036482369,2
201076999,201076731,-0.4581585,0.011683267,-0.0130277695,0.8886983,0.9999934,-6.8016615e-10,1.4617427e-09,0.0036482369,2
201081985,201081729,-0.45816675,0.01167947,-0.013015387,0.8886943,0.9999934,-6.8016615e-10,1.4617427e-09,0.0036482369,2
201086991,201086729,-0.45816702,0.011678146,-0.013016075,0.88869417,0.9999934,-6.8016615e-10,1.4617427e-09,0.0036482369,2
201092003,201091729,-0.45815843,0.0116800405,-0.013023088,0.8886984,0.9999934,-6.8016615e-10,1.4617427e-09,0.0036482369,2
201097013,201096729,-0.4581524,0.011683533,-0.013024865,0.88870144,0.9999934,-6.8016615e-10,1.4617427e-09,0.0036482369,2
201101985,201101729,-0.45815304,0.011694143,-0.013025792,0.88870096,0.9999934,-6.8016615e-10,1.4617427e-09,0.0036482369,2
201107007,201106729,-0.4581526,0.011691741,-0.013027595,0.88870126,0.9999934,-6.8016615e-10,1.4617427e-09,0.0036482369,2
201112002,201111729,-0.4581558,0.011690643,-0.013036811,0.8886995,0.9999934,-6.8016615e-10,1.4617427e-09,0.0036482369,2
201117014,201116729,-0.4581543,0.011672574,-0.01302405,0.88870066,0.9999934,-6.8016615e-10,1.4617427e-09,0.0036482369,2
201121989,201121729,-0.45815304,0.011679577,-0.013024578,0.8887012,0.9999934,-6.8016615e-10,1.4617427e-09,0.0036482369,2
201127015,201126729,-0.45814705,0.0116641,-0.013005994,0.8887048,0.9999934,-6.8016615e-10,1.4617427e-09,0.0036482369,2
201132003,201131729,-0.45813975,0.011669003,-0.013011874,0.8887084,0.9999934,-6.8016615e-10,1.4617427e-09,0.0036482369,2
201136988,201136729,-0.45813897,0.01167557,-0.013021622,0.8887086,0.9999934,-6.8016615e-10,1.4617427e-09,0.0036482369,2
201142005,201141729,-0.458144,0.011683127,-0.013019137,0.8887059,0.9999934,-6.8016615e-10,1.4617427e-09,0.0036482369,2
201147017,201146729,-0.4581533,0.011686776,-0.013023927,0.8887009,0.9999934,-6.8016615e-10,1.4617427e-09,0.0036482369,2
201151996,201151729,-0.45816648,0.011693573,-0.013032794,0.8886939,0.9999934,-6.8016615e-10,1.4617427e-09,0.0036482369,2
201156990,201156729,-0.4581769,0.01169093,-0.013037048,0.8886886,0.9999934,-6.8016615e-10,1.4617427e-09,0.0036482369,2
201161989,201161729,-0.4581877,0.011687649,-0.013030183,0.8886831,0.9999934,-6.8016615e-10,1.4617427e-09,0.0036482369,2
201167017,201166729,-0.45818034,0.011672663,-0.01301133,0.8886875,0.9999934,-6.8016615e-10,1.4617427e-09,0.0036482369,2
201172023,201171729,-0.45817935,0.011675655,-0.013013517,0.8886878,0.9999934,-6.8016615e-10,1.4617427e-09,0.0036482369,2
201176985,201176729,-0.4581685,0.0116839865,-0.013015554,0.8886933,0.9999934,-6.8016615e-10,1.4617427e-09,0.0036482369,2
201181985,201181729,-0.4581598,0.011681964,-0.013013824,0.8886978,0.9999934,-6.8016615e-10,1.4617427e-09,0.0036482369,2
201187014,201186729,-0.458155,0.0116952,-0.013015817,0.88870007,0.9999934,-6.8016615e-10,1.4617427e-09,0.0036482369,2
201192000,201191729,-0.45815372,0.011696212,-0.013022962,0.8887006,0.9999934,-6.8016615e-10,1.4617427e-09,0.0036482369,2
201196991,201196729,-0.4581596,0.011706459,-0.013040854,0.8886972,0.9999934,-6.8016615e-10,1.4617427e-09,0.0036482369,2
201202012,201201729,-0.45816368,0.011695145,-0.013037257,0.88869536,0.9999934,-6.8016615e-10,1.4617427e-09,0.0036482369,2
201207008,201206729,-0.45816982,0.011679803,-0.013027136,0.88869256,0.9999934,-6.8016615e-10,1.4617427e-09,0.0036482369,2
201212025,201211730,-0.45817357,0.011678455,-0.013014679,0.8886907,0.9999934,-6.8016615e-10,1.4617427e-09,0.0036482369,2
201217018,201216729,-0.45817474,0.011682141,-0.013018363,0.88869005,0.9999934,-6.8016615e-10,1.4617427e-09,0.0036482369,2
201222013,201221728,-0.45817542,0.011675876,-0.013023655,0.88868964,0.9999934,-6.8016615e-10,1.4617427e-09,0.0036482369,2
201227018,201226730,-0.45817086,0.011694497,-0.013019696,0.8886919,0.9999934,-6.8016615e-10,1.4617427e-09,0.0036482369,2
201232021,201231729,-0.4581768,0.011691292,-0.01302845,0.88868874,0.9999934,-6.8016615e-10,1.4617427e-09,0.0036482369,2
201236991,201236730,-0.4581884,0.011700908,-0.013035693,0.88868254,0.9999934,-6.8016615e-10,1.4617427e-09,0.0036482369,2
201241995,201241729,-0.45819646,0.011695883,-0.013039053,0.88867843,0.9999934,-6.8016615e-10,1.4617427e-09,0.0036482369,2
201246995,201246729,-0.45819613,0.011684252,-0.01303812,0.8886787,0.9999934,-6.8016615e-10,1.4617427e-09,0.0036482369,2
201252029,201251730,-0.4581971,0.011674137,-0.013024866,0.8886785,0.9999934,-6.8016615e-10,1.4617427e-09,0.0036482369,2
201256994,201256729,-0.45818344,0.011671795,-0.013020656,0.88868576,0.9999934,-6.8016615e-10,1.4617427e-09,0.0036482369,2
201261995,201261730,-0.4581764,0.011675344,-0.013030294,0.88868904,0.9999934,-6.8016615e-10,1.4617427e-09,0.0036482369,2
201266991,201266729,-0.45818013,0.011683783,-0.01302302,0.88868713,0.9999934,-6.8016615e-10,1.4617427e-09,0.0036482369,2
201272010,201271729,-0.45817629,0.0116901165,-0.01302698,0.8886891,0.9999934,-6.8016615e-10,1.4617427e-09,0.0036482369,2
201277000,201276729,-0.4581881,0.011701121,-0.013031133,0.8886828,0.9999934,-6.8016615e-10,1.4617427e-09,0.0036482369,2
201281982,201281729,-0.45819455,0.011699032,-0.013045171,0.88867927,0.9999934,-6.8016615e-10,1.4617427e-09,0.0036482369,2
201287010,201286729,-0.45820466,0.0116951335,-0.013050933,0.888674,0.9999934,-6.8016615e-10,1.4617427e-09,0.0036482369,2
201291998,201291729,-0.45821622,0.011689728,-0.013044638,0.8886682,0.9999934,-6.8016615e-10,1.4617427e-09,0.0036482369,2
201296989,201296729,-0.45821992,0.011686983,-0.01303726,0.88866645,0.9999934,-6.8016615e-10,1.4617427e-09,0.0036482369,2
201301985,201301729,-0.45821878,0.011694658,-0.013038854,0.8886669,0.9999934,-6.8016615e-10,1.4617427e-09,0.0036482369,2
201307021,201306731,-0.45821396,0.011695177,-0.013042423,0.8886693,0.9999934,-6.8016615e-10,1.4617427e-09,0.0036482369,2
201312008,201311730,-0.45821708,0.011701756,-0.013029818,0.8886678,0.9999934,-6.8016615e-10,1.4617427e-09,0.0036482369,2
201316991,201316729,-0.4582141,0.011706437,-0.013038352,0.8886692,0.9999934,-6.8016615e-10,1.4617427e-09,0.0036482369,2
201321989,201321729,-0.45821345,0.011709595,-0.013055423,0.8886692,0.9999934,-6.8016615e-10,1.4617427e-09,0.0036482369,2
201326990,201326729,-0.45822042,0.0117068,-0.01306828,0.8886655,0.9999934,-6.8016615e-10,1.4617427e-09,0.0036482369,2
201332015,201331729,-0.45822376,0.011694015,-0.013061479,0.88866395,0.9999934,-6.8016615e-10,1.4617427e-09,0.0036482369,2
201337011,201336730,-0.45822284,0.011683476,-0.01305437,0.8886648,0.9999934,-6.8016615e-10,1.4617427e-09,0.0036482369,2
201342002,201341729,-0.45821974,0.011686314,-0.0130502805,0.8886663,0.9999934,-6.8016615e-10,1.4617427e-09,0.0036482369,2
201346992,201346729,-0.45821437,0.011687007,-0.013054612,0.8886691,0.9999934,-6.8016615e-10,1.4617427e-09,0.0036482369,2
201352062,201351730,-0.4582128,0.011691475,-0.013050878,0.88866985,0.9999934,-6.8016615e-10,1.4617427e-09,0.0036482369,2
201356998,201356729,-0.45820972,0.011701593,-0.013051192,0.8886713,0.9999934,-6.8016615e-10,1.4617427e-09,0.0036482369,2
201361990,201361729,-0.4582206,0.011702121,-0.013053704,0.8886656,0.9999934,-6.8016615e-10,1.4617427e-09,0.0036482369,2
201366992,201366729,-0.4582297,0.011712256,-0.013071686,0.8886605,0.9999934,-6.8016615e-10,1.4617427e-09,0.0036482369,2
201372033,201371729,-0.45824438,0.011703431,-0.013075174,0.8886531,0.9999934,-6.8016615e-10,1.4617427e-09,0.0036482369,2
201376990,201376729,-0.4582547,0.011687422,-0.01305921,0.8886482,0.9999934,-6.8016615e-10,1.4617427e-09,0.0036482369,2
201381993,201381729,-0.45825323,0.011690474,-0.013057331,0.8886489,0.9999934,-6.8016615e-10,1.4617427e-09,0.0036482369,2
201386988,201386729,-0.45825523,0.011697149,-0.013063422,0.8886477,0.9999934,-6.8016615e-10,1.4617427e-09,0.0036482369,2
201392028,201391730,-0.45824432,0.0116978865,-0.013051657,0.88865346,0.9999934,-6.8016615e-10,1.4617427e-09,0.0036482369,2
201396989,201396729,-0.45823878,0.011711756,-0.013050006,0.88865626,0.9999934,-6.8016615e-10,1.4617427e-09,0.0036482369,2
201401986,201401729,-0.45824063,0.011714282,-0.013053873,0.8886552,0.9999934,-6.8016615e-10,1.4617427e-09,0.0036482369,2
201407008,201406729,-0.45824522,0.011718499,-0.013073201,0.8886525,0.9999934,-6.8016615e-10,1.4617427e-09,0.0036482369,2
201411999,201411729,-0.45824692,0.011720308,-0.013087267,0.8886514,0.9999934,-6.8016615e-10,1.4617427e-09,0.0036482369,2
201416988,201416729,-0.45825174,0.011695506,-0.013081761,0.88864917,0.9999934,-6.8016615e-10,1.4617427e-09,0.0036482369,2
201421980,201421729,-0.45825866,0.011697801,-0.013071411,0.8886459,0.9999934,-6.8016615e-10,1.4617427e-09,0.0036482369,2
201426998,201426729,-0.4582573,0.011688314,-0.013065678,0.8886468,0.9999934,-6.8016615e-10,1.4617427e-09,0.0036482369,2
201432002,201431729,-0.45825946,0.011694279,-0.0130614545,0.88864565,0.9999934,-6.8016615e-10,1.4617427e-09,0.0036482369,2
201437028,201436729,-0.45825702,0.011697327,-0.013049284,0.888647,0.9999934,-6.8016615e-10,1.4617427e-09,0.0036482369,2
201442002,201441729,-0.4582566,0.011703018,-0.013049555,0.88864714,0.9999934,-6.8016615e-10,1.4617427e-09,0.0036482369,2
201446994,201446729,-0.45826584,0.011709996,-0.013062926,0.8886421,0.9999934,-6.8016615e-10,1.4617427e-09,0.0036482369,2
201452004,201451729,-0.45826977,0.011713781,-0.013080911,0.88863975,0.9999934,-6.8016615e-10,1.4617427e-09,0.0036482369,2
201457013,201456729,-0.45828655,0.011708779,-0.013085043,0.8886311,0.9999934,-6.8016615e-10,1.4617427e-09,0.0036482369,2
201461985,201461729,-0.45829168,0.011703795,-0.01307678,0.88862866,0.9999934,-6.8016615e-10,1.4617427e-09,0.0036482369,2
201467014,201466729,-0.4582969,0.0116994195,-0.013075148,0.8886259,0.9999934,-6.8016615e-10,1.4617427e-09,0.0036482369,2
201472048,201471728,-0.458287,0.011701744,-0.013070348,0.8886311,0.9999934,-6.8016615e-10,1.4617427e-09,0.0036482369,2
201477013,201476729,-0.4582776,0.011714808,-0.013054962,0.888636,0.9999934,-6.8016615e-10,1.4617427e-09,0.0036482369,2
201482033,201481729,-0.45827526,0.011713471,-0.013050531,0.8886374,0.9999934,-6.8016615e-10,1.4617427e-09,0.0036482369,2
201487014,201486729,-0.45827067,0.011726582,-0.013052776,0.88863957,0.9999934,-6.8016615e-10,1.4617427e-09,0.0036482369,2
201492022,201491729,-0.45827493,0.011735214,-0.013077338,0.8886369,0.9999934,-6.8016615e-10,1.4617427e-09,0.0036482369,2
201497019,201496729,-0.4582846,0.011728231,-0.013085647,0.8886319,0.9999934,-6.8016615e-10,1.4617427e-09,0.0036482369,2
201502015,201501729,-0.4582954,0.011724084,-0.013083902,0.8886263,0.9999934,-6.8016615e-10,1.4617427e-09,0.0036482369,2
201507007,201506729,-0.45829877,0.01170915,-0.013093385,0.8886247,0.9999934,-6.8016615e-10,1.4617427e-09,0.0036482369,2
201511999,201511730,-0.45829836,0.011704367,-0.013080562,0.8886251,0.9999934,-6.8016615e-10,1.4617427e-09,0.0036482369,2
201516996,201516729,-0.45829335,0.011710712,-0.013079044,0.88862765,0.9999934,-6.8016615e-10,1.4617427e-09,0.0036482369,2
201521983,201521729,-0.4582884,0.011713016,-0.013063348,0.8886304,0.9999934,-6.8016615e-10,1.4617427e-09,0.0036482369,2
201527012,201526729,-0.45828992,0.011716691,-0.01307201,0.88862944,0.9999934,-6.8016615e-10,1.4617427e-09,0.0036482369,2
201532000,201531731,-0.4582907,0.011720693,-0.013078242,0.88862884,0.9999934,-6.8016615e-10,1.4617427e-09,0.0036482369,2
201537013,201536731,-0.45830002,0.011726055,-0.013098971,0.8886238,0.9999934,-6.8016615e-10,1.4617427e-09,0.0036482369,2
201542004,201541729,-0.4583061,0.011714796,-0.013102542,0.8886207,0.9999934,-6.8016615e-10,1.4617427e-09,0.0036482369,2
201547020,201546729,-0.45830736,0.011701582,-0.013102961,0.88862014,0.9999934,-6.8016615e-10,1.4617427e-09,0.0036482369,2
201552007,201551729,-0.4583053,0.011694225,-0.013105655,0.8886213,0.9999934,-6.8016615e-10,1.4617427e-09,0.0036482369,2
201557036,201556730,-0.45830148,0.011702767,-0.013089849,0.88862336,0.9999934,-6.8016615e-10,1.4617427e-09,0.0036482369,2
201561987,201561729,-0.45829388,0.011703097,-0.013076135,0.8886275,0.9999934,-6.8016615e-10,1.4617427e-09,0.0036482369,2
201566995,201566731,-0.4582862,0.011707761,-0.0130699305,0.8886314,0.9999934,-6.8016615e-10,1.4617427e-09,0.0036482369,2
201572013,201571732,-0.4582874,0.011712045,-0.013070704,0.8886308,0.9999934,-6.8016615e-10,1.4617427e-09,0.0036482369,2
201576989,201576729,-0.45829734,0.011722584,-0.013095577,0.88862526,0.9999934,-6.8016615e-10,1.4617427e-09,0.0036482369,2
201581986,201581729,-0.45830464,0.011712217,-0.013108536,0.88862133,0.9999934,-6.8016615e-10,1.4617427e-09,0.0036482369,2
201586999,201586730,-0.45831507,0.011705509,-0.013112089,0.88861597,0.9999934,-6.8016615e-10,1.4617427e-09,0.0036482369,2
201592026,201591728,-0.45831728,0.011697286,-0.013117146,0.8886149,0.9999934,-6.8016615e-10,1.4617427e-09,0.0036482369,2
201597019,201596729,-0.45832452,0.011696758,-0.013105574,0.88861144,0.9999934,-6.8016615e-10,1.4617427e-09,0.0036482369,2
201601986,201601729,-0.45832142,0.011689201,-0.0130918585,0.8886133,0.9999934,-6.8016615e-10,1.4617427e-09,0.0036482369,2
201607009,201606729,-0.45831066,0.011703681,-0.0130833825,0.88861877,0.9999934,-6.8016615e-10,1.4617427e-09,0.0036482369,2
201612000,201611729,-0.4583113,0.011697464,-0.013079266,0.8886186,0.9999934,-6.8016615e-10,1.4617427e-09,0.0036482369,2
201617015,201616729,-0.4583103,0.0117024295,-0.013100751,0.8886187,0.9999934,-6.8016615e-10,1.4617427e-09,0.0036482369,2
201622009,201621729,-0.458315,0.011710711,-0.013115575,0.8886159,0.9999934,-6.8016615e-10,1.4617427e-09,0.0036482369,2
201627018,201626730,-0.45831537,0.011710833,-0.01312296,0.88861567,0.9999934,-6.8016615e-10,1.4617427e-09,0.0036482369,2
201632008,201631730,-0.45832124,0.011692671,-0.013130047,0.88861275,0.9999934,-6.8016615e-10,1.4617427e-09,0.0036482369,2
201636991,201636729,-0.45832813,0.011684202,-0.013120569,0.88860947,0.9999934,-6.8016615e-10,1.4617427e-09,0.0036482369,2
201642001,201641729,-0.45832306,0.01170033,-0.013113609,0.88861185,0.9999934,-6.8016615e-10,1.4617427e-09,0.0036482369,2
201646993,201646729,-0.45832342,0.01170093,-0.01309986,0.88861203,0.9999934,-6.8016615e-10,1.4617427e-09,0.0036482369,2
201652000,201651729,-0.45832375,0.011698024,-0.0130906515,0.8886119,0.9999934,-6.8016615e-10,1.4617427e-09,0.0036482369,2
201656999,201656729,-0.4583292,0.011711447,-0.013087039,0.8886091,0.9999934,-6.8016615e-10,1.4617427e-09,0.0036482369,2
201661986,201661729,-0.45833609,0.011727056,-0.013105684,0.88860494,0.9999934,-6.8016615e-10,1.4617427e-09,0.0036482369,2
201667019,201666729,-0.45833802,0.011723723,-0.013127483,0.8886037,0.9999934,-6.8016615e-10,1.4617427e-09,0.0036482369,2
201672015,201671729,-0.4583476,0.011725526,-0.013134006,0.8885986,0.9999934,-6.8016615e-10,1.4617427e-09,0.0036482369,2
201677013,201676729,-0.45835593,0.011708548,-0.013128285,0.8885946,0.9999934,-6.8016615e-10,1.4617427e-09,0.0036482369,2
201681987,201681729,-0.4583543,0.011713655,-0.0131312935,0.88859534,0.9999934,-6.8016615e-10,1.4617427e-09,0.0036482369,2
201686991,201686729,-0.45834777,0.011720178,-0.013112015,0.8885989,0.9999934,-6.8016615e-10,1.4617427e-09,0.0036482369,2
201692005,201691730,-0.45834732,0.011711527,-0.013094499,0.8885995,0.9999934,-6.8016615e-10,1.4617427e-09,0.0036482369,2
201696990,201696729,-0.45834285,0.011713987,-0.013096363,0.8886018,0.9999934,-6.8016615e-10,1.4617427e-09,0.0036482369,2
201701987,201701729,-0.4583411,0.011717181,-0.013114318,0.8886025,0.9999934,-6.8016615e-10,1.4617427e-09,0.0036482369,2
201707008,201706729,-0.45835152,0.011721679,-0.013122233,0.8885968,0.9999934,-6.8016615e-10,1.4617427e-09,0.0036482369,2
201712026,201711729,-0.4583516,0.011713236,-0.01313756,0.8885968,0.9999934,-6.8016615e-10,1.4617427e-09,0.0036482369,2
201717011,201716729,-0.45836025,0.011698537,-0.013154306,0.8885921,0.9999934,-6.8016615e-10,1.4617427e-09,0.0036482369,2
201722009,201721729,-0.4583604,0.011695238,-0.013145469,0.88859224,0.9999934,-6.8016615e-10,1.4617427e-09,0.0036482369,2
201727017,201726729,-0.45836225,0.011703932,-0.013125995,0.88859147,0.9999934,-6.8016615e-10,1.4617427e-09,0.0036482369,2
201732028,201731728,-0.45836002,0.011693543,-0.013116252,0.8885929,0.9999934,-6.8016615e-10,1.4617427e-09,0.0036482369,2
201736989,201736730,-0.45835945,0.0117075825,-0.013107855,0.88859326,0.9999934,-6.8016615e-10,1.4617427e-09,0.0036482369,2
201742002,201741729,-0.45836052,0.011713239,-0.013104527,0.88859254,0.9999934,-6.8016615e-10,1.4617427e-09,0.0036482369,2
201747017,201746729,-0.45836568,0.011713617,-0.013114508,0.88858974,0.9999934,-6.8016615e-10,1.4617427e-09,0.0036482369,2
201752035,201751729,-0.45837212,0.011720687,-0.013134965,0.88858604,0.9999934,-6.8016615e-10,1.4617427e-09,0.0036482369,2
201757014,201756729,-0.45838,0.011714833,-0.013145406,0.88858193,0.9999934,-6.8016615e-10,1.4617427e-09,0.0036482369,2
201761985,201761729,-0.4583807,0.011713512,-0.0131531,0.8885815,0.9999934,-6.8016615e-10,1.4617427e-09,0.0036482369,2
201767018,201766729,-0.45838818,0.011703697,-0.013143858,0.8885778,0.9999934,-6.8016615e-10,1.4617427e-09,0.0036482369,2
201772020,201771729,-0.4583809,0.011705264,-0.013121893,0.8885819,0.9999934,-6.8016615e-10,1.4617427e-09,0.0036482369,2
201776989,201776729,-0.45837516,0.011711376,-0.013115055,0.888585,0.9999934,-6.8016615e-10,1.4617427e-09,0.0036482369,2
201781985,201781729,-0.45837387,0.011716139,-0.013107953,0.88858557,0.9999934,-6.8016615e-10,1.4617427e-09,0.0036482369,2
201786991,201786729,-0.4583753,0.011713679,-0.013119576,0.8885848,0.9999934,-6.8016615e-10,1.4617427e-09,0.0036482369,2
201792029,201791729,-0.45838633,0.011727802,-0.013126482,0.8885788,0.9999934,-6.8016615e-10,1.4617427e-09,0.0036482369,2
201796985,201796729,-0.4583881,0.011723058,-0.0131482035,0.8885776,0.9999934,-6.8016615e-10,1.4617427e-09,0.0036482369,2
201801985,201801729,-0.45839417,0.011719253,-0.013157299,0.88857436,0.9999934,-6.8016615e-10,1.4617427e-09,0.0036482369,2
201807016,201806729,-0.45839125,0.011707534,-0.01315985,0.888576,0.9999934,-6.8016615e-10,1.4617427e-09,0.0036482369,2
201812004,201811730,-0.45839,0.011713343,-0.013137726,0.8885769,0.9999934,-6.8016615e-10,1.4617427e-09,0.0036482369,2
201816989,201816729,-0.4583926,0.011714472,-0.013132649,0.8885756,0.9999934,-6.8016615e-10,1.4617427e-09,0.0036482369,2
201821990,201821729,-0.45838895,0.011706246,-0.013117513,0.8885778,0.9999934,-6.8016615e-10,1.4617427e-09,0.0036482369,2
201826992,201826731,-0.45839298,0.011716084,-0.01312754,0.88857543,0.9999934,-6.8016615e-10,1.4617427e-09,0.0036482369,2
201831997,201831728,-0.45839632,0.011719515,-0.013120494,0.88857377,0.9999934,-6.8016615e-10,1.4617427e-09,0.0036482369,2
201836991,201836729,-0.458402,0.011724222,-0.013150422,0.88857037,0.9999934,-6.8016615e-10,1.4617427e-09,0.0036482369,2
201842000,201841729,-0.45840523,0.011713541,-0.013174218,0.88856846,0.9999934,-6.8016615e-10,1.4617427e-09,0.0036482369,2
201846994,201846729,-0.4584126,0.011705254,-0.013165961,0.888565,0.9999934,-6.8016615e-10,1.4617427e-09,0.0036482369,2
201852004,201851729,-0.4584118,0.011713723,-0.01315988,0.88856524,0.9999934,-6.8016615e-10,1.4617427e-09,0.0036482369,2
201857001,201856729,-0.45840985,0.011712469,-0.013139555,0.8885667,0.9999934,-6.8016615e-10,1.4617427e-09,0.0036482369,2
201861987,201861729,-0.4584083,0.011704082,-0.013125197,0.8885677,0.9999934,-6.8016615e-10,1.4617427e-09,0.0036482369,2
201866991,201866729,-0.4584082,0.011720109,-0.013116994,0.88856775,0.9999934,-6.8016615e-10,1.4617427e-09,0.0036482369,2
201872017,201871728,-0.4584142,0.011726307,-0.013120299,0.8885644,0.9999934,-6.8016615e-10,1.4617427e-09,0.0036482369,2
201876990,201876729,-0.45841444,0.011723823,-0.013133062,0.8885643,0.9999934,-6.8016615e-10,1.4617427e-09,0.0036482369,2
201882011,201881729,-0.4584225,0.011724582,-0.013155688,0.88855964,0.9999934,-6.8016615e-10,1.4617427e-09,0.0036482369,2
201887018,201886729,-0.4584282,0.0117172105,-0.013166127,0.8885568,0.9999934,-6.8016615e-10,1.4617427e-09,0.0036482369,2
201892024,201891730,-0.45842978,0.0117122475,-0.013161076,0.88855606,0.9999934,-6.8016615e-10,1.4617427e-09,0.0036482369,2
201897030,201896729,-0.45843124,0.011706727,-0.013146622,0.8885556,0.9999934,-6.8016615e-10,1.4617427e-09,0.0036482369,2
201901982,201901729,-0.4584267,0.011700561,-0.013132079,0.8885582,0.9999934,-6.8016615e-10,1.4617427e-09,0.0036482369,2
201907006,201906729,-0.45842412,0.011705058,-0.013129155,0.8885595,0.9999934,-6.8016615e-10,1.4617427e-09,0.0036482369,2
201911999,201911730,-0.45842114,0.011697758,-0.0131300315,0.8885611,0.9999934,-6.8016615e-10,1.4617427e-09,0.0036482369,2
201916988,201916729,-0.45841932,0.011706024,-0.013130157,0.88856196,0.9999934,-6.8016615e-10,1.4617427e-09,0.0036482369,2
201921988,201921729,-0.45842418,0.011718502,-0.0131577505,0.88855886,0.9999934,-6.8016615e-10,1.4617427e-09,0.0036482369,2
201927016,201926729,-0.4584264,0.011697624,-0.013178822,0.88855773,0.9999934,-6.8016615e-10,1.4617427e-09,0.0036482369,2
201932009,201931729,-0.45843026,0.011707743,-0.013178372,0.8885556,0.9999934,-6.8016615e-10,1.4617427e-09,0.0036482369,2
201936996,201936730,-0.45843276,0.011696728,-0.013156211,0.88855475,0.9999934,-6.8016615e-10,1.4617427e-09,0.0036482369,2
201942004,201941729,-0.45843014,0.01169486,-0.013148805,0.8885563,0.9999934,-6.8016615e-10,1.4617427e-09,0.0036482369,2
201947003,201946729,-0.45842868,0.011683411,-0.013140351,0.8885572,0.9999934,-6.8016615e-10,1.4617427e-09,0.0036482369,2
201952023,201951729,-0.45842576,0.0116890855,-0.013131376,0.88855886,0.9999934,-6.8016615e-10,1.4617427e-09,0.0036482369,2
201957021,201956729,-0.45843232,0.011692001,-0.013122555,0.8885556,0.9999934,-6.8016615e-10,1.4617427e-09,0.0036482369,2
201962014,201961729,-0.45843276,0.011700431,-0.013144682,0.8885548,0.9999934,-6.8016615e-10,1.4617427e-09,0.0036482369,2
201966998,201966729,-0.45843554,0.011691838,-0.013166631,0.8885532,0.9999934,-6.8016615e-10,1.4617427e-09,0.0036482369,2
201972016,201971730,-0.4584336,0.011691771,-0.013170908,0.8885543,0.9999934,-6.8016615e-10,1.4617427e-09,0.0036482369,2
201976988,201976729,-0.45843187,0.01169236,-0.013174827,0.88855493,0.9999934,-6.8016615e-10,1.4617427e-09,0.0036482369,2
201981984,201981729,-0.45843574,0.011678148,-0.013154799,0.88855356,0.9999934,-6.8016615e-10,1.4617427e-09,0.0036482369,2
201987014,201986729,-0.4584323,0.011685093,-0.013143568,0.8885554,0.9999934,-6.8016615e-10,1.4617427e-09,0.0036482369,2
201991996,201991729,-0.4584273,0.011672169,-0.0131307,0.8885583,0.9999934,-6.8016615e-10,1.4617427e-09,0.0036482369,2
201996993,201996729,-0.45842767,0.011682802,-0.013125267,0.888558,0.9999934,-6.8016615e-10,1.4617427e-09,0.0036482369,2
202001993,202001729,-0.45843092,0.011674462,-0.013124889,0.8885564,0.9999934,-6.8016615e-10,1.4617427e-09,0.0036482369,2
202007013,202006729,-0.4584313,0.011682987,-0.013145034,0.8885559,0.9999934,-6.8016615e-10,1.4617427e-09,0.0036482369,2
202011997,202011729,-0.4584306,0.011674381,-0.013166829,0.88855606,0.9999934,-6.8016615e-10,1.4617427e-09,0.0036482369,2
202017015,202016729,-0.45843408,0.01168057,-0.013161654,0.8885542,0.9999934,-6.8016615e-10,1.4617427e-09,0.0036482369,2
202021985,202021729,-0.45842892,0.011675142,-0.013147504,0.88855714,0.9999934,-6.8016615e-10,1.4617427e-09,0.0036482369,2
202026991,202026729,-0.45843098,0.0116740465,-0.013131734,0.88855636,0.9999934,-6.8016615e-10,1.4617427e-09,0.0036482369,2
202032016,202031745,-0.45842487,0.011660698,-0.013124295,0.8885598,0.9999934,-6.8016615e-10,1.4617427e-09,0.0036482369,2
202036991,202036729,-0.45842433,0.011670314,-0.013115853,0.8885601,0.9999934,-6.8016615e-10,1.4617427e-09,0.0036482369,2
202042004,202041729,-0.45842957,0.011679315,-0.013107518,0.8885573,0.9999934,-6.8016615e-10,1.4617427e-09,0.0036482369,2
202046954,202046729,-0.45842892,0.011676785,-0.01313247,0.8885573,0.9999934,-6.8016615e-10,1.4617427e-09,0.0036482369,2
202052041,202051729,-0.45843348,0.0116878655,-0.013157351,0.8885546,0.9999934,-6.8016615e-10,1.4617427e-09,0.0036482369,2
202057019,202056730,-0.4584325,0.011689694,-0.013158647,0.88855493,0.9999934,-6.8016615e-10,1.4617427e-09,0.0036482369,2
202062004,202061729,-0.45844042,0.011689373,-0.013151975,0.88855106,0.9999934,-6.8016615e-10,1.4617427e-09,0.0036482369,2
202067020,202066729,-0.45843846,0.011677095,-0.013136323,0.8885523,0.9999934,-6.8016615e-10,1.4617427e-09,0.0036482369,2
202072034,202071729,-0.45843902,0.011676959,-0.013119561,0.8885524,0.9999934,-6.8016615e-10,1.4617427e-09,0.0036482369,2
202077004,202076729,-0.45844123,0.011671074,-0.013119761,0.88855124,0.9999934,-6.8016615e-10,1.4617427e-09,0.0036482369,2
202082033,202081733,-0.45844242,0.011668407,-0.013108474,0.8885509,0.9999934,-6.8016615e-10,1.4617427e-09,0.0036482369,2
202087048,202086729,-0.45844263,0.011662912,-0.013119551,0.88855064,0.9999934,-6.8016615e-10,1.4617427e-09,0.0036482369,2
202092042,202091729,-0.45843783,0.011671145,-0.013132578,0.88855284,0.9999934,-6.8016615e-10,1.4617427e-09,0.0036482369,2
202097012,202096729,-0.45843646,0.011679547,-0.013150221,0.8885532,0.9999934,-6.8016615e-10,1.4617427e-09,0.0036482369,2
202102009,202101729,-0.4584389,0.011676874,-0.0131547,0.8885519,0.9999934,-6.8016615e-10,1.4617427e-09,0.0036482369,2
202107015,202106729,-0.45843583,0.011668572,-0.013132518,0.88855386,0.9999934,-6.8016615e-10,1.4617427e-09,0.0036482369,2
202112020,202111730,-0.4584364,0.011669736,-0.013119365,0.88855374,0.9999934,-6.8016615e-10,1.4617427e-09,0.0036482369,2
202117007,202116729,-0.45843798,0.01166341,-0.013118707,0.888553,0.9999934,-6.8016615e-10,1.4617427e-09,0.0036482369,2
202122001,202121729,-0.45844665,0.011655839,-0.013105252,0.888549,0.9999934,-6.8016615e-10,1.4617427e-09,0.0036482369,2
202127012,202126729,-0.45845124,0.0116691915,-0.01310125,0.88854647,0.9999934,-6.8016615e-10,1.4617427e-09,0.0036482369,2
202132022,202131729,-0.4584482,0.011676177,-0.013111659,0.8885478,0.9999934,-6.8016615e-10,1.4617427e-09,0.0036482369,2
202137008,202136729,-0.45845413,0.011677888,-0.01314268,0.8885442,0.9999934,-6.8016615e-10,1.4617427e-09,0.0036482369,2
202142013,202141729,-0.45845258,0.011684639,-0.013148845,0.8885448,0.9999934,-6.8016615e-10,1.4617427e-09,0.0036482369,2
202147012,202146729,-0.4584536,0.01169415,-0.013133965,0.8885444,0.9999934,-6.8016615e-10,1.4617427e-09,0.0036482369,2
202152019,202151729,-0.458456,0.011678053,-0.0131235905,0.88854355,0.9999934,-6.8016615e-10,1.4617427e-09,0.0036482369,2
202157010,202156730,-0.45845482,0.011676101,-0.013112531,0.88854426,0.9999934,-6.8016615e-10,1.4617427e-09,0.0036482369,2
202162002,202161729,-0.45845866,0.011680851,-0.013101516,0.8885424,0.9999934,-6.8016615e-10,1.4617427e-09,0.0036482369,2
202167012,202166730,-0.45845917,0.011674637,-0.013083572,0.8885425,0.9999934,-6.8016615e-10,1.4617427e-09,0.0036482369,2
202172032,202171729,-0.45845956,0.011682372,-0.013105851,0.8885419,0.9999934,-6.8016615e-10,1.4617427e-09,0.0036482369,2
202177005,202176729,-0.45845792,0.011682819,-0.013117556,0.8885426,0.9999934,-6.8016615e-10,1.4617427e-09,0.0036482369,2
202182002,202181729,-0.45846134,0.011694931,-0.013135603,0.8885403,0.9999934,-6.8016615e-10,1.4617427e-09,0.0036482369,2
202187034,202186729,-0.45845407,0.011683436,-0.013136004,0.8885442,0.9999934,-6.8016615e-10,1.4617427e-09,0.0036482369,2
202192018,202191730,-0.45846173,0.011692146,-0.013120226,0.8885405,0.9999934,-6.8016615e-10,1.4617427e-09,0.0036482369,2
202197012,202196729,-0.4584671,0.0116835255,-0.013105852,0.88853794,0.9999934,-6.8016615e-10,1.4617427e-09,0.0036482369,2
202202002,202201729,-0.45847324,0.01167359,-0.013095379,0.8885351,0.9999934,-6.8016615e-10,1.4617427e-09,0.0036482369,2
202207065,202206729,-0.45847613,0.011670539,-0.013098422,0.8885336,0.9999934,-6.8016615e-10,1.4617427e-09,0.0036482369,2
202212020,202211728,-0.45847952,0.011683666,-0.013089259,0.8885318,0.9999934,-6.8016615e-10,1.4617427e-09,0.0036482369,2
202217032,202216729,-0.4584882,0.011683163,-0.01310063,0.88852715,0.9999934,-6.8016615e-10,1.4617427e-09,0.0036482369,2
202222003,202221729,-0.45847794,0.011696885,-0.013118534,0.888532,0.9999934,-6.8016615e-10,1.4617427e-09,0.0036482369,2
202227013,202226729,-0.458477,0.011709573,-0.013127413,0.8885322,0.9999934,-6.8016615e-10,1.4617427e-09,0.0036482369,2
202232015,202231729,-0.45847768,0.011700521,-0.013102952,0.88853234,0.9999934,-6.8016615e-10,1.4617427e-09,0.0036482369,2
202237004,202236729,-0.45847556,0.011706424,-0.013104674,0.8885333,0.9999934,-6.8016615e-10,1.4617427e-09,0.0036482369,2
202242013,202241729,-0.4584828,0.011686121,-0.013086285,0.88853014,0.9999934,-6.8016615e-10,1.4617427e-09,0.0036482369,2
202247009,202246729,-0.45848268,0.011698496,-0.0130855525,0.8885301,0.9999934,-6.8016615e-10,1.4617427e-09,0.0036482369,2
202252020,202251729,-0.4584854,0.011698972,-0.013089976,0.8885286,0.9999934,-6.8016615e-10,1.4617427e-09,0.0036482369,2
202257009,202256730,-0.45848626,0.011704805,-0.013095275,0.88852805,0.9999934,-6.8016615e-10,1.4617427e-09,0.0036482369,2
202262005,202261729,-0.4584846,0.01170386,-0.013110618,0.8885286,0.9999934,-6.8016615e-10,1.4617427e-09,0.0036482369,2
202267007,202266729,-0.45848015,0.011716194,-0.013125533,0.8885305,0.9999934,-6.8016615e-10,1.4617427e-09,0.0036482369,2
202272068,202271730,-0.45847875,0.011702472,-0.013119472,0.8885315,0.9999934,-6.8016615e-10,1.4617427e-09,0.0036482369,2
202277005,202276729,-0.4584792,0.011709863,-0.013112894,0.88853127,0.9999934,-6.8016615e-10,1.4617427e-09,0.0036482369,2
202282001,202281729,-0.4584889,0.011685951,-0.013106135,0.88852674,0.9999934,-6.8016615e-10,1.4617427e-09,0.0036482369,2
202287006,202286729,-0.45848924,0.011695343,-0.013101386,0.8885265,0.9999934,-6.8016615e-10,1.4617427e-09,0.0036482369,2
202292014,202291729,-0.45849928,0.011688108,-0.0130969975,0.8885215,0.9999934,-6.8016615e-10,1.4617427e-09,0.0036482369,2
202297006,202296728,-0.45849335,0.011689234,-0.0131126065,0.8885243,0.9999934,-6.8016615e-10,1.4617427e-09,0.0036482369,2
202302002,202301729,-0.45849413,0.011696489,-0.01311564,0.88852376,0.9999934,-6.8016615e-10,1.4617427e-09,0.0036482369,2
202307023,202306729,-0.45848784,0.011707357,-0.013128092,0.8885266,0.9999934,-6.8016615e-10,1.4617427e-09,0.0036482369,2
202312025,202311729,-0.4584868,0.011700616,-0.013133491,0.8885272,0.9999934,-6.8016615e-10,1.4617427e-09,0.0036482369,2
202317010,202316729,-0.4584911,0.011706403,-0.013127267,0.8885249,0.9999934,-6.8016615e-10,1.4617427e-09,0.0036482369,2
202322002,202321729,-0.4584916,0.011699822,-0.013110864,0.888525,0.9999934,-6.8016615e-10,1.4617427e-09,0.0036482369,2
202327007,202326729,-0.45849717,0.011692561,-0.013104083,0.8885224,0.9999934,-6.8016615e-10,1.4617427e-09,0.0036482369,2
202332013,202331729,-0.4585018,0.011688534,-0.013101767,0.88852006,0.9999934,-6.8016615e-10,1.4617427e-09,0.0036482369,2
202337006,202336730,-0.45850638,0.011687057,-0.013101784,0.8885177,0.9999934,-6.8016615e-10,1.4617427e-09,0.0036482369,2
202342019,202341729,-0.45850515,0.011705606,-0.013103454,0.88851804,0.9999934,-6.8016615e-10,1.4617427e-09,0.0036482369,2
202347010,202346729,-0.45850188,0.011703655,-0.013122872,0.8885196,0.9999934,-6.8016615e-10,1.4617427e-09,0.0036482369,2
202352051,202351729,-0.4585042,0.011707912,-0.013128497,0.8885182,0.9999934,-6.8016615e-10,1.4617427e-09,0.0036482369,2
202357035,202356729,-0.45850185,0.011716447,-0.013126508,0.88851935,0.9999934,-6.8016615e-10,1.4617427e-09,0.0036482369,2
202362010,202361729,-0.4585005,0.011709214,-0.013114363,0.8885202,0.9999934,-6.8016615e-10,1.4617427e-09,0.0036482369,2
202367056,202366729,-0.45850787,0.011696534,-0.013099679,0.8885169,0.9999934,-6.8016615e-10,1.4617427e-09,0.0036482369,2
202372054,202371729,-0.45850945,0.011692974,-0.0130941905,0.8885162,0.9999934,-6.8016615e-10,1.4617427e-09,0.0036482369,2
202377007,202376730,-0.4585063,0.011694084,-0.013098094,0.88851774,0.9999934,-6.8016615e-10,1.4617427e-09,0.0036482369,2
202382023,202381729,-0.45851,0.011693044,-0.01310732,0.88851565,0.9999934,-6.8016615e-10,1.4617427e-09,0.0036482369,2
202387011,202386729,-0.45850706,0.011688436,-0.013119612,0.8885171,0.9999934,-6.8016615e-10,1.4617427e-09,0.0036482369,2
202392019,202391728,-0.45849735,0.011708204,-0.013131273,0.8885217,0.9999934,-6.8016615e-10,1.4617427e-09,0.0036482369,2
202397015,202396732,-0.45849803,0.011705672,-0.013127017,0.8885214,0.9999934,-6.8016615e-10,1.4617427e-09,0.0036482369,2
202402002,202401729,-0.45849535,0.011702756,-0.013130959,0.88852274,0.9999934,-6.8016615e-10,1.4617427e-09,0.0036482369,2
202407018,202406729,-0.45849994,0.011685687,-0.013111359,0.8885209,0.9999934,-6.8016615e-10,1.4617427e-09,0.0036482369,2
202412016,202411728,-0.45850736,0.011691204,-0.013117901,0.8885169,0.9999934,-6.8016615e-10,1.4617427e-09,0.0036482369,2
202417017,202416730,-0.45851177,0.011681564,-0.013112969,0.8885148,0.9999934,-6.8016615e-10,1.4617427e-09,0.0036482369,2
202422005,202421729,-0.4585179,0.01168301,-0.013120842,0.8885116,0.9999934,-6.8016615e-10,1.4617427e-09,0.0036482369,2
202427006,202426729,-0.45851713,0.011673933,-0.013125612,0.8885119,0.9999934,-6.8016615e-10,1.4617427e-09,0.0036482369,2
202432020,202431729,-0.4585171,0.0117084235,-0.013131485,0.88851154,0.9999934,-6.8016615e-10,1.4617427e-09,0.0036482369,2
202437010,202436730,-0.4585098,0.011702114,-0.0131394295,0.8885151,0.9999934,-6.8016615e-10,1.4617427e-09,0.0036482369,2
202442014,202441729,-0.45850867,0.011700784,-0.013133962,0.88851583,0.9999934,-6.8016615e-10,1.4617427e-09,0.0036482369,2
202447012,202446729,-0.45851576,0.011683935,-0.013128445,0.8885125,0.9999934,-6.8016615e-10,1.4617427e-09,0.0036482369,2
202452019,202451730,-0.45851895,0.0116855,-0.013118564,0.888511,0.9999934,-6.8016615e-10,1.4617427e-09,0.0036482369,2
202457009,202456729,-0.4585257,0.011673605,-0.013119491,0.88850766,0.9999934,-6.8016615e-10,1.4617427e-09,0.0036482369,2
202462009,202461729,-0.4585343,0.011669325,-0.013122104,0.88850325,0.9999934,-6.8016615e-10,1.4617427e-09,0.0036482369,2
202467007,202466729,-0.45853126,0.011666438,-0.013127623,0.8885048,0.9999934,-6.8016615e-10,1.4617427e-09,0.0036482369,2
202472037,202471730,-0.45852363,0.011684264,-0.013147022,0.8885082,0.9999934,-6.8016615e-10,1.4617427e-09,0.0036482369,2
202477066,202476729,-0.4585235,0.011687976,-0.013145241,0.8885082,0.9999934,-6.8016615e-10,1.4617427e-09,0.0036482369,2
202482001,202481729,-0.4585177,0.011696832,-0.0131477155,0.8885111,0.9999934,-6.8016615e-10,1.4617427e-09,0.0036482369,2
202487008,202486729,-0.45851713,0.011689053,-0.013145114,0.88851154,0.9999934,-6.8016615e-10,1.4617427e-09,0.0036482369,2
202492014,202491729,-0.45852935,0.011675485,-0.013129372,0.88850564,0.9999934,-6.8016615e-10,1.4617427e-09,0.0036482369,2
202497004,202496729,-0.45853016,0.01168635,-0.013127258,0.8885051,0.9999934,-6.8016615e-10,1.4617427e-09,0.0036482369,2
202502002,202501729,-0.45854115,0.011666231,-0.013126778,0.8884997,0.9999934,-6.8016615e-10,1.4617427e-09,0.0036482369,2
202507033,202506729,-0.45854238,0.011678029,-0.013133972,0.8884988,0.9999934,-6.8016615e-10,1.4617427e-09,0.0036482369,2
202512018,202511729,-0.45853868,0.011683002,-0.013147868,0.8885004,0.9999934,-6.8016615e-10,1.4617427e-09,0.0036482369,2
202517008,202516730,-0.45854002,0.011702347,-0.013143723,0.8884996,0.9999934,-6.8016615e-10,1.4617427e-09,0.0036482369,2
202522008,202521729,-0.45853293,0.011705075,-0.013143819,0.88850313,0.9999934,-6.8016615e-10,1.4617427e-09,0.0036482369,2
202527007,202526729,-0.4585348,0.011715178,-0.0131374765,0.8885021,0.9999934,-6.8016615e-10,1.4617427e-09,0.0036482369,2
202532017,202531729,-0.4585331,0.011695519,-0.013132176,0.8885033,0.9999934,-6.8016615e-10,1.4617427e-09,0.0036482369,2
202537014,202536732,-0.45854422,0.011705112,-0.013127451,0.88849753,0.9999934,-6.8016615e-10,1.4617427e-09,0.0036482369,2
202542013,202541729,-0.45855114,0.011689103,-0.013130978,0.88849425,0.9999934,-6.8016615e-10,1.4617427e-09,0.0036482369,2
202547037,202546729,-0.45855054,0.011689167,-0.013136071,0.88849443,0.9999934,-6.8016615e-10,1.4617427e-09,0.0036482369,2
202552048,202551729,-0.45855242,0.011691785,-0.013153782,0.8884931,0.9999934,-6.8016615e-10,1.4617427e-09,0.0036482369,2
202557037,202556730,-0.4585498,0.0117035415,-0.013153934,0.8884943,0.9999934,-6.8016615e-10,1.4617427e-09,0.0036482369,2
202562036,202561729,-0.45854503,0.011716768,-0.013155082,0.8884966,0.9999934,-6.8016615e-10,1.4617427e-09,0.0036482369,2
202567006,202566729,-0.4585399,0.011709378,-0.013149571,0.88849944,0.9999934,-6.8016615e-10,1.4617427e-09,0.0036482369,2
202572034,202571729,-0.45854455,0.011700558,-0.013150419,0.8884972,0.9999934,-6.8016615e-10,1.4617427e-09,0.0036482369,2
202577003,202576729,-0.458552,0.01169889,-0.013142087,0.88849336,0.9999934,-6.8016615e-10,1.4617427e-09,0.0036482369,2
202582003,202581729,-0.45856065,0.011690643,-0.01313564,0.88848925,0.9999934,-6.8016615e-10,1.4617427e-09,0.0036482369,2
202587007,202586729,-0.45856684,0.011675485,-0.013148342,0.8884859,0.9999934,-6.8016615e-10,1.4617427e-09,0.0036482369,2
202592014,202591729,-0.45857137,0.011679252,-0.013146116,0.8884837,0.9999934,-6.8016615e-10,1.4617427e-09,0.0036482369,2
202597002,202596730,-0.45857427,0.011677474,-0.013161789,0.88848186,0.9999934,-6.8016615e-10,1.4617427e-09,0.0036482369,2
202602002,202601729,-0.4585659,0.011716141,-0.013154769,0.8884859,0.9999934,-6.8016615e-10,1.4617427e-09,0.0036482369,2
202607080,202606729,-0.4585648,0.011717071,-0.013158962,0.8884864,0.9999934,-6.8016615e-10,1.4617427e-09,0.0036482369,2
202612042,202611729,-0.45856997,0.011720673,-0.013145974,0.8884837,0.9999934,-6.8016615e-10,1.4617427e-09,0.0036482369,2
202617006,202616729,-0.45857725,0.011708772,-0.013136543,0.88848037,0.9999934,-6.8016615e-10,1.4617427e-09,0.0036482369,2
202622000,202621729,-0.4585813,0.011716813,-0.013129639,0.88847816,0.9999934,-6.8016615e-10,1.4617427e-09,0.0036482369,2
202627018,202626729,-0.45859033,0.011702334,-0.013127332,0.88847387,0.9999934,-6.8016615e-10,1.4617427e-09,0.0036482369,2
202632012,202631729,-0.4585953,0.011704602,-0.013139575,0.88847107,0.9999934,-6.8016615e-10,1.4617427e-09,0.0036482369,2
202637008,202636729,-0.45858574,0.011704971,-0.013150833,0.8884757,0.9999934,-6.8016615e-10,1.4617427e-09,0.0036482369,2
202642013,202641729,-0.45858595,0.011728982,-0.013152204,0.8884754,0.9999934,-6.8016615e-10,1.4617427e-09,0.0036482369,2
202647044,202646729,-0.45857847,0.011737636,-0.013157497,0.88847893,0.9999934,-6.8016615e-10,1.4617427e-09,0.0036482369,2
202652017,202651729,-0.45857593,0.011740908,-0.013153815,0.88848037,0.9999934,-6.8016615e-10,1.4617427e-09,0.0036482369,2
202657015,202656729,-0.45858395,0.011730424,-0.0131466035,0.88847643,0.9999934,-6.8016615e-10,1.4617427e-09,0.0036482369,2
202662007,202661729,-0.45859173,0.011718687,-0.013136988,0.8884727,0.9999934,-6.8016615e-10,1.4617427e-09,0.0036482369,2
202667010,202666730,-0.458602,0.011724145,-0.013133398,0.8884674,0.9999934,-6.8016615e-10,1.4617427e-09,0.0036482369,2
202672029,202671729,-0.4586109,0.0117028225,-0.013142695,0.88846296,0.9999934,-6.8016615e-10,1.4617427e-09,0.0036482369,2
