timestamp,timestamp_sample,gps_hvel[0],gps_hvel[1],gps_vvel,gps_hpos[0],gps_hpos[1],gps_vpos,ev_hvel[0],ev_hvel[1],ev_vvel,ev_hpos[0],ev_hpos[1],ev_vpos,rng_vpos,baro_vpos,aux_hvel[0],aux_hvel[1],flow[0],flow[1],terr_flow[0],terr_flow[1],heading,mag_field[0],mag_field[1],mag_field[2],gravity[0],gravity[1],gravity[2],drag[0],drag[1],airspeed,beta,hagl,hagl_rate
200523948,200333649,8.888005e-05,0.0008136921,2.4085439e-06,6.2756626e-06,9.3254246e-05,0.00047903485,0.0,0.0,0.0,0.0,0.0,0.0,0.0,7.697817e-05,0.0,0.0,0.0,0.0,0.0,0.0,0.00076208566,1.0589394e-05,0.00076208566,7.812287e-06,7.305775e-05,1.1102591e-06,4.520416e-09,0.0,0.0,0.0,0.0,0.0,0.0
201024183,200833649,5.0158967e-05,0.0011604846,5.055883e-07,1.5234919e-08,8.8976354e-05,0.00042557798,0.0,0.0,0.0,0.0,0.0,0.0,0.0,0.00023946758,0.0,0.0,0.0,0.0,0.0,0.0,0.0008061265,1.864788e-05,0.0008061265,3.0578707e-05,0.004346996,1.3713507e-05,2.1878814e-06,0.0,0.0,0.0,0.0,0.0,0.0
201524181,201333648,0.00077230413,0.00041978032,1.9578167e-05,1.0948217e-05,7.41527e-05,0.0004434601,0.0,0.0,0.0,0.0,0.0,0.0,0.0,6.378244e-07,0.0,0.0,0.0,0.0,0.0,0.0,0.00050804816,7.135189e-05,0.00050804816,4.27858e-05,0.000119275945,0.00017522459,2.1020293e-07,0.0,0.0,0.0,0.0,0.0,0.0
202024203,201833648,0.0023958336,0.00032153862,0.0010713093,2.3679956e-08,8.9551046e-05,0.00020665502,0.0,0.0,0.0,0.0,0.0,0.0,0.0,0.00024766926,0.0,0.0,0.0,0.0,0.0,0.0,0.0007287522,4.642163e-06,0.0007287522,9.0619986e-05,0.00084503833,0.0041399286,2.9198127e-06,0.0,0.0,0.0,0.0,0.0,0.0
202524171,202333648,0.0011922935,0.00045349682,0.0005807078,1.4464601e-05,3.698087e-05,0.0002220361,0.0,0.0,0.0,0.0,0.0,0.0,0.0,0.00010482346,0.0,0.0,0.0,0.0,0.0,0.0,0.00038532403,0.0001793648,0.00038532403,2.2593504e-06,0.00038913192,0.0022039132,4.2335214e-06,0.0,0.0,0.0,0.0,0.0,0.0
203024168,202833648,4.0452534e-05,0.002766344,1.1696379e-05,2.0166588e-06,5.8055808e-05,0.00030559258,0.0,0.0,0.0,0.0,0.0,0.0,0.0,0.0001984629,0.0,0.0,0.0,0.0,0.0,0.0,0.00026677968,0.00026677968,0.00023119857,1.6987745e-07,0.00056438224,1.104397e-05,2.3679155e-07,0.0,0.0,0.0,0.0,0.0,0.0
203524163,203333648,0.0006785212,0.00053961755,0.00017068835,1.4116478e-05,1.618692e-05,0.0002293624,0.0,0.0,0.0,0.0,0.0,0.0,0.0,8.1120634e-05,0.0,0.0,0.0,0.0,0.0,0.0,0.00017060376,0.00017060376,8.360647e-05,3.936522e-06,0.0003512706,0.0007186639,1.44506e-06,0.0,0.0,0.0,0.0,0.0,0.0
204024169,203833648,0.00012438533,0.00026989816,0.00027189282,1.2921451e-05,4.7202516e-06,0.0002995317,0.0,0.0,0.0,0.0,0.0,0.0,0.0,2.1706612e-05,0.0,0.0,0.0,0.0,0.0,0.0,0.00035754213,0.00010597196,0.00035754213,0.00013003805,0.0051533207,7.030819e-05,3.342292e-06,0.0,0.0,0.0,0.0,0.0,0.0
204524166,204333648,0.000104738254,0.0010401518,0.00010109925,6.982377e-06,6.9145062e-06,0.00022069267,0.0,0.0,0.0,0.0,0.0,0.0,0.0,0.00034559963,0.0,0.0,0.0,0.0,0.0,0.0,0.00040047217,0.000106571424,0.00040047217,0.00030512497,2.5425119e-05,0.012810201,9.744477e-06,0.0,0.0,0.0,0.0,0.0,0.0
205024199,204833648,0.00016590714,0.00010253087,0.00013592943,2.4334662e-07,4.4593426e-06,0.00019324572,0.0,0.0,0.0,0.0,0.0,0.0,0.0,0.00021420758,0.0,0.0,0.0,0.0,0.0,0.0,0.0013870801,0.00015899788,0.00046575736,0.0013870801,0.00013401994,0.021332808,9.600627e-06,0.0,0.0,0.0,0.0,0.0,0.0
205524171,205333648,0.00080230914,2.172507e-06,2.7151124e-05,3.0251927e-06,5.108571e-06,8.191203e-05,0.0,0.0,0.0,0.0,0.0,0.0,0.0,0.00021769297,0.0,0.0,0.0,0.0,0.0,0.0,0.0059434404,0.00023867609,0.0012877939,0.0059434404,0.002609442,0.010364494,4.4692392e-06,0.0,0.0,0.0,0.0,0.0,0.0
206024167,205833648,0.0002214062,0.001342529,0.0020302946,3.0262318e-05,4.968205e-06,8.500131e-06,0.0,0.0,0.0,0.0,0.0,0.0,0.0,0.000204319,0.0,0.0,0.0,0.0,0.0,0.0,0.009647066,0.00012504184,0.0005068989,0.009647066,0.00028806212,0.015535063,6.811934e-06,0.0,0.0,0.0,0.0,0.0,0.0
207024196,206833649,0.0037660042,0.0041390196,0.008023926,3.1010938e-09,1.3055211e-05,4.2498534e-05,0.0,0.0,0.0,0.0,0.0,0.0,0.0,0.0005459103,0.0,0.0,0.0,0.0,0.0,0.0,0.010261893,8.7278284e-05,0.0003090447,0.010261893,0.38691935,0.00013723559,0.003863452,0.0,0.0,0.0,0.0,0.0,0.0
207524182,207333648,0.00017139442,0.0012228113,0.0034898238,5.504548e-06,1.4975928e-06,0.00012740087,0.0,0.0,0.0,0.0,0.0,0.0,0.0,0.00022239021,0.0,0.0,0.0,0.0,0.0,0.0,0.009708882,0.00013334844,0.0004088904,0.009708882,0.2218778,1.7004622e-05,0.0009891496,0.0,0.0,0.0,0.0,0.0,0.0
208024196,207833648,0.00055517355,0.0013756832,0.0034435578,9.8040324e-08,7.125039e-06,0.00023552727,0.0,0.0,0.0,0.0,0.0,0.0,0.0,0.00032335025,0.0,0.0,0.0,0.0,0.0,0.0,0.009268932,2.0832184e-05,0.0010181561,0.009268932,0.00040223438,0.02629347,1.459196e-05,0.0,0.0,0.0,0.0,0.0,0.0
208524111,208333651,0.001445366,0.0021528332,0.002220976,4.6663106e-07,2.435111e-07,0.00035763282,0.0,0.0,0.0,0.0,0.0,0.0,0.0,0.00014126503,0.0,0.0,0.0,0.0,0.0,0.0,0.00076996407,3.046663e-06,2.9926809e-05,0.00076996407,0.026452001,0.010039941,1.1785414e-05,0.0,0.0,0.0,0.0,0.0,0.0
209024104,208833648,0.0046420577,0.00012789646,0.0010193817,9.416429e-06,1.0178363e-05,0.00056315993,0.0,0.0,0.0,0.0,0.0,0.0,0.0,0.00049201294,0.0,0.0,0.0,0.0,0.0,0.0,0.000104197614,0.000104197614,6.38627e-05,7.8653036e-05,0.023989731,0.10645046,5.7367556e-06,0.0,0.0,0.0,0.0,0.0,0.0
209524138,209333648,0.0041993554,0.00019707925,0.00034927556,4.2359934e-05,3.96896e-05,0.00061619433,0.0,0.0,0.0,0.0,0.0,0.0,0.0,1.7767363e-05,0.0,0.0,0.0,0.0,0.0,0.0,0.000100809535,4.7499878e-08,8.6003e-05,0.000100809535,0.17582572,0.13502422,0.00028659595,0.0,0.0,0.0,0.0,0.0,0.0
210024143,209833648,0.0002738247,0.00027450072,6.201157e-05,3.650758e-05,0.00013305109,0.0006988572,0.0,0.0,0.0,0.0,0.0,0.0,0.0,0.0017957606,0.0,0.0,0.0,0.0,0.0,0.0,4.146954e-05,1.0667317e-05,3.341913e-05,4.146954e-05,0.13127439,0.008985811,0.0026954785,0.0,0.0,0.0,0.0,0.0,0.0
210524106,210333648,0.0011507025,0.0013738278,0.00089155673,5.945338e-05,0.00020012926,0.0005053037,0.0,0.0,0.0,0.0,0.0,0.0,0.0,0.00071583467,0.0,0.0,0.0,0.0,0.0,0.0,6.9964495e-05,4.1439484e-06,6.9964495e-05,1.6860156e-05,0.13553841,0.0014803016,0.0013851322,0.0,0.0,0.0,0.0,0.0,0.0
211524007,211333648,6.7393685e-06,0.0001628858,0.0016293669,7.90435e-05,0.0002941918,0.0004166386,0.0,0.0,0.0,0.0,0.0,0.0,0.0,0.00048591683,0.0,0.0,0.0,0.0,0.0,0.0,0.000121952995,4.123285e-05,1.05554045e-05,0.000121952995,0.4650105,0.2450484,0.021573773,0.0,0.0,0.0,0.0,0.0,0.0
212023951,211833648,0.00048189212,0.0015947263,0.0011914397,4.87094e-05,0.0001683775,0.0004491506,0.0,0.0,0.0,0.0,0.0,0.0,0.0,4.817064e-05,0.0,0.0,0.0,0.0,0.0,0.0,0.0004008485,9.638007e-05,0.00019665778,0.0004008485,0.009902921,0.026200172,5.1812578e-05,0.0,0.0,0.0,0.0,0.0,0.0
212523940,212333648,0.0001087457,0.0016796276,0.008033453,4.213031e-05,0.00013717281,5.5177765e-07,0.0,0.0,0.0,0.0,0.0,0.0,0.0,0.0011471069,0.0,0.0,0.0,0.0,0.0,0.0,0.0001303481,6.2413125e-07,0.0001303481,2.0131004e-06,0.5169051,0.030068358,0.006124059,0.0,0.0,0.0,0.0,0.0,0.0
213023946,212833648,0.00015416543,0.0010701637,0.002569237,1.5867632e-05,9.5445475e-06,2.472426e-05,0.0,0.0,0.0,0.0,0.0,0.0,0.0,0.0007322783,0.0,0.0,0.0,0.0,0.0,0.0,0.00030443128,0.000254871,0.00030443128,0.00029614466,0.15734784,0.23908825,2.6934997e-05,0.0,0.0,0.0,0.0,0.0,0.0
213523937,213333648,0.005433079,0.0027692514,0.00020688,4.134562e-05,0.00012347172,0.00020164554,0.0,0.0,0.0,0.0,0.0,0.0,0.0,1.7742957e-05,0.0,0.0,0.0,0.0,0.0,0.0,0.00058050844,8.779516e-05,0.00017974872,0.00058050844,0.3153628,0.21879253,0.000113420734,0.0,0.0,0.0,0.0,0.0,0.0
214023940,213833648,0.0034844263,3.5568683e-05,7.715773e-05,7.4080766e-05,0.00042016924,0.00024949198,0.0,0.0,0.0,0.0,0.0,0.0,0.0,0.0002493905,0.0,0.0,0.0,0.0,0.0,0.0,0.00021565185,1.929052e-06,0.00021565185,0.00020284436,0.41041493,0.0114784045,1.5456864e-05,0.0,0.0,0.0,0.0,0.0,0.0
214523943,214333648,0.020446183,0.0029407106,1.5314464e-06,3.822935e-06,0.0007484871,0.00029302665,0.0,0.0,0.0,0.0,0.0,0.0,0.0,0.0015684634,0.0,0.0,0.0,0.0,0.0,0.0,0.00016183252,8.793623e-05,3.2841028e-05,0.00016183252,0.10445235,0.022439724,1.966664e-06,0.0,0.0,0.0,0.0,0.0,0.0
215023968,214833648,7.603655e-07,0.001016297,0.0031614075,2.36002e-05,0.0005238635,0.0011377058,0.0,0.0,0.0,0.0,0.0,0.0,0.0,0.0013652593,0.0,0.0,0.0,0.0,0.0,0.0,9.431197e-05,3.6163387e-05,9.431197e-05,5.3026553e-05,0.033648618,0.0064768037,0.00016051179,0.0,0.0,0.0,0.0,0.0,0.0
215523942,215333648,0.007661207,2.8602393e-05,0.0040757027,4.365745e-05,0.00047663803,0.0014812952,0.0,0.0,0.0,0.0,0.0,0.0,0.0,0.00014399961,0.0,0.0,0.0,0.0,0.0,0.0,5.5349024e-05,3.5956655e-06,1.2125475e-06,5.5349024e-05,0.043853033,7.72003e-05,1.9642293e-05,0.0,0.0,0.0,0.0,0.0,0.0
216023940,215833648,3.7680995e-05,0.001066653,0.003053253,1.1470129e-05,0.00037627175,0.0017331525,0.0,0.0,0.0,0.0,0.0,0.0,0.0,3.1151878e-05,0.0,0.0,0.0,0.0,0.0,0.0,3.0267394e-05,3.0267394e-05,7.059955e-06,7.594421e-08,0.11679294,0.049919665,7.914929e-05,0.0,0.0,0.0,0.0,0.0,0.0
216523966,216333648,0.000639351,0.0037134085,0.0028714207,2.1204814e-06,0.00018822511,0.0018353713,0.0,0.0,0.0,0.0,0.0,0.0,0.0,0.00065029453,0.0,0.0,0.0,0.0,0.0,0.0,0.00017966081,0.00017966081,0.00011216457,9.615856e-06,0.31642056,0.117925644,0.025490258,0.0,0.0,0.0,0.0,0.0,0.0
217023938,216833648,0.0006501851,0.002115162,0.0031879812,7.2406976e-05,0.00011858922,0.0027403536,0.0,0.0,0.0,0.0,0.0,0.0,0.0,0.00022486222,0.0,0.0,0.0,0.0,0.0,0.0,0.0002154333,0.000175721,9.982097e-06,0.0002154333,0.27672985,0.115784526,0.0098869065,0.0,0.0,0.0,0.0,0.0,0.0
217523942,217333648,0.015515227,0.0029950102,0.007468995,0.00011370214,6.688723e-05,0.003458339,0.0,0.0,0.0,0.0,0.0,0.0,0.0,8.109735e-05,0.0,0.0,0.0,0.0,0.0,0.0,0.00018937144,2.3888772e-06,0.00018457709,0.00018937144,0.29059717,0.16164644,0.002850113,0.0,0.0,0.0,0.0,0.0,0.0
218023944,217833648,0.000742836,6.223058e-05,0.002254443,6.934823e-05,0.000108712346,0.0024059578,0.0,0.0,0.0,0.0,0.0,0.0,0.0,0.00018188448,0.0,0.0,0.0,0.0,0.0,0.0,0.00054485665,0.00054485665,6.4783676e-06,0.00044959612,0.5238028,0.85538346,0.11491044,0.0,0.0,0.0,0.0,0.0,0.0
218523940,218333648,8.230361e-05,9.4798896e-05,0.003386207,0.00028360036,2.2425456e-05,0.0021585883,0.0,0.0,0.0,0.0,0.0,0.0,0.0,8.2394104e-07,0.0,0.0,0.0,0.0,0.0,0.0,0.00067282334,0.00067282334,0.00043720283,4.1071216e-05,0.24277893,0.056780387,0.044103995,0.0,0.0,0.0,0.0,0.0,0.0
219023941,218833648,6.265567e-05,0.028685644,0.007610766,0.0002762177,0.00018063399,0.0025449719,0.0,0.0,0.0,0.0,0.0,0.0,0.0,0.001011378,0.0,0.0,0.0,0.0,0.0,0.0,0.0003513984,0.00022758522,0.0003513984,4.7486137e-05,1.5605133,0.05573609,0.051401895,0.0,0.0,0.0,0.0,0.0,0.0
219523942,219333648,0.018682143,1.3066099e-06,0.0036576758,0.00048138006,3.0433853e-06,0.0026883967,0.0,0.0,0.0,0.0,0.0,0.0,0.0,8.949642e-05,0.0,0.0,0.0,0.0,0.0,0.0,0.00019017186,1.1123207e-05,0.00019017186,3.3075623e-05,0.62719643,0.005210685,0.021540657,0.0,0.0,0.0,0.0,0.0,0.0
220023942,219833648,0.0019157092,0.0026832297,0.0018964222,0.00040899092,3.0114638e-06,0.0026052115,0.0,0.0,0.0,0.0,0.0,0.0,0.0,0.0006931824,0.0,0.0,0.0,0.0,0.0,0.0,4.856037e-05,1.1498086e-06,4.856037e-05,1.01262565e-07,0.42682007,0.19285081,0.018948963,0.0,0.0,0.0,0.0,0.0,0.0
221023938,220833648,4.6802867e-05,8.300369e-07,0.0059818416,0.00024173709,3.5907713e-05,0.0032986058,0.0,0.0,0.0,0.0,0.0,0.0,0.0,0.00023959985,0.0,0.0,0.0,0.0,0.0,0.0,6.483558e-05,8.891609e-06,6.483558e-05,4.9036704e-09,0.2876908,0.097160116,0.003687117,0.0,0.0,0.0,0.0,0.0,0.0
221523975,221333648,4.2838168e-05,9.188894e-05,0.0039147153,0.00016070962,0.00016323106,0.003511065,0.0,0.0,0.0,0.0,0.0,0.0,0.0,3.6712872e-06,0.0,0.0,0.0,0.0,0.0,0.0,0.00026976704,3.5222045e-05,9.929769e-05,0.00026976704,0.15118308,0.1367871,0.0017458668,0.0,0.0,0.0,0.0,0.0,0.0
222023940,221833648,0.00014311828,0.0011439878,0.008221315,0.000118062344,0.00027213653,0.0038171764,0.0,0.0,0.0,0.0,0.0,0.0,0.0,0.0001661059,0.0,0.0,0.0,0.0,0.0,0.0,0.0001330432,1.31565e-05,0.0001330432,5.6088396e-05,0.44177142,0.0022357623,0.0037479966,0.0,0.0,0.0,0.0,0.0,0.0
223023938,222833648,0.0050394316,0.00010390951,0.0064048916,0.00016602446,0.00012526865,0.0030914543,0.0,0.0,0.0,0.0,0.0,0.0,0.0,0.0002878889,0.0,0.0,0.0,0.0,0.0,0.0,9.313096e-05,9.313096e-05,1.45622125e-05,1.32136465e-05,0.14187582,0.03194782,1.324046e-05,0.0,0.0,0.0,0.0,0.0,0.0
223523938,223333648,3.928255e-05,0.001158767,0.0075193653,0.00038732728,0.00010935714,0.0028313743,0.0,0.0,0.0,0.0,0.0,0.0,0.0,7.8802705e-06,0.0,0.0,0.0,0.0,0.0,0.0,9.63424e-06,1.3690868e-06,9.63424e-06,8.673052e-07,0.01176715,0.047499295,4.0250376e-05,0.0,0.0,0.0,0.0,0.0,0.0
224023942,223833648,0.001942881,0.002510182,0.007189019,0.00036905485,0.0001112871,0.0026155454,0.0,0.0,0.0,0.0,0.0,0.0,0.0,9.1687225e-06,0.0,0.0,0.0,0.0,0.0,0.0,7.459214e-05,4.0425282e-05,6.205513e-05,7.459214e-05,0.121029176,0.1026758,0.0010931261,0.0,0.0,0.0,0.0,0.0,0.0
224523942,224333648,0.00077023136,0.004028618,0.0020041512,0.00026102943,6.7187815e-05,0.0021963676,0.0,0.0,0.0,0.0,0.0,0.0,0.0,5.0089147e-05,0.0,0.0,0.0,0.0,0.0,0.0,2.2384991e-05,2.2384991e-05,5.2293112e-06,7.6150786e-07,0.29304522,0.027471773,0.0007422275,0.0,0.0,0.0,0.0,0.0,0.0
225023940,224833648,0.0029899888,0.00079998706,0.0064546485,0.00024807008,6.6847686e-05,0.0020458137,0.0,0.0,0.0,0.0,0.0,0.0,0.0,0.0001552046,0.0,0.0,0.0,0.0,0.0,0.0,9.960727e-06,9.911315e-06,5.6078886e-08,9.960727e-06,0.010947421,0.0016070309,8.866159e-06,0.0,0.0,0.0,0.0,0.0,0.0
226023946,225833648,0.0058589885,0.00060457585,0.0039819693,0.00022534488,2.1596614e-05,0.0016397914,0.0,0.0,0.0,0.0,0.0,0.0,0.0,4.4037324e-07,0.0,0.0,0.0,0.0,0.0,0.0,4.2707932e-05,2.333606e-05,4.2707932e-05,2.1038318e-09,0.0062198304,0.08007677,1.2873942e-06,0.0,0.0,0.0,0.0,0.0,0.0
226523969,226333648,0.0038341705,0.00082839746,0.006077236,0.00033271575,2.5481046e-05,0.001528806,0.0,0.0,0.0,0.0,0.0,0.0,0.0,0.00013326341,0.0,0.0,0.0,0.0,0.0,0.0,7.1848726e-06,7.1848726e-06,1.03347794e-07,2.0581183e-08,0.012208559,0.07775851,1.940671e-06,0.0,0.0,0.0,0.0,0.0,0.0
227023941,226833648,0.0008620076,0.003339233,0.002316086,0.00037222498,9.063994e-06,0.0013869224,0.0,0.0,0.0,0.0,0.0,0.0,0.0,3.4218958e-06,0.0,0.0,0.0,0.0,0.0,0.0,0.00020064726,0.00020064726,7.838408e-06,4.980983e-06,0.07141188,0.00094085815,0.00078645156,0.0,0.0,0.0,0.0,0.0,0.0
227523937,227333648,0.0024100407,0.002833925,0.001892071,0.00039014578,7.5030234e-06,0.0015971372,0.0,0.0,0.0,0.0,0.0,0.0,0.0,0.0006160905,0.0,0.0,0.0,0.0,0.0,0.0,0.0002670437,6.351323e-05,0.0002670437,2.9176881e-05,0.011577071,4.0336872e-05,1.7929413e-05,0.0,0.0,0.0,0.0,0.0,0.0
228023943,227833648,0.0018475145,0.0013724387,0.0025062875,0.00035552378,1.1149008e-06,0.0013254451,0.0,0.0,0.0,0.0,0.0,0.0,0.0,4.4411395e-06,0.0,0.0,0.0,0.0,0.0,0.0,0.00025620774,0.00025620774,0.00011596018,0.00015030596,0.031068727,0.038939614,0.00021210419,0.0,0.0,0.0,0.0,0.0,0.0
228523940,228333648,0.0009101269,0.00012925483,0.0038983147,0.0002734676,1.6177231e-11,0.0014365979,0.0,0.0,0.0,0.0,0.0,0.0,0.0,0.00016712343,0.0,0.0,0.0,0.0,0.0,0.0,6.5035165e-05,3.7332826e-05,6.5035165e-05,1.838325e-05,0.19174926,0.644998,0.00064317114,0.0,0.0,0.0,0.0,0.0,0.0
229023940,228833648,1.4555907e-05,0.0028399548,0.0031638043,0.00022407992,6.7398037e-06,0.001001092,0.0,0.0,0.0,0.0,0.0,0.0,0.0,0.00020373352,0.0,0.0,0.0,0.0,0.0,0.0,6.894773e-05,2.1515505e-05,1.8955912e-05,6.894773e-05,0.1323883,0.506811,0.0015600612,0.0,0.0,0.0,0.0,0.0,0.0
229523942,229333648,0.00063039997,0.0006976283,0.00416053,0.00032499727,6.664306e-08,0.0010659383,0.0,0.0,0.0,0.0,0.0,0.0,0.0,5.804458e-05,0.0,0.0,0.0,0.0,0.0,0.0,8.572123e-05,1.4985525e-05,7.4019685e-05,8.572123e-05,0.0012947578,0.01994384,6.286101e-06,0.0,0.0,0.0,0.0,0.0,0.0
230023942,229833648,9.432413e-06,0.00025149997,0.0026570747,0.00029680008,2.2519043e-06,0.00094195234,0.0,0.0,0.0,0.0,0.0,0.0,0.0,0.00013173404,0.0,0.0,0.0,0.0,0.0,0.0,0.00022916829,0.00022916829,2.4932782e-05,1.5938815e-05,0.0070240544,0.0010873392,2.2776037e-05,0.0,0.0,0.0,0.0,0.0,0.0
230523943,230333648,3.8253438e-05,0.00068578275,0.0013885322,0.00030105055,2.0244199e-05,0.0011017178,0.0,0.0,0.0,0.0,0.0,0.0,0.0,1.2827763e-06,0.0,0.0,0.0,0.0,0.0,0.0,2.037939e-05,7.105482e-07,5.486053e-06,2.037939e-05,0.034138117,0.010800919,0.00018363597,0.0,0.0,0.0,0.0,0.0,0.0
231023944,230833648,8.84445e-06,0.0011263627,0.0036578542,0.00033568378,1.4541581e-05,0.0009876104,0.0,0.0,0.0,0.0,0.0,0.0,0.0,0.00012516252,0.0,0.0,0.0,0.0,0.0,0.0,0.00021500987,1.5650925e-05,6.509643e-06,0.00021500987,0.71196383,0.0010426712,0.01386106,0.0,0.0,0.0,0.0,0.0,0.0
231523969,231333648,0.0015024727,3.5278896e-05,0.0030234263,0.00035980996,2.901673e-05,0.0009411219,0.0,0.0,0.0,0.0,0.0,0.0,0.0,5.4980712e-05,0.0,0.0,0.0,0.0,0.0,0.0,7.698796e-05,4.6825076e-07,3.2339528e-06,7.698796e-05,1.4743241e-06,0.03026286,1.4256365e-06,0.0,0.0,0.0,0.0,0.0,0.0
232023938,231833648,2.982023e-08,0.00013404034,0.0018428031,0.00030656523,2.5303134e-05,0.00094935787,0.0,0.0,0.0,0.0,0.0,0.0,0.0,0.0005921544,0.0,0.0,0.0,0.0,0.0,0.0,0.00010005084,3.287503e-08,0.00010005084,4.107485e-05,0.20590891,0.033859678,0.00040004693,0.0,0.0,0.0,0.0,0.0,0.0
232523946,232333648,1.1858059e-06,4.6483536e-05,0.0039937505,0.00025397746,3.2659234e-05,0.001026686,0.0,0.0,0.0,0.0,0.0,0.0,0.0,0.00040205877,0.0,0.0,0.0,0.0,0.0,0.0,0.00036841884,0.0001572956,0.00036841884,5.366363e-07,0.0005211404,0.066331334,0.00019647255,0.0,0.0,0.0,0.0,0.0,0.0
233023969,232833648,2.209929e-07,0.00015446595,0.002573049,0.00024417188,2.5782503e-05,0.000910649,0.0,0.0,0.0,0.0,0.0,0.0,0.0,0.0006122961,0.0,0.0,0.0,0.0,0.0,0.0,2.6986227e-05,8.95127e-07,1.2832599e-05,2.6986227e-05,0.052345708,0.12660003,0.000111831796,0.0,0.0,0.0,0.0,0.0,0.0
233523946,233333648,0.000153667,0.00044822707,0.0016545337,0.00029840268,2.8134962e-05,0.0007946889,0.0,0.0,0.0,0.0,0.0,0.0,0.0,9.733033e-05,0.0,0.0,0.0,0.0,0.0,0.0,4.0321956e-05,2.6576424e-06,4.0321956e-05,1.7507646e-06,0.00269884,0.11779541,0.0003228126,0.0,0.0,0.0,0.0,0.0,0.0
235023947,234833648,0.005407399,2.3157087e-05,0.0012610003,0.00017518307,9.770063e-06,0.00054523256,0.0,0.0,0.0,0.0,0.0,0.0,0.0,0.00016357022,0.0,0.0,0.0,0.0,0.0,0.0,6.388178e-05,4.261321e-05,6.388178e-05,2.6694957e-05,0.33162376,0.2632257,0.0062027476,0.0,0.0,0.0,0.0,0.0,0.0
235523943,235333648,8.290154e-06,0.00023798032,0.0009970419,8.89662e-05,1.1288096e-05,0.00056509057,0.0,0.0,0.0,0.0,0.0,0.0,0.0,4.0694417e-06,0.0,0.0,0.0,0.0,0.0,0.0,0.0018783491,0.0004029957,0.00014919825,0.0018783491,0.18741287,0.013102927,3.8134076e-05,0.0,0.0,0.0,0.0,0.0,0.0
236523967,236333648,0.0009587229,0.0011349018,0.00010109103,0.00014341493,7.274855e-07,0.00036575,0.0,0.0,0.0,0.0,0.0,0.0,0.0,5.9371196e-05,0.0,0.0,0.0,0.0,0.0,0.0,0.0019227165,3.880842e-05,8.9162844e-05,0.0019227165,0.11561252,0.02862506,0.0009918808,0.0,0.0,0.0,0.0,0.0,0.0
237023952,236833648,0.001531748,0.0006041359,0.0015895342,0.00016910427,1.1885909e-06,0.00048641654,0.0,0.0,0.0,0.0,0.0,0.0,0.0,9.4612566e-05,0.0,0.0,0.0,0.0,0.0,0.0,1.35655655e-05,2.3019824e-08,1.35655655e-05,1.2102349e-07,0.4904562,0.004147212,0.0047788173,0.0,0.0,0.0,0.0,0.0,0.0
237523939,237333648,1.6972923e-05,0.00061675196,0.0019144291,7.972674e-05,8.1138635e-10,0.0005321725,0.0,0.0,0.0,0.0,0.0,0.0,0.0,9.1840164e-05,0.0,0.0,0.0,0.0,0.0,0.0,0.00037234597,3.8221556e-06,7.110898e-05,0.00037234597,0.088830404,0.00023297846,2.7157364e-06,0.0,0.0,0.0,0.0,0.0,0.0
238023977,237833648,0.000309668,0.0018836728,0.004566877,7.061035e-05,1.5770216e-06,0.00070935296,0.0,0.0,0.0,0.0,0.0,0.0,0.0,0.00018106533,0.0,0.0,0.0,0.0,0.0,0.0,0.00013464724,4.0675284e-05,3.899656e-05,0.00013464724,0.03981653,0.024740139,3.4610143e-06,0.0,0.0,0.0,0.0,0.0,0.0
238523937,238333648,0.00023107344,0.0008180613,0.003288828,7.281754e-05,1.0466778e-05,0.00071748375,0.0,0.0,0.0,0.0,0.0,0.0,0.0,2.6869302e-06,0.0,0.0,0.0,0.0,0.0,0.0,0.0043374235,1.0954209e-06,1.03175e-06,0.0043374235,0.023374807,0.036672898,1.6459101e-06,0.0,0.0,0.0,0.0,0.0,0.0
239023944,238833648,1.1402706e-07,1.5751562e-05,0.0013810558,6.937458e-05,9.4185725e-06,0.000879894,0.0,0.0,0.0,0.0,0.0,0.0,0.0,0.0006646495,0.0,0.0,0.0,0.0,0.0,0.0,0.0006261812,7.7107825e-06,0.0006261812,3.6962618e-07,0.06352056,0.0011736043,2.5316855e-05,0.0,0.0,0.0,0.0,0.0,0.0
239523935,239333648,0.00045400477,0.008258233,0.00054809503,1.337088e-05,5.0555624e-05,0.0012513946,0.0,0.0,0.0,0.0,0.0,0.0,0.0,1.2502173e-05,0.0,0.0,0.0,0.0,0.0,0.0,0.0088586295,1.4070333e-05,0.0088586295,0.0025480879,0.2682405,0.28367427,0.0009194275,0.0,0.0,0.0,0.0,0.0,0.0
240023945,239833648,0.0048485417,0.010821614,0.001705014,2.624304e-05,8.809339e-05,0.0023971435,0.0,0.0,0.0,0.0,0.0,0.0,0.0,8.751876e-06,0.0,0.0,0.0,0.0,0.0,0.0,0.00064403773,0.00064403773,0.00021868877,3.991622e-05,0.0041331165,0.72375846,0.0053648665,0.0,0.0,0.0,0.0,0.0,0.0
240523939,240333648,0.006972777,1.8946075e-07,0.0024614513,0.00023551598,8.051423e-05,0.002499372,0.0,0.0,0.0,0.0,0.0,0.0,0.0,9.219231e-06,0.0,0.0,0.0,0.0,0.0,0.0,0.0006269961,0.00027836938,0.0006269961,8.966969e-06,0.007320361,0.0014117984,3.836705e-07,0.0,0.0,0.0,0.0,0.0,0.0
241023944,240833648,0.001371719,0.00011240198,0.0048211487,0.00017511,0.000114902534,0.002316095,0.0,0.0,0.0,0.0,0.0,0.0,0.0,2.2569613e-07,0.0,0.0,0.0,0.0,0.0,0.0,2.2442839e-05,4.0234604e-06,2.2442839e-05,5.978756e-07,0.07267925,0.026579047,6.2765394e-06,0.0,0.0,0.0,0.0,0.0,0.0
241523969,241333648,0.0003061705,0.00066932966,0.0073526218,5.5940178e-05,0.00013926021,0.002081283,0.0,0.0,0.0,0.0,0.0,0.0,0.0,2.555289e-05,0.0,0.0,0.0,0.0,0.0,0.0,1.10423525e-05,1.10423525e-05,4.056394e-07,5.284239e-07,0.15975752,0.16139461,0.00063865626,0.0,0.0,0.0,0.0,0.0,0.0
242023939,241833648,0.00014082123,0.00029449828,0.006564933,2.368677e-06,0.00011783496,0.0018502864,0.0,0.0,0.0,0.0,0.0,0.0,0.0,2.4350682e-05,0.0,0.0,0.0,0.0,0.0,0.0,1.3902094e-05,1.3902094e-05,8.6382584e-10,5.8981873e-06,0.44497287,0.09768435,1.2138134e-06,0.0,0.0,0.0,0.0,0.0,0.0
242523947,242333648,0.00055937475,0.00073631166,0.0034124951,6.570648e-05,0.00011136893,0.0017799924,0.0,0.0,0.0,0.0,0.0,0.0,0.0,7.15955e-07,0.0,0.0,0.0,0.0,0.0,0.0,3.4439556e-05,1.3317206e-06,1.898105e-08,3.4439556e-05,0.28974646,0.018981997,1.4192182e-05,0.0,0.0,0.0,0.0,0.0,0.0
243023969,242833648,0.0010637646,0.0001454251,0.0002718014,9.889582e-05,0.00012155791,0.0016963955,0.0,0.0,0.0,0.0,0.0,0.0,0.0,2.6534683e-05,0.0,0.0,0.0,0.0,0.0,0.0,4.4068238e-05,4.4068238e-05,2.2613485e-06,9.872212e-06,0.038431596,0.015283343,6.2199215e-05,0.0,0.0,0.0,0.0,0.0,0.0
243523936,243333648,0.019600151,0.00034452745,0.0021085697,0.0003310423,0.00010301721,0.0015341315,0.0,0.0,0.0,0.0,0.0,0.0,0.0,8.022293e-05,0.0,0.0,0.0,0.0,0.0,0.0,0.0016253383,9.842491e-07,0.0016253383,9.862599e-05,0.13196531,0.81634575,0.056074113,0.0,0.0,0.0,0.0,0.0,0.0
244023940,243833648,0.001691854,1.0615893e-05,0.0014943271,0.000665525,0.00010201598,0.0014475395,0.0,0.0,0.0,0.0,0.0,0.0,0.0,0.00026219536,0.0,0.0,0.0,0.0,0.0,0.0,0.0005736338,0.00035258647,0.0005736338,7.107741e-06,1.5019584,0.026895784,0.017903011,0.0,0.0,0.0,0.0,0.0,0.0
244523942,244333648,0.0037835827,1.4856176e-05,0.0016466992,0.00045383928,7.206033e-05,0.0015462635,0.0,0.0,0.0,0.0,0.0,0.0,0.0,0.00024367888,0.0,0.0,0.0,0.0,0.0,0.0,0.00027382135,1.2034137e-07,0.00027382135,0.00015939548,0.22642305,0.016266685,0.0005618821,0.0,0.0,0.0,0.0,0.0,0.0
245023938,244833648,5.7132795e-05,0.00044512434,0.0006359013,0.0001519977,3.5127294e-05,0.0015749184,0.0,0.0,0.0,0.0,0.0,0.0,0.0,3.6765723e-05,0.0,0.0,0.0,0.0,0.0,0.0,3.5199497e-05,2.4849123e-05,3.5199497e-05,2.5384875e-07,0.5362246,0.01858451,0.0034150346,0.0,0.0,0.0,0.0,0.0,0.0
246023945,245833648,0.0015386227,0.00069675583,0.00016629373,3.834966e-05,2.1981312e-05,0.0013205915,0.0,0.0,0.0,0.0,0.0,0.0,0.0,8.3265295e-06,0.0,0.0,0.0,0.0,0.0,0.0,1.1450292e-05,2.010547e-07,4.9101536e-06,1.1450292e-05,0.203672,0.27075443,0.00097627926,0.0,0.0,0.0,0.0,0.0,0.0
246523939,246333648,3.21092e-05,0.0007682341,0.0009719464,0.000108474225,3.5592893e-05,0.0011211248,0.0,0.0,0.0,0.0,0.0,0.0,0.0,1.8330282e-05,0.0,0.0,0.0,0.0,0.0,0.0,5.981736e-05,5.981736e-05,2.0407411e-05,1.1678004e-06,0.007837746,0.076201215,2.7567266e-05,0.0,0.0,0.0,0.0,0.0,0.0
247023937,246833648,5.0156854e-05,0.00027567951,0.0022680636,0.0004494831,4.2149524e-05,0.00092381344,0.0,0.0,0.0,0.0,0.0,0.0,0.0,4.196885e-05,0.0,0.0,0.0,0.0,0.0,0.0,0.00037196372,0.00037196372,2.175426e-05,7.694835e-06,0.83962655,1.2064372,0.02916562,0.0,0.0,0.0,0.0,0.0,0.0
248023974,247833648,0.00038755542,0.0013529964,0.004126697,0.00072181685,2.8329989e-05,0.0005073276,0.0,0.0,0.0,0.0,0.0,0.0,0.0,0.00014625076,0.0,0.0,0.0,0.0,0.0,0.0,0.000113449816,0.000113449816,7.8764155e-05,6.2786296e-07,0.03577548,0.66805166,0.00046130156,0.0,0.0,0.0,0.0,0.0,0.0
248523939,248333648,1.7116133e-07,0.0012647653,0.0019394398,0.00026362823,4.9437717e-06,0.00037589052,0.0,0.0,0.0,0.0,0.0,0.0,0.0,8.4282205e-05,0.0,0.0,0.0,0.0,0.0,0.0,0.0003444451,0.0003444451,0.0002620749,2.419326e-05,0.36217642,0.17949007,0.0009336516,0.0,0.0,0.0,0.0,0.0,0.0
249023943,248833648,0.004703267,0.00029086292,0.0022781359,1.0386221e-05,1.00750385e-05,0.0003305074,0.0,0.0,0.0,0.0,0.0,0.0,0.0,1.2264854e-05,0.0,0.0,0.0,0.0,0.0,0.0,0.00019158464,0.00019158464,1.7238353e-09,1.1028764e-06,0.3519897,0.122636884,0.00022220793,0.0,0.0,0.0,0.0,0.0,0.0
249523936,249333648,0.0059586274,0.0025814346,0.0019067156,4.1330594e-07,1.2308702e-05,0.00030418579,0.0,0.0,0.0,0.0,0.0,0.0,0.0,0.00010382237,0.0,0.0,0.0,0.0,0.0,0.0,0.000113815986,0.000113815986,8.2046114e-05,3.3303582e-05,0.031678148,0.087854825,0.00047922082,0.0,0.0,0.0,0.0,0.0,0.0
250023939,249833648,0.015608722,0.0018976997,0.0010215404,5.0068407e-05,1.69867e-05,0.00039984717,0.0,0.0,0.0,0.0,0.0,0.0,0.0,6.639956e-06,0.0,0.0,0.0,0.0,0.0,0.0,4.821019e-05,4.821019e-05,1.3544181e-06,5.8635898e-08,0.3930423,0.025167046,0.003475152,0.0,0.0,0.0,0.0,0.0,0.0
250523936,250333648,0.008126009,0.002953248,2.5185293e-05,2.6711297e-05,7.273381e-05,0.00029189614,0.0,0.0,0.0,0.0,0.0,0.0,0.0,0.000419222,0.0,0.0,0.0,0.0,0.0,0.0,6.829391e-05,2.330345e-05,1.9046834e-06,6.829391e-05,0.04273264,0.032806154,2.1156055e-05,0.0,0.0,0.0,0.0,0.0,0.0
251023946,250833648,0.0008709914,0.00039640555,0.00082538737,4.22181e-09,3.3880988e-05,0.00055240036,0.0,0.0,0.0,0.0,0.0,0.0,0.0,0.0009655557,0.0,0.0,0.0,0.0,0.0,0.0,6.837287e-05,6.0739716e-05,7.4360287e-06,6.837287e-05,0.22090907,0.0014833569,0.0013661565,0.0,0.0,0.0,0.0,0.0,0.0
251523942,251333648,3.6703965e-05,9.672395e-05,0.0012760165,0.00012299081,4.8129292e-05,0.00096695975,0.0,0.0,0.0,0.0,0.0,0.0,0.0,0.00093218137,0.0,0.0,0.0,0.0,0.0,0.0,5.1538034e-05,5.1538034e-05,2.018679e-06,5.9307818e-06,0.22902219,0.25192675,0.0014328316,0.0,0.0,0.0,0.0,0.0,0.0
252023943,251833648,0.003055694,0.00033050397,0.00037882783,0.00017118412,4.8436297e-05,0.0011510563,0.0,0.0,0.0,0.0,0.0,0.0,0.0,0.0004749009,0.0,0.0,0.0,0.0,0.0,0.0,1.4504329e-05,1.1017044e-05,4.441326e-06,1.4504329e-05,0.006212523,0.066025734,2.2511044e-06,0.0,0.0,0.0,0.0,0.0,0.0
252523940,252333648,2.217907e-05,0.00025363622,4.125096e-05,0.00026265177,7.5864315e-05,0.0013603345,0.0,0.0,0.0,0.0,0.0,0.0,0.0,0.0008044286,0.0,0.0,0.0,0.0,0.0,0.0,0.00015518909,6.518765e-06,0.00010883606,0.00015518909,0.089832485,0.0766995,4.8633097e-05,0.0,0.0,0.0,0.0,0.0,0.0
253023968,252833648,6.006538e-07,0.0005136225,0.00038845773,0.00028990314,0.00011720551,0.0015617053,0.0,0.0,0.0,0.0,0.0,0.0,0.0,0.0007222929,0.0,0.0,0.0,0.0,0.0,0.0,7.554496e-05,2.7994727e-12,7.554496e-05,5.4317916e-05,0.34779668,0.08806177,0.0010513141,0.0,0.0,0.0,0.0,0.0,0.0
253523937,253333648,0.0016352676,0.0020541404,0.0013903829,0.00034117332,9.2714006e-05,0.0024206724,0.0,0.0,0.0,0.0,0.0,0.0,0.0,0.00014423656,0.0,0.0,0.0,0.0,0.0,0.0,0.00013313223,0.00010577752,8.814914e-06,0.00013313223,0.1946078,0.8131414,5.369367e-06,0.0,0.0,0.0,0.0,0.0,0.0
254023937,253833648,0.0018592076,0.00065051304,0.0020497718,0.00076656364,0.00014805673,0.002380622,0.0,0.0,0.0,0.0,0.0,0.0,0.0,3.5905038e-07,0.0,0.0,0.0,0.0,0.0,0.0,4.829821e-05,4.829821e-05,1.2683419e-05,1.1134885e-07,0.14882986,0.06614699,0.0012410466,0.0,0.0,0.0,0.0,0.0,0.0
254523949,254333648,9.670094e-05,0.00034710078,8.6332475e-06,0.0006220981,0.00010796846,0.002805391,0.0,0.0,0.0,0.0,0.0,0.0,0.0,0.00027019423,0.0,0.0,0.0,0.0,0.0,0.0,6.8840825e-05,6.1520426e-05,6.1574688e-06,6.8840825e-05,0.44712847,0.0073357,0.0010774016,0.0,0.0,0.0,0.0,0.0,0.0
255023942,254833648,0.0038401235,0.00032913857,0.00020918727,0.00043383983,0.00011333081,0.0027544464,0.0,0.0,0.0,0.0,0.0,0.0,0.0,1.3909129e-06,0.0,0.0,0.0,0.0,0.0,0.0,0.000100494595,0.000100494595,9.136296e-06,5.075045e-06,0.0884196,0.03372145,0.0008111401,0.0,0.0,0.0,0.0,0.0,0.0
255523939,255333648,0.0022770374,0.002856787,0.0074036145,0.0002731406,6.619468e-05,0.0025713386,0.0,0.0,0.0,0.0,0.0,0.0,0.0,8.171594e-05,0.0,0.0,0.0,0.0,0.0,0.0,0.0003553334,0.0003553334,1.8854122e-05,2.1854008e-05,0.0018102505,0.8172962,0.025224365,0.0,0.0,0.0,0.0,0.0,0.0
256023939,255833648,0.0035899745,0.0013841435,0.010338368,0.00029385256,7.944919e-05,0.002160911,0.0,0.0,0.0,0.0,0.0,0.0,0.0,0.00012358215,0.0,0.0,0.0,0.0,0.0,0.0,0.000310869,0.000310869,2.3721785e-07,1.4074801e-07,0.5197482,0.61482775,0.04348235,0.0,0.0,0.0,0.0,0.0,0.0
256523957,256333649,0.00014985236,0.0008946063,0.013631711,0.0001934832,0.00016134081,0.002092314,0.0,0.0,0.0,0.0,0.0,0.0,0.0,0.00071766553,0.0,0.0,0.0,0.0,0.0,0.0,0.00028351447,0.00028351447,1.6935826e-05,5.649417e-07,0.02799123,0.53277,0.0059727947,0.0,0.0,0.0,0.0,0.0,0.0
257023942,256833648,0.00092353334,0.00012157059,0.0061721546,0.00016736229,0.000115186594,0.0018371786,0.0,0.0,0.0,0.0,0.0,0.0,0.0,0.00014815274,0.0,0.0,0.0,0.0,0.0,0.0,7.172506e-05,7.172506e-05,3.3926808e-05,4.530426e-05,0.054803923,0.27659243,0.00058268785,0.0,0.0,0.0,0.0,0.0,0.0
257523940,257333648,0.00015234223,0.0012817497,0.0021178084,0.00012229974,8.514943e-05,0.0016331484,0.0,0.0,0.0,0.0,0.0,0.0,0.0,0.00012336005,0.0,0.0,0.0,0.0,0.0,0.0,2.6399412e-05,1.5067874e-05,4.317672e-06,2.6399412e-05,0.012933192,0.020241586,9.583833e-05,0.0,0.0,0.0,0.0,0.0,0.0
258023969,257833648,0.0022237978,0.0007940947,4.8168957e-05,7.951238e-05,0.00011390991,0.0014957357,0.0,0.0,0.0,0.0,0.0,0.0,0.0,0.0001015222,0.0,0.0,0.0,0.0,0.0,0.0,0.0026017216,0.00023367275,0.0003392612,0.0026017216,0.2019793,0.00025195736,0.00012002456,0.0,0.0,0.0,0.0,0.0,0.0
258523940,258333648,0.00054892263,0.00031742445,0.012592094,0.00013240257,5.5220018e-05,0.00086567586,0.0,0.0,0.0,0.0,0.0,0.0,0.0,5.5672263e-05,0.0,0.0,0.0,0.0,0.0,0.0,0.00017087237,4.978329e-10,6.1297476e-07,0.00017087237,0.19053768,0.022104856,0.000479054,0.0,0.0,0.0,0.0,0.0,0.0
259023944,258833648,0.0058762073,0.011714194,0.00030117764,0.00011189287,6.938089e-05,0.0006714284,0.0,0.0,0.0,0.0,0.0,0.0,0.0,9.053721e-05,0.0,0.0,0.0,0.0,0.0,0.0,0.0001257382,0.0001257382,9.676348e-05,8.1281505e-06,0.00016362483,0.23597322,0.0014809523,0.0,0.0,0.0,0.0,0.0,0.0
259523967,259333648,0.00013074846,0.000118291624,0.0010697257,0.00018496762,6.0499983e-06,0.00093581935,0.0,0.0,0.0,0.0,0.0,0.0,0.0,0.00088891364,0.0,0.0,0.0,0.0,0.0,0.0,0.00015470828,3.3330292e-05,4.178689e-05,0.00015470828,0.024720602,0.07946804,8.639038e-06,0.0,0.0,0.0,0.0,0.0,0.0
260023969,259833648,0.0013628717,0.0023897695,0.0005926079,0.00010939416,1.5146685e-06,0.001297575,0.0,0.0,0.0,0.0,0.0,0.0,0.0,2.850502e-07,0.0,0.0,0.0,0.0,0.0,0.0,9.987511e-05,9.987511e-05,6.926689e-06,4.2973665e-05,0.12491499,0.010165123,0.0012108444,0.0,0.0,0.0,0.0,0.0,0.0
260523939,260333648,0.0017914947,0.0003939088,0.0020755236,8.1963255e-05,4.69865e-06,0.0013458207,0.0,0.0,0.0,0.0,0.0,0.0,0.0,4.0258004e-05,0.0,0.0,0.0,0.0,0.0,0.0,2.8943035e-05,2.0968258e-05,6.578742e-07,2.8943035e-05,0.18544212,0.008127784,6.1180515e-05,0.0,0.0,0.0,0.0,0.0,0.0
261023940,260833648,0.0055263625,0.0018017045,0.00022910554,3.803949e-05,4.526088e-05,0.0015610402,0.0,0.0,0.0,0.0,0.0,0.0,0.0,0.0022593061,0.0,0.0,0.0,0.0,0.0,0.0,0.00012230537,4.7675843e-07,3.805608e-07,0.00012230537,0.9110255,0.011283451,0.004690687,0.0,0.0,0.0,0.0,0.0,0.0
261523938,261333648,8.5465595e-05,1.8072846e-05,0.00022767378,3.095454e-05,5.193874e-05,0.0014417091,0.0,0.0,0.0,0.0,0.0,0.0,0.0,5.5924433e-05,0.0,0.0,0.0,0.0,0.0,0.0,2.259498e-05,2.259498e-05,1.530846e-05,1.0575533e-05,0.08304559,0.49323076,0.0019523493,0.0,0.0,0.0,0.0,0.0,0.0
262023941,261833648,0.0006339529,0.0010857834,0.0016497098,1.10604315e-05,6.9113834e-05,0.0014955143,0.0,0.0,0.0,0.0,0.0,0.0,0.0,5.9613798e-05,0.0,0.0,0.0,0.0,0.0,0.0,6.8963504e-06,9.861978e-07,3.1058532e-06,6.8963504e-06,0.11103973,0.0022438408,0.0013597487,0.0,0.0,0.0,0.0,0.0,0.0
262523940,262333648,1.6773789e-05,1.9347466e-05,0.0012022703,6.2622244e-06,9.767302e-05,0.0013689697,0.0,0.0,0.0,0.0,0.0,0.0,0.0,9.666044e-05,0.0,0.0,0.0,0.0,0.0,0.0,6.0129514e-05,7.0345277e-06,6.0129514e-05,5.0465882e-05,0.008230316,0.00031930162,3.2861968e-05,0.0,0.0,0.0,0.0,0.0,0.0
263023974,262833648,5.6502853e-05,1.2133365e-05,0.0010114749,6.9649485e-07,0.00013233298,0.0012622724,0.0,0.0,0.0,0.0,0.0,0.0,0.0,0.0002680136,0.0,0.0,0.0,0.0,0.0,0.0,6.3141915e-06,4.641931e-06,6.3141915e-06,3.1861557e-06,0.9450369,0.14212579,0.0025832648,0.0,0.0,0.0,0.0,0.0,0.0
263523937,263333648,0.0002422225,0.0030904498,0.00014463901,2.3378357e-07,0.00021913725,0.001216035,0.0,0.0,0.0,0.0,0.0,0.0,0.0,0.00036056238,0.0,0.0,0.0,0.0,0.0,0.0,5.8726688e-05,1.5710485e-07,5.8726688e-05,3.7836544e-05,0.1577231,0.164774,0.003311393,0.0,0.0,0.0,0.0,0.0,0.0
264023943,263833648,0.0051445086,0.0043095825,0.00057750614,9.951011e-09,5.908099e-05,0.0011968745,0.0,0.0,0.0,0.0,0.0,0.0,0.0,0.00037505757,0.0,0.0,0.0,0.0,0.0,0.0,0.000105113286,2.9502771e-05,0.000105113286,2.3157213e-06,9.25626e-05,0.009735954,2.9681822e-05,0.0,0.0,0.0,0.0,0.0,0.0
264523975,264333648,4.305753e-05,0.005772962,0.0023766083,1.8922208e-05,0.00010834656,0.0013881035,0.0,0.0,0.0,0.0,0.0,0.0,0.0,5.4719818e-05,0.0,0.0,0.0,0.0,0.0,0.0,0.00018096725,4.1031817e-05,0.00018096725,7.177095e-05,1.0748417,0.82674515,5.43238e-05,0.0,0.0,0.0,0.0,0.0,0.0
265023951,264833648,0.00022179825,0.00055089133,0.0005540207,6.8332134e-05,0.00013307454,0.001589586,0.0,0.0,0.0,0.0,0.0,0.0,0.0,0.000352067,0.0,0.0,0.0,0.0,0.0,0.0,9.197753e-05,1.4014091e-06,1.1728113e-05,9.197753e-05,0.0016410815,0.0011912773,2.9185114e-05,0.0,0.0,0.0,0.0,0.0,0.0
265523942,265333648,4.8228845e-05,0.0013447043,3.759314e-05,0.00016558591,0.00015735811,0.001914832,0.0,0.0,0.0,0.0,0.0,0.0,0.0,0.0008411028,0.0,0.0,0.0,0.0,0.0,0.0,1.6618702e-05,5.581772e-06,1.6618702e-05,2.98654e-06,0.007319514,0.14836383,4.5702436e-05,0.0,0.0,0.0,0.0,0.0,0.0
266023956,265833648,0.00070178666,2.0274407e-05,0.0022628983,0.00016918546,0.00012783457,0.0024492787,0.0,0.0,0.0,0.0,0.0,0.0,0.0,0.0007273795,0.0,0.0,0.0,0.0,0.0,0.0,7.674081e-05,5.942145e-05,7.674081e-05,2.7904869e-06,0.048750028,0.42166036,0.000625422,0.0,0.0,0.0,0.0,0.0,0.0
266523943,266333648,0.0011135327,0.0014883527,0.0030263956,0.00027882712,6.4958636e-05,0.0025160557,0.0,0.0,0.0,0.0,0.0,0.0,0.0,0.00070088904,0.0,0.0,0.0,0.0,0.0,0.0,0.00014677922,6.180412e-05,0.00014677922,8.535695e-06,0.022902958,0.05745162,0.00039844625,0.0,0.0,0.0,0.0,0.0,0.0
267023939,266833648,5.3260607e-07,0.002015967,0.0029373178,0.00027710936,8.6190863e-07,0.0024960032,0.0,0.0,0.0,0.0,0.0,0.0,0.0,0.0005017675,0.0,0.0,0.0,0.0,0.0,0.0,0.00013935419,5.026609e-06,0.00013935419,5.397257e-06,0.070967674,0.0064994786,3.2179447e-05,0.0,0.0,0.0,0.0,0.0,0.0
267523943,267333648,7.22115e-06,0.00018914971,0.0025367793,0.0002637359,6.4115164e-05,0.0024816538,0.0,0.0,0.0,0.0,0.0,0.0,0.0,0.00022299656,0.0,0.0,0.0,0.0,0.0,0.0,8.163217e-05,5.3836974e-10,8.163217e-05,4.0617733e-06,0.8548511,0.0017423077,0.0049098083,0.0,0.0,0.0,0.0,0.0,0.0
268023967,267833648,0.0008861127,0.00023346496,0.0021458312,0.00018681858,0.00011539943,0.0026065516,0.0,0.0,0.0,0.0,0.0,0.0,0.0,9.379041e-06,0.0,0.0,0.0,0.0,0.0,0.0,0.00010112851,4.8308493e-06,0.00010112851,9.070971e-07,0.25835285,0.0060409526,0.0028730955,0.0,0.0,0.0,0.0,0.0,0.0
268523941,268333648,0.0006374058,0.0015917154,0.004533425,0.00019831011,0.00017665753,0.0026253026,0.0,0.0,0.0,0.0,0.0,0.0,0.0,0.00041904557,0.0,0.0,0.0,0.0,0.0,0.0,4.317185e-05,6.542307e-06,2.8268467e-05,4.317185e-05,3.8668586e-05,0.025852077,6.5935375e-05,0.0,0.0,0.0,0.0,0.0,0.0
269023940,268833648,1.0070544e-05,0.0014994068,0.0026417698,0.0002220384,0.00015990328,0.002230157,0.0,0.0,0.0,0.0,0.0,0.0,0.0,0.00073248043,0.0,0.0,0.0,0.0,0.0,0.0,0.00022170559,0.00022170559,1.04728415e-05,2.9641843e-08,0.012301875,0.0034812614,5.95247e-07,0.0,0.0,0.0,0.0,0.0,0.0
269523965,269333648,0.0002766014,7.746082e-05,0.0011190937,0.00023998326,0.0002300424,0.0017335927,0.0,0.0,0.0,0.0,0.0,0.0,0.0,0.00032805535,0.0,0.0,0.0,0.0,0.0,0.0,0.00014739175,0.00014739175,1.615249e-05,5.8546648e-05,0.021928905,0.028283836,0.00020927338,0.0,0.0,0.0,0.0,0.0,0.0
270023939,269833648,0.00026250634,0.00017783252,0.0012231454,0.00031257872,0.00028639843,0.0014843218,0.0,0.0,0.0,0.0,0.0,0.0,0.0,0.00010298898,0.0,0.0,0.0,0.0,0.0,0.0,0.00037783096,2.0639367e-05,0.00037783096,0.00037500833,0.0036495654,0.002590295,2.7298995e-06,0.0,0.0,0.0,0.0,0.0,0.0
270523944,270333648,0.0034739082,0.009375774,0.001784482,0.00030156845,7.93453e-05,0.0016178155,0.0,0.0,0.0,0.0,0.0,0.0,0.0,8.053486e-05,0.0,0.0,0.0,0.0,0.0,0.0,0.00020247947,0.00020247947,0.00014011803,8.506402e-05,0.18539086,0.104525045,0.00014759472,0.0,0.0,0.0,0.0,0.0,0.0
271023938,270833648,5.2547493e-05,0.0025968333,0.00087268057,0.00031056133,3.128727e-05,0.0014083888,0.0,0.0,0.0,0.0,0.0,0.0,0.0,0.00015092078,0.0,0.0,0.0,0.0,0.0,0.0,0.0006138979,0.0006138979,3.3565973e-06,4.6787187e-05,0.09656173,0.2089484,7.0503316e-05,0.0,0.0,0.0,0.0,0.0,0.0
272023936,271833648,0.0031646576,0.00049402926,0.0010632935,0.00017023117,3.4433265e-07,0.0016527423,0.0,0.0,0.0,0.0,0.0,0.0,0.0,0.0001475984,0.0,0.0,0.0,0.0,0.0,0.0,0.00036596076,0.00036596076,4.0242336e-05,9.592171e-05,0.5313957,0.048373163,0.002091963,0.0,0.0,0.0,0.0,0.0,0.0
272524119,272333648,0.0017454608,0.024602532,0.0006352801,0.0001593324,6.621693e-05,0.0017365115,0.0,0.0,0.0,0.0,0.0,0.0,0.0,0.00021447943,0.0,0.0,0.0,0.0,0.0,0.0,0.00062153937,0.00062153937,1.1867709e-06,9.805117e-05,0.16874608,0.10160301,0.0002281541,0.0,0.0,0.0,0.0,0.0,0.0
273024175,272833648,0.00092767784,0.006513404,1.785881e-06,0.00014726017,5.846035e-05,0.0011707061,0.0,0.0,0.0,0.0,0.0,0.0,0.0,0.0006131421,0.0,0.0,0.0,0.0,0.0,0.0,0.0004399101,0.0004399101,0.00010379333,2.7348366e-05,0.01767438,0.48309946,0.0020644648,0.0,0.0,0.0,0.0,0.0,0.0
274024107,273833648,0.00033673504,6.095118e-06,0.0005743735,6.2060775e-05,9.517546e-06,0.0010524269,0.0,0.0,0.0,0.0,0.0,0.0,0.0,5.9528233e-05,0.0,0.0,0.0,0.0,0.0,0.0,0.0008393942,4.0219496e-05,0.0008393942,2.9643793e-08,0.14943461,0.11299181,0.00031215855,0.0,0.0,0.0,0.0,0.0,0.0
274524134,274333648,0.00025955448,2.0945088e-05,0.00091454264,4.672583e-05,2.5006608e-05,0.0007627019,0.0,0.0,0.0,0.0,0.0,0.0,0.0,9.417181e-05,0.0,0.0,0.0,0.0,0.0,0.0,0.0007119163,3.7763126e-05,0.0007119163,7.233006e-07,0.030267723,0.00094086834,1.4811358e-05,0.0,0.0,0.0,0.0,0.0,0.0
275024148,274833648,0.0019099967,4.20971e-05,1.5084599e-05,5.951494e-06,4.5818262e-05,0.00039667223,0.0,0.0,0.0,0.0,0.0,0.0,0.0,2.414147e-07,0.0,0.0,0.0,0.0,0.0,0.0,0.002016414,0.00064876926,0.002016414,1.8771845e-05,0.11480541,0.032307263,0.00035471487,0.0,0.0,0.0,0.0,0.0,0.0
275524161,275333648,0.0004632413,0.0026097232,0.0021000302,2.457464e-05,4.095331e-05,0.0006390634,0.0,0.0,0.0,0.0,0.0,0.0,0.0,0.00011188981,0.0,0.0,0.0,0.0,0.0,0.0,0.0018825915,0.0018825915,0.0007057541,6.191883e-06,0.041212615,0.1594777,0.00026865833,0.0,0.0,0.0,0.0,0.0,0.0
276024112,275833648,3.02798e-05,0.0069883126,0.0022732571,1.9939353e-05,5.607141e-05,0.00043055616,0.0,0.0,0.0,0.0,0.0,0.0,0.0,7.238336e-09,0.0,0.0,0.0,0.0,0.0,0.0,0.002582402,0.002582402,0.0001022351,0.00013922702,0.1548582,0.040173665,0.0006015773,0.0,0.0,0.0,0.0,0.0,0.0
276524103,276333648,0.00011692996,0.009508231,0.002794044,1.7191145e-05,4.58995e-05,0.0003405346,0.0,0.0,0.0,0.0,0.0,0.0,0.0,3.233004e-07,0.0,0.0,0.0,0.0,0.0,0.0,0.0030857192,0.0030857192,1.3729608e-05,0.00020004003,0.00031417893,0.15717314,0.0007125219,0.0,0.0,0.0,0.0,0.0,0.0
277024114,276833648,0.0007092628,0.0022737228,0.0047462964,1.5588338e-06,5.0264616e-06,0.00043804664,0.0,0.0,0.0,0.0,0.0,0.0,0.0,0.00041064553,0.0,0.0,0.0,0.0,0.0,0.0,0.0018471545,0.0018471545,0.00032514698,0.00019229924,1.6017078,0.13161418,0.05532697,0.0,0.0,0.0,0.0,0.0,0.0
277524101,277333648,0.0009784747,0.0013444562,0.0022951802,4.42156e-06,3.3389748e-07,0.00021288208,0.0,0.0,0.0,0.0,0.0,0.0,0.0,0.00024064665,0.0,0.0,0.0,0.0,0.0,0.0,0.00057676184,0.0005382626,0.00057676184,2.7331682e-05,0.08345314,0.0015498629,0.00013296111,0.0,0.0,0.0,0.0,0.0,0.0
278024108,277833648,4.208707e-05,0.0039003137,0.0018777878,1.8460782e-05,3.1643299e-06,5.8699403e-05,0.0,0.0,0.0,0.0,0.0,0.0,0.0,5.1023933e-05,0.0,0.0,0.0,0.0,0.0,0.0,0.00027033678,0.00027033678,0.0001866878,0.00019044471,0.074158154,0.036015432,0.00047844887,0.0,0.0,0.0,0.0,0.0,0.0
278524104,278333648,0.000387456,5.762983e-05,0.00084957003,5.0745326e-05,7.580772e-07,3.458172e-05,0.0,0.0,0.0,0.0,0.0,0.0,0.0,7.241957e-05,0.0,0.0,0.0,0.0,0.0,0.0,0.0006296607,0.00013609137,6.5219836e-05,0.0006296607,0.0039384165,0.06533117,0.00018252624,0.0,0.0,0.0,0.0,0.0,0.0
279024121,278833648,0.0031751439,0.0008182122,6.0693554e-05,5.2574625e-05,2.39084e-07,6.738065e-06,0.0,0.0,0.0,0.0,0.0,0.0,0.0,7.4522475e-05,0.0,0.0,0.0,0.0,0.0,0.0,0.0003757867,0.0003757867,0.0002887188,0.0003080147,0.021268252,0.34481475,0.0021289836,0.0,0.0,0.0,0.0,0.0,0.0
279524132,279333647,0.0007968748,0.00010743023,9.8539495e-05,3.132503e-05,1.0264299e-06,1.4505075e-08,0.0,0.0,0.0,0.0,0.0,0.0,0.0,0.0004204169,0.0,0.0,0.0,0.0,0.0,0.0,0.0004832317,0.00024897663,8.698293e-05,0.0004832317,0.23755373,0.052688166,0.003957048,0.0,0.0,0.0,0.0,0.0,0.0
280524100,280333648,0.00042558456,0.0034435631,0.0045438465,2.7070733e-05,2.1855778e-05,2.3706264e-06,0.0,0.0,0.0,0.0,0.0,0.0,0.0,7.489226e-05,0.0,0.0,0.0,0.0,0.0,0.0,0.00021923131,9.86493e-05,6.948985e-05,0.00021923131,0.14148016,0.07528279,0.00053422234,0.0,0.0,0.0,0.0,0.0,0.0
281024132,280833648,0.0019849192,0.0012974888,0.0019925416,3.8941824e-05,8.514077e-06,1.4626953e-06,0.0,0.0,0.0,0.0,0.0,0.0,0.0,0.00014224392,0.0,0.0,0.0,0.0,0.0,0.0,0.00014593011,0.00011445975,0.00014593011,4.946467e-05,0.7374603,0.008929118,0.018213863,0.0,0.0,0.0,0.0,0.0,0.0
281524104,281333648,0.00076811656,4.4105815e-05,0.0018698686,8.328803e-06,3.6959653e-05,1.3306919e-05,0.0,0.0,0.0,0.0,0.0,0.0,0.0,0.00038046992,0.0,0.0,0.0,0.0,0.0,0.0,0.00031712605,8.995019e-05,0.00015232818,0.00031712605,1.9730821,0.07019792,0.03186606,0.0,0.0,0.0,0.0,0.0,0.0
282024124,281833648,0.0008707076,0.00023000991,0.0010357726,2.3685714e-06,4.2316777e-05,7.807207e-06,0.0,0.0,0.0,0.0,0.0,0.0,0.0,9.8772376e-05,0.0,0.0,0.0,0.0,0.0,0.0,0.00021682748,0.00018019241,0.00021682748,0.00010016539,0.007210257,0.0028719518,2.5620062e-07,0.0,0.0,0.0,0.0,0.0,0.0
282523943,282333648,0.0040528877,2.2840024e-05,0.00040020637,1.068978e-06,7.3604984e-05,2.2313381e-05,0.0,0.0,0.0,0.0,0.0,0.0,0.0,9.2372204e-05,0.0,0.0,0.0,0.0,0.0,0.0,0.00016806528,0.00016806528,0.00016066022,6.697335e-05,0.06684576,0.0075631575,9.300273e-05,0.0,0.0,0.0,0.0,0.0,0.0
283023937,282833648,2.2983577e-05,0.001886593,0.0028054896,1.5734619e-05,0.00019094464,1.1405499e-05,0.0,0.0,0.0,0.0,0.0,0.0,0.0,1.7679646e-05,0.0,0.0,0.0,0.0,0.0,0.0,0.00024253072,0.00024253072,0.00013921819,0.00017699116,0.5651076,0.08949051,0.012247447,0.0,0.0,0.0,0.0,0.0,0.0
283523942,283333648,0.0047998424,0.00030989718,3.481141e-05,5.8476344e-05,0.00018440255,1.9726373e-05,0.0,0.0,0.0,0.0,0.0,0.0,0.0,3.6297859e-06,0.0,0.0,0.0,0.0,0.0,0.0,0.00033831704,0.0002979403,0.00033831704,0.00015571287,0.060737807,0.05772522,0.00039986573,0.0,0.0,0.0,0.0,0.0,0.0
284023949,283833648,0.00397777,0.007018027,1.3881933e-05,3.6045888e-06,4.4966193e-05,2.6393229e-05,0.0,0.0,0.0,0.0,0.0,0.0,0.0,5.8958303e-06,0.0,0.0,0.0,0.0,0.0,0.0,0.00047501212,2.4730166e-06,0.00040847284,0.00047501212,0.072834656,0.09512672,6.351861e-05,0.0,0.0,0.0,0.0,0.0,0.0
284524002,284333648,0.002204417,0.001340262,0.0006720744,3.9755767e-07,8.108905e-06,3.247852e-07,0.0,0.0,0.0,0.0,0.0,0.0,0.0,0.0001325649,0.0,0.0,0.0,0.0,0.0,0.0,0.0013028956,0.0013028956,0.00011586177,2.6132817e-05,0.6701566,0.019241026,0.0062236832,0.0,0.0,0.0,0.0,0.0,0.0
285023936,284833648,9.1511635e-07,0.007236956,0.00030928763,4.0389587e-05,2.9684257e-05,2.1202035e-05,0.0,0.0,0.0,0.0,0.0,0.0,0.0,7.3444944e-06,0.0,0.0,0.0,0.0,0.0,0.0,0.0013750605,0.0013750605,0.00013424049,1.6004728e-05,0.3429734,0.005683768,0.00906641,0.0,0.0,0.0,0.0,0.0,0.0
285523939,285333648,0.0002495878,0.0025345753,0.001658285,8.460798e-05,0.00017353706,2.1202035e-05,0.0,0.0,0.0,0.0,0.0,0.0,0.0,1.4435692e-05,0.0,0.0,0.0,0.0,0.0,0.0,0.0024465725,0.0024465725,0.00039472146,4.1446265e-06,0.91833436,0.0127634695,0.047614966,0.0,0.0,0.0,0.0,0.0,0.0
286023937,285833648,0.00052661175,0.004420563,0.0013935557,6.963789e-06,0.00037978275,2.1202035e-05,0.0,0.0,0.0,0.0,0.0,0.0,0.0,0.00028244656,0.0,0.0,0.0,0.0,0.0,0.0,0.00092747185,0.00092747185,0.00038240512,1.0834752e-05,0.016817054,0.01171788,0.0003089737,0.0,0.0,0.0,0.0,0.0,0.0
286523936,286333648,0.0011328734,0.010049695,0.0023880785,4.3136406e-05,0.00077293266,2.1202035e-05,0.0,0.0,0.0,0.0,0.0,0.0,0.0,0.0004974664,0.0,0.0,0.0,0.0,0.0,0.0,0.0009756699,0.0009756699,0.00018461698,0.00015087737,0.20763582,0.01896219,0.0062469514,0.0,0.0,0.0,0.0,0.0,0.0
287023939,286833648,0.0016385899,0.014768847,0.0041662,0.0002811506,0.0017682977,2.1202035e-05,0.0,0.0,0.0,0.0,0.0,0.0,0.0,0.00046094245,0.0,0.0,0.0,0.0,0.0,0.0,0.00080576976,0.0007400789,0.00080576976,0.0002323733,0.0638317,0.0024549086,0.0007714267,0.0,0.0,0.0,0.0,0.0,0.0
287523938,287333648,0.0016913873,0.02458978,0.0046535726,0.0005462464,0.00322082,2.1202035e-05,0.0,0.0,0.0,0.0,0.0,0.0,0.0,0.0008730969,0.0,0.0,0.0,0.0,0.0,0.0,0.0006739123,0.0005798727,0.0006739123,0.0003216812,0.4615999,0.043804172,0.0002476474,0.0,0.0,0.0,0.0,0.0,0.0
288023942,287833651,0.0003617192,0.016199073,0.0037141794,0.0006020381,0.006125254,2.1202035e-05,0.0,0.0,0.0,0.0,0.0,0.0,0.0,0.00095720065,0.0,0.0,0.0,0.0,0.0,0.0,0.00046294255,0.0004112814,0.00046294255,0.00045570644,0.03256572,0.23352958,0.0060301977,0.0,0.0,0.0,0.0,0.0,0.0
288523946,288333648,0.004843356,0.028303746,0.0041067875,0.00062013016,0.008897476,2.1202035e-05,0.0,0.0,0.0,0.0,0.0,0.0,0.0,0.00038202837,0.0,0.0,0.0,0.0,0.0,0.0,0.000741633,0.0005196395,0.000741633,0.00025377993,0.5201286,0.67103857,0.0030118816,0.0,0.0,0.0,0.0,0.0,0.0
289023939,288833671,1.3739769e-05,0.049636524,0.005002937,0.00070353085,0.01416222,2.1202035e-05,0.0,0.0,0.0,0.0,0.0,0.0,0.0,0.00064891024,0.0,0.0,0.0,0.0,0.0,0.0,0.0007484106,0.0007484106,0.00037247164,1.7496068e-05,0.12001272,0.0001846011,3.060804e-06,0.0,0.0,0.0,0.0,0.0,0.0
289523967,289333651,0.0063146297,0.008988876,0.0016566775,0.00039803746,0.017747222,2.1202035e-05,0.0,0.0,0.0,0.0,0.0,0.0,0.0,9.3861134e-05,0.0,0.0,0.0,0.0,0.0,0.0,0.00030330892,0.00030330892,0.00029780812,6.943253e-05,0.16153312,0.048433155,0.00052718096,0.0,0.0,0.0,0.0,0.0,0.0
290023932,289833681,0.00960616,0.0011011151,0.0008850488,0.0015598361,0.019511214,2.1202035e-05,0.0,0.0,0.0,0.0,0.0,0.0,0.0,9.75463e-06,0.0,0.0,0.0,0.0,0.0,0.0,0.011105802,0.0011205253,0.0004418883,0.011105802,0.4117102,0.059597205,0.011615699,0.0,0.0,0.0,0.0,0.0,0.0
290523941,290333648,0.027982244,0.028244913,0.0070320014,0.00303629,0.021414403,2.1202035e-05,0.0,0.0,0.0,0.0,0.0,0.0,0.0,0.0009266248,0.0,0.0,0.0,0.0,0.0,0.0,0.0007458559,0.0007458559,0.00015207715,2.100759e-07,0.022268005,0.02441503,2.9252147e-05,0.0,0.0,0.0,0.0,0.0,0.0
291023965,290833648,0.0095695555,0.04282328,0.00055023097,0.0035012276,0.026642904,2.1202035e-05,0.0,0.0,0.0,0.0,0.0,0.0,0.0,0.00012014198,0.0,0.0,0.0,0.0,0.0,0.0,0.0018962073,0.0007223575,0.000356342,0.0018962073,0.0027827069,0.055939205,2.7260183e-05,0.0,0.0,0.0,0.0,0.0,0.0
291523942,291333647,0.00024652886,0.0366239,7.1125106e-07,0.0035853225,0.03178946,2.1202035e-05,0.0,0.0,0.0,0.0,0.0,0.0,0.0,0.0012717758,0.0,0.0,0.0,0.0,0.0,0.0,0.000767029,0.000767029,3.8743146e-05,4.5900695e-05,0.009664347,0.051241,9.4999916e-05,0.0,0.0,0.0,0.0,0.0,0.0
292023937,291833648,0.00053957355,0.0018041575,6.6490036e-05,0.0040296214,0.029685376,2.1202035e-05,0.0,0.0,0.0,0.0,0.0,0.0,0.0,0.00050058344,0.0,0.0,0.0,0.0,0.0,0.0,0.000431684,0.000431684,1.1193553e-06,2.2989741e-05,0.07313779,0.0074972617,2.5752981e-05,0.0,0.0,0.0,0.0,0.0,0.0
292523938,292333650,0.00011047208,0.02559431,3.0165656e-06,0.002996826,0.03337229,2.1202035e-05,0.0,0.0,0.0,0.0,0.0,0.0,0.0,0.00034186145,0.0,0.0,0.0,0.0,0.0,0.0,0.0005546964,0.0005546964,2.6222366e-05,3.039881e-07,1.1890849,0.16634078,0.026922528,0.0,0.0,0.0,0.0,0.0,0.0
293023936,292833648,3.8467828e-05,0.022118341,0.00038663633,0.0035722917,0.035715587,2.1202035e-05,0.0,0.0,0.0,0.0,0.0,0.0,0.0,0.0013145643,0.0,0.0,0.0,0.0,0.0,0.0,0.00034695902,0.00034695902,0.0001842623,7.762531e-06,0.28631136,0.24497905,0.0056132115,0.0,0.0,0.0,0.0,0.0,0.0
293523950,293333648,0.0027304043,0.01844409,9.757839e-05,0.0021099527,0.03456747,2.1202035e-05,0.0,0.0,0.0,0.0,0.0,0.0,0.0,0.00036464285,0.0,0.0,0.0,0.0,0.0,0.0,0.00058759464,0.00058759464,4.684791e-06,1.5116527e-07,0.6896379,0.27159342,0.009679955,0.0,0.0,0.0,0.0,0.0,0.0
294023932,293833649,0.00038088826,0.0494689,0.0016719535,0.0015056009,0.04009728,2.1202035e-05,0.0,0.0,0.0,0.0,0.0,0.0,0.0,0.00044021444,0.0,0.0,0.0,0.0,0.0,0.0,0.00019826814,0.00019826814,9.9422694e-05,1.9961182e-05,0.2730413,0.22760956,0.005658136,0.0,0.0,0.0,0.0,0.0,0.0
294523969,294333648,0.00015407745,0.013583605,0.00013083436,0.0012413113,0.039582152,2.1202035e-05,0.0,0.0,0.0,0.0,0.0,0.0,0.0,0.0019731617,0.0,0.0,0.0,0.0,0.0,0.0,0.000448168,0.0003610742,6.998525e-05,0.000448168,0.036269262,0.11844663,0.00035689154,0.0,0.0,0.0,0.0,0.0,0.0
295023933,294833648,0.029678153,0.009713335,0.00044180622,0.0002160247,0.03791007,2.1202035e-05,0.0,0.0,0.0,0.0,0.0,0.0,0.0,0.0011751357,0.0,0.0,0.0,0.0,0.0,0.0,0.00020635877,8.913106e-05,0.00020635877,1.6882725e-05,0.40811244,0.032366764,0.0038546252,0.0,0.0,0.0,0.0,0.0,0.0
295523937,295333648,0.010070827,0.00964465,0.0027925016,1.150315e-05,0.03636053,2.1202035e-05,0.0,0.0,0.0,0.0,0.0,0.0,0.0,0.0022711703,0.0,0.0,0.0,0.0,0.0,0.0,0.00016344928,0.00016344928,7.68424e-06,1.078431e-06,0.11591517,0.07019255,0.00060246646,0.0,0.0,0.0,0.0,0.0,0.0
296023966,295833647,0.0016971247,0.011845229,0.004506989,5.505056e-06,0.03626252,2.1202035e-05,0.0,0.0,0.0,0.0,0.0,0.0,0.0,0.0015492276,0.0,0.0,0.0,0.0,0.0,0.0,0.0004055781,0.0004055781,1.4836354e-07,2.366135e-06,0.21438251,0.0014071665,0.0007382447,0.0,0.0,0.0,0.0,0.0,0.0
297023951,296833648,0.06329126,0.0027587772,0.00409017,8.289889e-05,0.036286574,2.1202035e-05,0.0,0.0,0.0,0.0,0.0,0.0,0.0,0.00010019235,0.0,0.0,0.0,0.0,0.0,0.0,0.0006929789,0.0006929789,0.000175385,0.00021816076,0.12898852,1.0421377,0.062241454,0.0,0.0,0.0,0.0,0.0,0.0
297523926,297333648,0.09637862,0.004526839,0.0013688892,0.0008998235,0.03401057,inf,0.0,0.0,0.0,0.0,0.0,0.0,0.0,0.0017406365,0.0,0.0,0.0,0.0,0.0,0.0,0.00043076536,0.00043076536,1.2941913e-05,2.2890812e-05,0.009751629,0.6203375,0.008345015,0.0,0.0,0.0,0.0,0.0,0.0
298524059,298333648,0.0198728,0.013465902,0.0007371476,0.0014483526,0.03365052,inf,0.0,0.0,0.0,0.0,0.0,0.0,0.0,0.00013779236,0.0,0.0,0.0,0.0,0.0,0.0,5.055567e-05,3.4258496e-06,5.055567e-05,4.0281364e-05,0.36540145,0.22288191,0.04815234,0.0,0.0,0.0,0.0,0.0,0.0
299023923,298833649,0.02062301,0.021674836,0.001068689,0.0018933511,0.034000948,inf,0.0,0.0,0.0,0.0,0.0,0.0,0.0,0.00086174736,0.0,0.0,0.0,0.0,0.0,0.0,5.660246e-05,5.660246e-05,1.023667e-05,1.6931393e-05,0.47424522,0.010885921,0.003894744,0.0,0.0,0.0,0.0,0.0,0.0
299523947,299333648,0.008849768,0.029346384,0.0016145527,0.0020092702,0.034067124,inf,0.0,0.0,0.0,0.0,0.0,0.0,0.0,1.6945844e-05,0.0,0.0,0.0,0.0,0.0,0.0,0.00048796245,0.00048796245,1.8120269e-05,0.0003083742,2.0175889,0.204549,0.46698016,0.0,0.0,0.0,0.0,0.0,0.0
300024046,299833648,0.012243583,0.023893615,0.006184498,0.0022522968,0.033832733,inf,0.0,0.0,0.0,0.0,0.0,0.0,0.0,0.0031101862,0.0,0.0,0.0,0.0,0.0,0.0,0.0010805209,1.2501122e-05,5.4221564e-06,0.0010805209,0.33258706,0.022455737,0.0075946525,0.0,0.0,0.0,0.0,0.0,0.0
300523931,300333648,0.012372154,0.02565907,0.011748798,0.0027971554,0.03428955,inf,0.0,0.0,0.0,0.0,0.0,0.0,0.0,0.0011058255,0.0,0.0,0.0,0.0,0.0,0.0,8.7936736e-05,8.7936736e-05,1.1268268e-08,1.4370325e-05,0.026998686,0.17741676,0.0035859004,0.0,0.0,0.0,0.0,0.0,0.0
301023952,300833648,0.009607948,0.029706376,0.005948097,0.003245393,0.03464027,inf,0.0,0.0,0.0,0.0,0.0,0.0,0.0,9.1192e-06,0.0,0.0,0.0,0.0,0.0,0.0,0.00029955406,0.0001925107,0.00029955406,9.218536e-05,2.326275,0.66053057,0.16904783,0.0,0.0,0.0,0.0,0.0,0.0
301523940,301333648,0.016004529,0.029461898,0.003314443,0.004017101,0.034367617,inf,0.0,0.0,0.0,0.0,0.0,0.0,0.0,0.00040402106,0.0,0.0,0.0,0.0,0.0,0.0,0.00017356637,0.00017356637,2.7200979e-06,4.8887367e-05,0.015964262,1.6705809,0.04789058,0.0,0.0,0.0,0.0,0.0,0.0
302023925,301833647,0.013220264,0.015486423,0.0010244141,0.004488426,0.033479698,inf,0.0,0.0,0.0,0.0,0.0,0.0,0.0,5.1316047e-06,0.0,0.0,0.0,0.0,0.0,0.0,0.00015382742,0.00015382742,0.00013777468,4.5205565e-05,1.0873792,0.012872016,0.021122389,0.0,0.0,0.0,0.0,0.0,0.0
302523924,302333648,0.007439091,0.028118718,0.0016427768,0.0049309134,0.033090264,inf,0.0,0.0,0.0,0.0,0.0,0.0,0.0,0.0003581484,0.0,0.0,0.0,0.0,0.0,0.0,0.00021919052,0.00021919052,2.1011125e-05,1.5062689e-05,0.002388721,0.24590735,0.0009727515,0.0,0.0,0.0,0.0,0.0,0.0
303023927,302833648,0.00810799,0.013179236,0.00032166974,0.0055993344,0.032954473,inf,0.0,0.0,0.0,0.0,0.0,0.0,0.0,0.0002030833,0.0,0.0,0.0,0.0,0.0,0.0,0.00035968935,0.000116025076,4.7100595e-05,0.00035968935,1.7635354,0.044173133,0.05365824,0.0,0.0,0.0,0.0,0.0,0.0
303523924,303333648,0.012961108,0.01862323,0.00076782395,0.00636327,0.03233351,inf,0.0,0.0,0.0,0.0,0.0,0.0,0.0,2.1041751e-05,0.0,0.0,0.0,0.0,0.0,0.0,0.00018245826,0.00018245826,8.304119e-05,1.3809331e-07,5.543776,0.006426187,0.5998482,0.0,0.0,0.0,0.0,0.0,0.0
304023927,303833648,0.004477143,0.011999824,0.0026082657,0.0065001035,0.03196771,inf,0.0,0.0,0.0,0.0,0.0,0.0,0.0,0.0005905353,0.0,0.0,0.0,0.0,0.0,0.0,0.000101136284,0.000101136284,6.316919e-05,5.0127182e-06,0.5170273,0.35158283,0.015685674,0.0,0.0,0.0,0.0,0.0,0.0
305024057,304833649,0.00928676,0.020791957,0.014171677,0.007241667,0.030497562,inf,0.0,0.0,0.0,0.0,0.0,0.0,0.0,0.0020539234,0.0,0.0,0.0,0.0,0.0,0.0,7.9848476e-05,5.4737407e-05,3.6762453e-05,7.9848476e-05,0.0009992943,0.16541749,0.00071257283,0.0,0.0,0.0,0.0,0.0,0.0
305523922,305333648,0.01829952,0.018724537,0.010128107,0.007951056,0.029590344,inf,0.0,0.0,0.0,0.0,0.0,0.0,0.0,0.0060512563,0.0,0.0,0.0,0.0,0.0,0.0,2.4559406e-05,2.4559406e-05,1.9702538e-06,1.8837394e-06,0.111369714,0.34279922,0.004688892,0.0,0.0,0.0,0.0,0.0,0.0
306023955,305833648,0.016669145,0.013347558,0.009028248,0.008478828,0.02895076,inf,0.0,0.0,0.0,0.0,0.0,0.0,0.0,0.0009819512,0.0,0.0,0.0,0.0,0.0,0.0,0.0005435908,0.0005435908,4.634761e-05,2.8979284e-05,0.14560044,0.18780586,0.0014364439,0.0,0.0,0.0,0.0,0.0,0.0
306523923,306333648,0.020463306,0.01389741,0.016536042,0.008962798,0.028309938,inf,0.0,0.0,0.0,0.0,0.0,0.0,0.0,0.011171311,0.0,0.0,0.0,0.0,0.0,0.0,0.00012286904,2.7688755e-05,2.3680866e-05,0.00012286904,0.5120247,0.24512173,0.008065731,0.0,0.0,0.0,0.0,0.0,0.0
307023928,306833648,0.020299267,0.013560821,0.019648615,0.009385491,0.027758619,inf,0.0,0.0,0.0,0.0,0.0,0.0,0.0,0.010377595,0.0,0.0,0.0,0.0,0.0,0.0,0.0003203211,0.00018875624,3.1796917e-05,0.0003203211,0.008860959,0.25801066,0.001114513,0.0,0.0,0.0,0.0,0.0,0.0
307523960,307333648,0.017004557,0.014778117,0.017026633,0.009546458,0.027149687,0.09194933,0.0,0.0,0.0,0.0,0.0,0.0,0.0,0.010656213,0.0,0.0,0.0,0.0,0.0,0.0,0.000100649384,0.000100649384,1.45404965e-05,6.328393e-05,0.019553183,0.0033274859,8.003664e-06,0.0,0.0,0.0,0.0,0.0,0.0
308523941,308333652,0.0011490815,0.00050564564,0.0008329948,8.307774e-06,2.528341e-05,0.00014435263,0.0,0.0,0.0,0.0,0.0,0.0,0.0,0.028407818,0.0,0.0,0.0,0.0,0.0,0.0,0.001486396,6.186966e-07,0.001486396,3.2800415e-06,0.09087561,0.31139058,0.0043139914,0.0,0.0,0.0,0.0,0.0,0.0
309023950,308833648,0.026891671,0.0171204,0.033267103,4.5727734e-06,7.206082e-05,0.00048131964,0.0,0.0,0.0,0.0,0.0,0.0,0.0,0.026666434,0.0,0.0,0.0,0.0,0.0,0.0,0.0051401025,0.00086713315,0.0015507091,0.0051401025,0.12460169,1.4229664,0.006823679,0.0,0.0,0.0,0.0,0.0,0.0
309523941,309333648,0.036062267,0.011507604,0.104170404,3.1840886e-05,4.9293827e-05,0.0004602446,0.0,0.0,0.0,0.0,0.0,0.0,0.0,0.019328719,0.0,0.0,0.0,0.0,0.0,0.0,0.0052459245,0.0005800642,0.0033244407,0.0052459245,0.41826886,0.0020075275,0.00170807,0.0,0.0,0.0,0.0,0.0,0.0
310023943,309833648,1.6831498e-05,0.00019213796,0.28475565,5.1166506e-05,1.6371038e-06,0.00096019264,0.0,0.0,0.0,0.0,0.0,0.0,0.0,0.008596548,0.0,0.0,0.0,0.0,0.0,0.0,0.0057886005,0.00013266735,0.0057886005,0.00094896706,1.4917886,0.5598629,0.033027362,0.0,0.0,0.0,0.0,0.0,0.0
310523939,310333648,0.017020393,0.0036884877,0.12560855,0.00014730537,5.0971084e-05,0.0026726378,0.0,0.0,0.0,0.0,0.0,0.0,0.0,0.004671606,0.0,0.0,0.0,0.0,0.0,0.0,0.0037698818,0.00043132703,0.0037698818,3.173457e-05,0.06268829,0.11575032,0.00072252227,0.0,0.0,0.0,0.0,0.0,0.0
311023965,310833648,0.057258673,0.0005688365,0.013624434,0.00017692482,0.00019157532,0.003018834,0.0,0.0,0.0,0.0,0.0,0.0,0.0,0.0035857155,0.0,0.0,0.0,0.0,0.0,0.0,0.0008930028,0.0008930028,0.00088008196,0.0004408705,0.00019194063,1.0651017,0.015106024,0.0,0.0,0.0,0.0,0.0,0.0
312023942,311833648,0.073143154,0.057986584,0.14940642,0.0009799851,7.7498163e-07,0.0031983787,0.0,0.0,0.0,0.0,0.0,0.0,0.0,0.0013788862,0.0,0.0,0.0,0.0,0.0,0.0,0.0006046996,0.0005474231,0.00031444442,0.0006046996,0.0008549765,1.1256928,0.007904317,0.0,0.0,0.0,0.0,0.0,0.0
312523940,312333648,0.047255296,0.02531286,0.09520082,0.0027698642,0.00026254883,0.0031983787,0.0,0.0,0.0,0.0,0.0,0.0,0.0,2.8300334e-05,0.0,0.0,0.0,0.0,0.0,0.0,0.00028371267,0.00023431287,0.00028371267,0.00015663248,0.3381939,0.39454114,0.00091637974,0.0,0.0,0.0,0.0,0.0,0.0
313023944,312833648,0.00806305,5.9750037e-05,0.07197664,0.0030654187,9.225259e-05,0.0031983787,0.0,0.0,0.0,0.0,0.0,0.0,0.0,0.0004600633,0.0,0.0,0.0,0.0,0.0,0.0,0.0017230121,5.893345e-05,0.00045310665,0.0017230121,0.23036535,0.09400236,0.008111488,0.0,0.0,0.0,0.0,0.0,0.0
313523940,313333648,0.012173113,0.00013349316,0.099427365,0.0049083903,4.7739004e-06,0.0031983787,0.0,0.0,0.0,0.0,0.0,0.0,0.0,0.0019229659,0.0,0.0,0.0,0.0,0.0,0.0,0.00032137323,6.045735e-05,0.00032137323,3.8628143e-05,1.3699398,0.0078041884,0.010237695,0.0,0.0,0.0,0.0,0.0,0.0
314023939,313833648,0.00042684382,0.00095119054,0.080867305,0.0052370448,3.1781892e-05,0.0031983787,0.0,0.0,0.0,0.0,0.0,0.0,0.0,0.0028720868,0.0,0.0,0.0,0.0,0.0,0.0,0.0007961951,0.00040228514,0.0007961951,0.0002049303,0.20958209,0.04441064,5.0740422e-05,0.0,0.0,0.0,0.0,0.0,0.0
314523942,314333648,0.005108437,0.007361393,0.03836508,0.0041814414,0.00021678115,0.0031983787,0.0,0.0,0.0,0.0,0.0,0.0,0.0,0.003512259,0.0,0.0,0.0,0.0,0.0,0.0,0.0004956153,0.00012623203,0.0004956153,9.375129e-05,0.834186,0.07687604,0.006303233,0.0,0.0,0.0,0.0,0.0,0.0
315023941,314833648,0.001067799,0.00069239555,0.04247698,0.0041364706,0.00041731464,0.0031983787,0.0,0.0,0.0,0.0,0.0,0.0,0.0,0.0027545956,0.0,0.0,0.0,0.0,0.0,0.0,0.0005458571,4.513146e-05,0.0005458571,0.0005212003,0.24269281,0.22866347,0.00036512694,0.0,0.0,0.0,0.0,0.0,0.0
315523943,315333648,0.0024094426,0.000103654835,0.044062216,0.004453645,0.00045008538,0.0031983787,0.0,0.0,0.0,0.0,0.0,0.0,0.0,0.0042703105,0.0,0.0,0.0,0.0,0.0,0.0,6.255706e-05,3.5333123e-05,6.255706e-05,9.888792e-06,0.71708274,0.057365797,0.015846973,0.0,0.0,0.0,0.0,0.0,0.0
316023973,315833648,9.654229e-07,0.0026703505,0.026838245,0.0035346672,0.00088353123,0.0031983787,0.0,0.0,0.0,0.0,0.0,0.0,0.0,0.0055599418,0.0,0.0,0.0,0.0,0.0,0.0,0.0019310835,0.0003403854,0.0004598892,0.0019310835,0.5520781,0.08751003,0.0037806751,0.0,0.0,0.0,0.0,0.0,0.0
