timestamp,accel_device_id,gyro_device_id,accel_clipping[0],accel_clipping[1],accel_clipping[2],gyro_clipping[0],gyro_clipping[1],gyro_clipping[2],accel_error_count,gyro_error_count,accel_rate_hz,gyro_rate_hz,accel_raw_rate_hz,gyro_raw_rate_hz,accel_vibration_metric,gyro_vibration_metric,delta_angle_coning_metric,mean_accel[0],mean_accel[1],mean_accel[2],mean_gyro[0],mean_gyro[1],mean_gyro[2],var_accel[0],var_accel[1],var_accel[2],var_gyro[0],var_gyro[1],var_gyro[2],temperature_accel,temperature_gyro
200935810,3407882,3407882,0,0,0,0,0,0,0,0,800.00055,800.00055,6411.301,6411.301,0.29081494,0.0055890814,1.2212768e-10,-0.14530185,0.3873352,-9.714107,-0.003199817,0.0004051175,0.0011988247,2.5034313,1.543584,3.4939773,0.0012516787,0.00043157523,0.00013598542,23.781023,23.781023
201975831,3407882,3407882,0,0,0,0,0,0,0,0,799.99994,799.99994,6411.273,6411.273,0.378871,0.006700009,1.1845454e-10,-0.14342254,0.43320352,-9.719627,-0.0033836267,0.0014131727,0.00038604205,4.4634113,1.022642,2.9657407,0.0005385308,0.00084191735,8.100154e-05,23.777098,23.777098
202915834,3407882,3407882,0,0,0,0,0,0,0,0,799.99963,799.99963,6411.226,6411.226,0.41866866,0.0077742147,1.7719401e-10,-0.14270191,0.42340252,-9.740822,-0.0008888345,0.0007119265,0.00086566596,2.7716124,1.3543135,3.4228578,0.0006842603,0.0005361812,0.00011635665,23.787544,23.787544
203965804,3407882,3407882,0,0,0,0,0,0,0,0,800.00055,800.00055,6411.187,6411.187,0.6487408,0.011058498,7.054529e-10,-0.16118337,0.3753353,-9.754621,-0.0028718873,0.0014980126,-0.00016709145,2.5243576,7.012712,5.282942,0.0028057757,0.00079635566,0.00018547117,23.803555,23.803555
204905801,3407882,3407882,0,0,0,0,0,0,0,0,800.0005,800.0005,6411.1655,6411.1655,3.1377418,0.05155091,5.4252407e-09,-0.1325415,0.36526245,-9.756322,-0.0005770804,0.00024537998,-0.0015376367,18.150932,15.035338,47.64491,0.008380653,0.010205647,0.0014810638,23.805845,23.805845
205945829,3407882,3407882,0,0,0,0,0,0,0,0,800.0,800.0,6411.1465,6411.1465,3.7247372,0.05899038,6.1051786e-08,0.042244136,0.058496542,-10.305289,-0.24851444,-0.10439802,0.12676124,120.5504,32.617966,147.10826,0.05698603,0.0435984,0.0074633826,23.84299,23.84299
206985802,3407882,3407882,0,0,0,0,0,0,0,0,800.0005,800.0005,6411.116,6411.116,4.2729297,0.073888935,4.0669555e-08,0.004104823,0.26484948,-10.245961,0.07584314,0.052601103,0.043233,61.319305,19.418926,89.38558,0.02622773,0.029315008,0.00498601,23.817682,23.817682
207925802,3407882,3407882,0,0,0,0,0,0,0,0,800.0005,800.0005,6411.105,6411.105,3.4131408,0.061722007,4.7971202e-08,-0.12032434,-0.027348071,-9.989896,0.072644815,-0.032742176,-0.16908403,35.88196,14.794953,55.614216,0.018132864,0.008264595,0.003099869,23.826939,23.826939
208975810,3407882,3407882,0,0,0,0,0,0,0,0,800.0005,800.0005,6411.077,6411.077,4.1408973,0.07093451,3.0317484e-08,-0.24624515,0.019652586,-10.120132,0.014528458,-0.13801993,0.035800535,49.605473,28.908434,65.18755,0.018315542,0.018165082,0.0028302136,23.808327,23.808327
209920803,3407882,3407882,0,0,0,0,0,0,0,0,800.0005,800.0005,6411.064,6411.064,3.5810392,0.060207665,4.9122974e-08,-0.43147334,0.06580748,-9.781051,-0.040304303,0.084515214,0.15299025,63.119186,37.5382,78.22692,0.022366159,0.024469493,0.0105815455,23.83081,23.83081
211915807,3407882,3407882,0,0,0,0,0,0,0,0,800.00037,800.00037,6411.043,6411.043,4.4905314,0.07337265,5.158578e-08,-0.2579498,-0.020115957,-7.9844613,-0.06632812,-0.053013146,-0.080017895,79.39586,30.893333,82.073265,0.061835874,0.033591624,0.0044284286,23.81107,23.81107
212955812,3407882,3407882,0,0,0,0,0,0,0,0,800.00037,800.00037,6411.0356,6411.0356,4.996803,0.07920031,5.893353e-08,-0.50579053,0.082205236,-10.1359,-0.05314629,0.05353227,-0.021954145,397.05994,123.914505,259.01608,0.11495969,0.11920642,0.012097542,23.84632,23.84632
213995809,3407882,3407882,0,0,0,0,0,0,0,0,800.00037,800.00037,6411.0396,6411.0396,4.0096745,0.06937626,2.8896878e-08,-0.13541225,0.19815788,-9.865009,0.020004038,-0.0789615,0.033615727,130.61887,32.94621,105.885124,0.04936917,0.055732477,0.0041887807,23.819345,23.819345
214940804,3407882,3407882,0,0,0,0,0,0,0,0,800.00037,800.00037,6411.035,6411.035,3.6876173,0.06524417,3.5886654e-08,-0.31476244,0.3386251,-9.771946,0.01618492,0.054120656,-0.02124014,230.22858,69.444214,188.46605,0.086978756,0.0589648,0.0055545475,23.812607,23.812607
215985815,3407882,3407882,0,0,0,0,0,0,0,0,800.00024,800.00024,6411.013,6411.013,5.090996,0.07875202,1.2273665e-07,-0.66633415,0.07380184,-10.069864,-0.07525817,-0.2844294,-0.124256305,732.43005,98.72444,342.6121,0.08149301,0.13321295,0.009392013,23.836786,23.836786
216930802,3407882,3407882,0,0,0,0,0,0,0,0,800.00037,800.00037,6410.9966,6410.9966,5.5496254,0.09308727,1.8105852e-07,-1.201963,0.48262808,-10.236241,0.057021637,0.44835636,0.016070383,657.7149,207.05061,500.4293,0.13973899,0.125312,0.024008172,23.836586,23.836586
217980804,3407882,3407882,0,0,0,0,0,0,0,0,800.00037,800.00037,6410.9927,6410.9927,7.169571,0.11151651,2.8755994e-07,-0.58982563,0.43517748,-10.297689,0.13724907,-0.73486674,0.022888554,905.3185,220.978,689.58704,0.15429452,0.12155209,0.040686954,23.856518,23.856518
218925802,3407882,3407882,0,0,0,0,0,0,0,0,800.00037,800.00037,6410.9814,6410.9814,6.9509773,0.110377096,7.369489e-08,-1.0778893,0.355929,-9.993721,-0.037478562,-0.018700253,-0.055623155,571.94714,343.67352,642.68774,0.1835871,0.18259399,0.023037823,23.826582,23.826582
219965803,3407882,3407882,0,0,0,0,0,0,0,0,800.00037,800.00037,6410.965,6410.965,6.0479064,0.103409514,8.0028116e-08,-1.2137349,0.24741474,-9.112735,-0.11099777,-0.14734867,-0.008408969,459.5086,120.91566,355.49475,0.13962801,0.14683089,0.014702962,23.836813,23.836813
220900803,3407882,3407882,0,0,0,0,0,0,0,0,800.00037,800.00037,6410.964,6410.964,6.178528,0.10253096,9.2058265e-08,-0.59200597,0.54849046,-9.616705,0.061948407,0.15187828,0.0104391165,362.2871,165.6562,314.69006,0.17127182,0.112742476,0.019979909,23.789963,23.789963
221940805,3407882,3407882,0,0,0,0,0,0,0,0,800.0003,800.0003,6410.962,6410.962,5.297978,0.092608415,5.7758893e-08,-0.33665073,0.313029,-9.567794,0.06123303,-0.08418294,0.068464,480.8577,139.08017,299.35916,0.10304136,0.06251667,0.020324279,23.83643,23.83643
222990802,3407882,3407882,0,0,0,0,0,0,0,0,800.0003,800.0003,6410.958,6410.958,3.9436617,0.066589005,2.943184e-08,-0.33577472,0.015582092,-9.681467,-0.11539677,-0.008020912,-0.0364788,95.23386,25.28099,113.8089,0.032526568,0.035391644,0.0017325301,23.82634,23.82634
223935809,3407882,3407882,0,0,0,0,0,0,0,0,800.0003,800.0003,6410.944,6410.944,3.7798464,0.062644325,4.4444675e-08,-0.08506349,0.067435965,-9.639148,-0.11374758,-0.086229935,-0.05549807,93.52093,32.65435,176.0693,0.03683264,0.029403158,0.0055546113,23.809605,23.809605
224980804,3407882,3407882,0,0,0,0,0,0,0,0,800.0003,800.0003,6410.9316,6410.9316,3.4945383,0.058674887,2.1504443e-08,-0.4025337,0.0028051268,-9.655109,0.07157585,-0.040284254,-0.031396613,120.97447,16.649242,104.58024,0.026119022,0.045025297,0.002943167,23.789219,23.789219
225925804,3407882,3407882,0,0,0,0,0,0,0,0,800.0003,800.0003,6410.9243,6410.9243,3.3101668,0.05864681,3.3573105e-08,-0.35928214,-0.070906654,-9.919842,0.09364958,0.06886834,-0.026021084,62.50917,26.93258,87.971825,0.03505715,0.05867029,0.0051252325,23.786758,23.786758
226970800,3407882,3407882,0,0,0,0,0,0,0,0,800.0003,800.0003,6410.9004,6410.9004,4.104978,0.07007913,4.4395776e-08,-0.13158153,-0.22000545,-9.562715,0.003947738,0.123278506,-0.08445378,128.8675,24.87012,104.55379,0.027605344,0.06781108,0.006151309,23.766647,23.766647
227915812,3407882,3407882,0,0,0,0,0,0,0,0,800.0003,800.0003,6410.9077,6410.9077,4.027364,0.077043496,4.000412e-08,-0.33804247,-0.3094182,-9.683789,0.072639965,-0.01762875,0.07111608,130.60843,70.87932,133.67899,0.068553105,0.054780982,0.0059739,23.76181,23.76181
228965802,3407882,3407882,0,0,0,0,0,0,0,0,800.0003,800.0003,6410.9067,6410.9067,4.111417,0.07141631,7.072197e-08,-0.46448836,-0.22476503,-9.489037,-0.0015224181,0.042634122,-0.14203762,145.13359,43.27639,164.12465,0.06999044,0.056877416,0.007859747,23.767262,23.767262
230000803,3407882,3407882,0,0,0,0,0,0,0,0,800.0003,800.0003,6410.894,6410.894,4.009473,0.073366754,3.3287e-08,-0.43588686,-0.134414,-9.59405,-0.043461014,0.043270186,-0.061016835,55.014675,26.410652,155.96037,0.07971183,0.027029576,0.0095324535,23.768593,23.768593
230945802,3407882,3407882,0,0,0,0,0,0,0,0,800.0003,800.0003,6410.8843,6410.8843,4.098163,0.07504692,1.0449865e-07,-0.6812707,-0.059034128,-8.476277,0.10425535,0.21178441,0.030059936,208.69142,46.19668,233.09003,0.054112542,0.17181703,0.0034386227,23.725088,23.725088
231990803,3407882,3407882,0,0,0,0,0,0,0,0,800.0003,800.0003,6410.8857,6410.8857,3.762452,0.069175825,3.6765865e-08,-0.32263064,0.16662706,-9.611548,-0.085563816,0.033080295,-0.003415299,181.24284,63.47569,191.08604,0.060460117,0.084071994,0.00773329,23.730076,23.730076
232935805,3407882,3407882,0,0,0,0,0,0,0,0,800.0003,800.0003,6410.889,6410.889,3.7004554,0.06676616,5.3767828e-08,-0.59096766,0.00043768622,-9.242519,-0.034077562,0.15333751,-0.07700893,88.14856,33.922836,93.13996,0.040538333,0.059734717,0.00303323,23.731619,23.731619
234925801,3407882,3407882,0,0,0,0,0,0,0,0,800.0003,800.0003,6410.8965,6410.8965,3.7108808,0.06850438,1.1584057e-07,-0.035712704,0.27401823,-9.462931,-0.016656697,0.34074947,0.01322893,90.648285,45.930187,86.35359,0.034395374,0.17319694,0.004351003,23.685556,23.685556
235970808,3407882,3407882,0,0,0,0,0,0,0,0,800.0003,800.0003,6410.8833,6410.8833,3.9115865,0.07218452,6.1994264e-08,0.123049594,0.18927638,-9.9864855,0.06795365,0.023711296,0.11202421,74.38648,38.33166,104.50763,0.042668723,0.08151681,0.0057373554,23.67814,23.67814
236910802,3407882,3407882,0,0,0,0,0,0,0,0,800.0003,800.0003,6410.881,6410.881,4.039116,0.07569153,1.623981e-07,-0.29733685,0.15605038,-8.96915,0.11465189,0.39003408,0.029202122,129.39655,77.70848,91.37102,0.06823336,0.14733784,0.006684181,23.673435,23.673435
237960806,3407882,3407882,0,0,0,0,0,0,0,0,800.00024,800.00024,6410.8643,6410.8643,3.65683,0.064184144,3.4275647e-08,-0.14707191,0.25420943,-9.718426,-0.025491253,-0.04378907,0.0349411,69.44574,66.04122,136.37383,0.069589116,0.030255003,0.0048703784,23.65975,23.65975
238900803,3407882,3407882,0,0,0,0,0,0,0,0,800.00024,800.00024,6410.8745,6410.8745,3.6072657,0.06366165,7.245195e-08,-0.12668052,-0.013225436,-9.279373,0.14699507,0.0071117356,-0.05070917,86.25369,56.465893,177.53716,0.06850889,0.05572655,0.005454343,23.655882,23.655882
239945804,3407882,3407882,0,0,0,0,0,0,0,0,800.00024,800.00024,6410.86,6410.86,3.5077648,0.06594034,1.1137813e-07,-0.3653091,-0.15947276,-10.547997,-0.36594972,-0.09911575,-0.049160928,123.284035,16.651451,238.84955,0.04619767,0.074784115,0.004654664,23.66183,23.66183
240990803,3407882,3407882,0,0,0,0,0,0,0,0,800.00024,800.00024,6410.854,6410.854,3.318006,0.058860242,3.5504865e-08,-0.38165036,-0.09283866,-10.328019,-0.15070918,-0.049136028,0.025668344,117.30246,31.918428,168.75421,0.053025186,0.050059807,0.0032607696,23.641022,23.641022
241930807,3407882,3407882,0,0,0,0,0,0,0,0,800.00024,800.00024,6410.8413,6410.8413,3.189667,0.057429474,2.2028274e-08,-0.31313482,0.10902579,-9.866174,-0.06736459,0.021342492,0.029380735,103.079956,34.976833,148.04756,0.0295337,0.038837433,0.0062677823,23.632856,23.632856
242980803,3407882,3407882,0,0,0,0,0,0,0,0,800.00024,800.00024,6410.83,6410.83,2.8656611,0.052631453,3.3123506e-08,-0.45122,-0.010728009,-9.890946,0.013752481,0.028573269,-0.058845114,77.272064,36.130962,95.078735,0.049745433,0.034852393,0.004896581,23.634207,23.634207
243925802,3407882,3407882,0,0,0,0,0,0,0,0,800.00024,800.00024,6410.8135,6410.8135,4.0655384,0.07876683,2.0882082e-07,-0.4672613,0.36202258,-9.797926,0.36054808,0.13527884,0.03719304,343.55853,65.476685,249.94875,0.099099554,0.15578866,0.005922253,23.618334,23.618334
244965803,3407882,3407882,0,0,0,0,0,0,0,0,800.00024,800.00024,6410.8105,6410.8105,4.441978,0.07553023,5.9013267e-08,-0.7446494,0.34910464,-9.621222,0.09916675,0.0072166026,0.016083049,372.13687,52.26512,211.12215,0.07210923,0.13308387,0.007743403,23.608568,23.608568
245905804,3407882,3407882,0,0,0,0,0,0,0,0,800.00024,800.00024,6410.806,6410.806,3.7517216,0.06878405,4.5020464e-08,-0.34173754,0.13515566,-9.866687,-0.08223692,-0.03458441,-0.014335445,173.7299,50.132145,107.05749,0.09430391,0.079219036,0.004345356,23.594183,23.594183
246955811,3407882,3407882,0,0,0,0,0,0,0,0,800.2104,800.2104,6409.5137,6409.5137,3.4321818,0.075366125,2.2552439e-07,-0.089913964,-0.11620587,-9.738936,-0.6844174,-0.235695,-0.052225787,99.00313,33.994537,93.69911,0.057496086,0.0492018,0.0021991853,23.609142,23.609142
247995807,3407882,3407882,0,0,0,0,0,0,0,0,800.0309,800.0309,6410.2344,6410.2344,2.9607162,0.052746996,2.842959e-08,0.080693915,-0.18717696,-10.100197,-0.08277028,-0.034388043,-0.028116673,84.24321,33.82432,147.26584,0.031001452,0.05710405,0.00444352,23.579245,23.579245
248940805,3407882,3407882,0,0,0,0,0,0,0,0,800.01733,800.01733,6410.2812,6410.2812,2.9617293,0.05298947,1.8870447e-08,-0.25705248,0.11137554,-9.990647,0.026084874,-0.01746661,0.075271375,24.999582,10.335327,46.529163,0.009499058,0.008945324,0.0027533846,23.577816,23.577816
249985802,3407882,3407882,0,0,0,0,0,0,0,0,800.0117,800.0117,6410.7993,6410.7993,3.3786445,0.054724663,4.03388e-08,-0.25521922,0.30603907,-9.597956,0.053675923,0.09121756,0.002384328,128.10318,35.070328,137.58655,0.032443687,0.05009105,0.007003942,23.567287,23.567287
250930823,3407882,3407882,0,0,0,0,0,0,0,0,800.00903,800.00903,6410.611,6410.611,3.652587,0.054759823,1.8669702e-08,-0.47718042,0.032619074,-9.303988,0.03145608,0.012001449,-0.004421395,153.95432,25.744925,185.29431,0.043187268,0.054580245,0.005774677,23.58198,23.58198
251980804,3407882,3407882,0,0,0,0,0,0,0,0,800.0072,800.0072,6410.5576,6410.5576,3.9886823,0.057379358,2.7811478e-08,-0.5913023,-0.013813284,-9.756466,-0.06504346,-0.007377467,0.0071277125,178.14833,53.19335,203.62874,0.055118587,0.057951197,0.010027359,23.58321,23.58321
252925806,3407882,3407882,0,0,0,0,0,0,0,0,800.0061,800.0061,6410.669,6410.669,3.7135832,0.061631095,2.612683e-08,-0.41528803,-0.10752703,-9.476312,-0.0063339104,0.040993154,0.012105232,230.73521,58.194397,199.00665,0.0746973,0.088561185,0.0074651907,23.538105,23.538105
253965808,3407882,3407882,0,0,0,0,0,0,0,0,800.00525,800.00525,6410.662,6410.662,4.1414094,0.061942074,7.354673e-08,-0.2757926,0.30712077,-9.709001,-0.21087852,-0.05804364,0.05320255,131.2602,81.123184,222.31624,0.084897734,0.040554274,0.009124843,23.546692,23.546692
254910803,3407882,3407882,0,0,0,0,0,0,0,0,800.00464,800.00464,6410.6465,6410.6465,4.2614,0.0692744,4.940882e-08,-0.5551504,0.27739716,-10.006117,0.08289102,0.0058243396,-0.032956377,343.8708,128.93584,296.6718,0.09436628,0.073688895,0.015840624,23.536371,23.536371
255955809,3407882,3407882,0,0,0,0,0,0,0,0,800.00397,800.00397,6410.598,6410.598,5.0553493,0.09011923,4.6734375e-08,-0.3437385,0.324682,-10.405287,0.11429724,0.03522222,-0.0064238776,217.84833,118.03812,283.54617,0.15803054,0.08735449,0.013364249,23.533836,23.533836
257950810,3407882,3407882,0,0,0,0,0,0,0,0,800.00336,800.00336,6410.5415,6410.5415,5.0729322,0.08572065,1.80818e-07,-0.627143,0.19846164,-12.224802,0.45612258,0.28588077,0.004525972,682.04767,161.74393,394.9903,0.0512942,0.12550864,0.05445047,23.526083,23.526083
258995812,3407882,3407882,0,0,0,0,0,0,0,0,800.00305,800.00305,6410.607,6410.607,3.8368812,0.06557776,4.766406e-08,-0.594011,0.0779625,-9.534127,-0.14526795,0.0068241977,-0.032993194,153.54674,61.793377,139.76001,0.076720536,0.05736084,0.008785044,23.505125,23.505125
259940811,3407882,3407882,0,0,0,0,0,0,0,0,800.00287,800.00287,6410.517,6410.517,3.582095,0.06158994,2.68387e-08,-0.35720813,0.31944034,-9.671255,0.0016531342,-0.050879505,0.0126441475,234.47905,25.650843,228.15706,0.04165351,0.10771565,0.004838141,23.505955,23.505955
260990807,3407882,3407882,0,0,0,0,0,0,0,0,800.0027,800.0027,6410.53,6410.53,4.135846,0.076127715,6.471235e-08,-0.2520661,0.37417552,-9.306592,-0.17070733,0.15587257,0.032520797,124.67874,72.33798,172.11546,0.08125883,0.07110264,0.010339363,23.500969,23.500969
261930808,3407882,3407882,0,0,0,0,0,0,0,0,800.00244,800.00244,6410.482,6410.482,3.8864303,0.072133385,4.924625e-08,-0.44446933,0.295154,-10.199533,0.11797203,-0.054446865,0.009348938,187.91786,31.144627,202.14893,0.049798045,0.08618984,0.0077988007,23.490618,23.490618
262980803,3407882,3407882,0,0,0,0,0,0,0,0,800.0023,800.0023,6410.46,6410.46,3.9900205,0.06836589,4.074047e-08,-0.6171553,0.49851567,-9.715466,-0.012265057,0.087585665,0.029236898,126.42436,42.636818,128.68724,0.10383382,0.06330172,0.008056988,23.467857,23.467857
263915823,3407882,3407882,0,0,0,0,0,0,0,0,800.00226,800.00226,6410.424,6410.424,4.3425655,0.07397419,3.7392386e-08,-0.8293022,0.35785717,-9.831725,0.04685205,-0.06444662,-0.039821375,207.8638,74.53242,234.79807,0.09410191,0.07193551,0.006085663,23.499508,23.499508
264965803,3407882,3407882,0,0,0,0,0,0,0,0,800.002,800.002,6410.462,6410.462,4.0372276,0.07497705,3.098491e-08,-0.7211613,0.05502825,-9.340596,0.05358596,0.01784031,0.03255585,199.53099,56.47991,301.3638,0.08991731,0.07736046,0.008664496,23.474154,23.474154
265905804,3407882,3407882,0,0,0,0,0,0,0,0,800.00195,800.00195,6410.477,6410.477,4.1555405,0.07205729,5.6935153e-08,-0.8959969,0.10097888,-10.024668,0.005294865,0.14719097,0.016588178,213.8613,65.80242,262.69098,0.08829764,0.06253524,0.010205327,23.458426,23.458426
266950805,3407882,3407882,0,0,0,0,0,0,0,0,800.0019,800.0019,6410.5347,6410.5347,3.929672,0.07155913,2.7304887e-08,-0.52194905,0.11064008,-9.799161,0.037652053,0.005395517,-0.010313417,157.48264,38.675774,175.8567,0.080133,0.075666,0.004096135,23.454197,23.454197
267990808,3407882,3407882,0,0,0,0,0,0,0,0,800.0018,800.0018,6410.504,6410.504,3.3924553,0.058304682,3.567812e-08,-0.33485147,0.3301869,-9.867256,0.07959019,-0.047169596,-0.016252683,124.45047,23.837908,127.29482,0.042615175,0.071103126,0.0040083975,23.452684,23.452684
268930802,3407882,3407882,0,0,0,0,0,0,0,0,800.0017,800.0017,6410.5547,6410.5547,3.5771942,0.06788138,2.5276148e-07,-0.54279554,0.14202514,-9.817401,-0.21786036,0.94979113,0.15461391,179.0645,47.60939,198.26465,0.0661324,0.14900368,0.013598319,23.44168,23.44168
269975806,3407882,3407882,0,0,0,0,0,0,0,0,800.00165,800.00165,6410.4907,6410.4907,3.6738815,0.06657126,3.3734574e-07,-0.020493114,0.26677316,-9.9482975,-0.049143422,-0.07609172,0.938819,46.754265,38.43486,108.72034,0.044715166,0.02709937,0.007966478,23.427982,23.427982
270920803,3407882,3407882,0,0,0,0,0,0,0,0,800.0016,800.0016,6410.5635,6410.5635,3.3769677,0.06549746,3.292163e-07,0.031109221,0.13930196,-9.828196,-0.036310118,-0.018078487,1.0542992,65.07334,26.973606,114.43729,0.025275163,0.06159038,0.004866131,23.41293,23.41293
271965804,3407882,3407882,0,0,0,0,0,0,0,0,800.00146,800.00146,6410.559,6410.559,3.6018174,0.06305476,5.345725e-07,0.23642534,0.018356837,-9.756463,-0.013839047,-0.006442829,0.93037826,121.98074,44.21247,178.02194,0.047097124,0.13772999,0.0029954796,23.404581,23.404581
272905821,3407882,3407882,0,0,0,0,0,0,0,0,800.0014,800.0014,6410.589,6410.589,3.450023,0.06062534,4.0563614e-07,0.3647033,0.007008463,-9.747887,-0.0024666267,-0.021580014,0.9965033,125.605896,50.531364,147.78294,0.05477165,0.06701762,0.0051941057,23.414045,23.414045
273955807,3407882,3407882,0,0,0,0,0,0,0,0,800.0014,800.0014,6410.563,6410.563,3.7965527,0.064233795,3.590059e-07,-0.044516064,-0.46277955,-9.957246,-0.00011316361,0.0078573525,0.9139936,154.82466,82.27945,170.83899,0.04081507,0.06542081,0.006018084,23.386766,23.386766
275000804,3407882,3407882,0,0,0,0,0,0,0,0,800.00134,800.00134,6410.5737,6410.5737,3.1022298,0.05744114,3.4480334e-07,-0.21492974,-0.13767588,-9.584887,-0.02351535,0.007518496,1.0595703,55.471607,21.90672,91.01368,0.059399027,0.028602676,0.0026700222,23.401545,23.401545
275945802,3407882,3407882,0,0,0,0,0,0,0,0,800.0012,800.0012,6410.5703,6410.5703,3.7242768,0.06262399,4.547798e-07,-0.2078058,0.30815393,-9.673157,0.051038284,0.057632312,0.9104289,212.6333,96.352806,139.44073,0.09870195,0.10776251,0.0072538117,23.383495,23.383495
276990803,3407882,3407882,0,0,0,0,0,0,0,0,800.0012,800.0012,6410.562,6410.562,3.7848692,0.073363975,4.7521468e-07,-0.19843584,0.08224032,-9.705953,-0.0033282642,0.007885729,0.9801749,126.59677,53.57511,153.46445,0.09347494,0.064423785,0.013368383,23.362686,23.362686
277935811,3407882,3407882,0,0,0,0,0,0,0,0,800.00116,800.00116,6410.561,6410.561,4.6373286,0.07550454,3.7474873e-08,0.3296874,0.16623089,-9.774152,0.044167697,0.05589982,0.050202373,149.23662,41.965767,252.97241,0.059126414,0.06429758,0.010193237,23.356567,23.356567
278980832,3407882,3407882,0,0,0,0,0,0,0,0,800.00055,800.00055,6410.6025,6410.6025,3.919281,0.06327448,3.365136e-08,0.44727835,0.28087962,-9.226471,-0.05542557,0.015781106,-0.021880297,199.46997,85.904144,264.42676,0.052193176,0.08510527,0.010296347,23.313084,23.313084
280975806,3407882,3407882,0,0,0,0,0,0,0,0,800.0011,800.0011,6410.5913,6410.5913,5.2962265,0.08544192,5.1518246e-08,1.010238,0.24320057,-9.419074,-0.044884115,0.04376515,0.038950726,550.8441,67.43434,394.3022,0.068694025,0.09199082,0.013609095,23.275513,23.275513
281915805,3407882,3407882,0,0,0,0,0,0,0,0,800.0011,800.0011,6410.5674,6410.5674,5.1422195,0.084457435,3.825746e-08,0.62273264,0.56645596,-9.546743,-0.027386606,0.04080178,-0.0024420412,459.64362,67.350044,368.2609,0.10025816,0.1058437,0.01259528,23.307644,23.307644
282965805,3407882,3407882,0,0,0,0,0,0,0,0,800.00104,800.00104,6410.576,6410.576,5.232185,0.07836992,3.0937525e-08,0.47300613,0.41050437,-9.606652,0.03466203,-0.023843834,0.0073368754,219.00096,71.249565,121.28222,0.077583514,0.07525014,0.014935684,23.268438,23.268438
283910802,3407882,3407882,0,0,0,0,0,0,0,0,800.00104,800.00104,6410.5747,6410.5747,7.783651,0.119509615,1.7348952e-06,0.46032363,0.5411262,-10.079489,-0.089491904,0.29650936,-2.272717,553.4715,530.35895,486.95715,0.1302537,0.15378104,0.060194973,23.227457,23.227457
284960836,3407882,3407882,0,0,0,0,0,0,0,0,800.00055,800.00055,6410.623,6410.623,6.063494,0.10722963,1.0038139e-07,-0.7304621,0.57435405,-9.415706,0.0892316,0.033824164,-0.16823402,262.1357,83.1599,194.10733,0.05029507,0.12499119,0.023163695,23.228012,23.228012
285905804,3407882,3407882,0,0,0,0,0,0,0,0,800.00104,800.00104,6410.576,6410.576,5.584921,0.10039316,8.073019e-08,-0.6438627,0.6116609,-9.652128,-0.06180368,0.02620392,0.09597362,442.5148,128.42921,369.1802,0.16262518,0.14042132,0.013453644,23.18486,23.18486
286955808,3407882,3407882,0,0,0,0,0,0,0,0,800.0009,800.0009,6410.5938,6410.5938,5.824446,0.0934662,4.3402277e-08,-0.6984488,1.0401593,-9.525635,-0.044358715,0.05634071,0.017721191,578.17816,221.17622,297.5727,0.111694895,0.10540601,0.02566682,23.15704,23.15704
287900804,3407882,3407882,0,0,0,0,0,0,0,0,800.00085,800.00085,6410.591,6410.591,6.012339,0.0939213,4.306105e-08,-0.6541722,0.60736704,-9.88498,-0.0291487,0.046529256,-0.03190204,436.983,176.20111,501.7992,0.0957426,0.07734761,0.027968032,23.135231,23.135231
288945808,3407882,3407882,0,0,0,0,0,0,0,0,800.00085,800.00085,6410.594,6410.594,5.4241505,0.08037987,4.506861e-08,-0.3130013,0.4486455,-9.6239605,-0.04860984,-0.08686176,-0.06559001,217.66437,82.2427,275.7408,0.085379034,0.06846293,0.005841804,23.098328,23.098328
289995806,3407882,3407882,0,0,0,0,0,0,0,0,800.00085,800.00085,6410.5894,6410.5894,5.308059,0.08859105,1.9484489e-07,-0.7527263,0.9148924,-11.383285,0.34347332,0.2740822,-0.048852008,355.689,360.106,276.25574,0.13446245,0.13623029,0.047435444,23.067736,23.067736
290940808,3407882,3407882,0,0,0,0,0,0,0,0,800.00085,800.00085,6410.617,6410.617,4.4253936,0.07573847,2.9876162e-08,-0.2894827,0.28215793,-9.13257,-0.0049698967,0.07226205,-0.046764035,67.93024,32.076923,174.7408,0.04884553,0.060728244,0.005382152,23.051308,23.051308
291990803,3407882,3407882,0,0,0,0,0,0,0,0,800.00085,800.00085,6410.616,6410.616,3.83678,0.07075707,8.708946e-08,0.0075553656,0.25847465,-9.529556,0.08006443,0.17206015,-0.01702872,210.85362,77.76936,263.32544,0.14239436,0.086488314,0.0047517307,23.028982,23.028982
292935806,3407882,3407882,0,0,0,0,0,0,0,0,800.0008,800.0008,6410.609,6410.609,5.219139,0.091611154,6.173187e-08,0.2075613,0.5797998,-9.744406,-0.08614824,-0.01308609,0.018881258,267.02682,112.84339,260.48117,0.11320816,0.17360808,0.024371184,23.008095,23.008095
293980803,3407882,3407882,0,0,0,0,0,0,0,0,800.0008,800.0008,6410.611,6410.611,5.091283,0.088326916,3.476023e-08,-0.05869612,0.17963839,-9.621605,-0.019852411,-0.056978144,0.07341625,138.02888,54.249535,219.3126,0.08057859,0.04677761,0.010506649,23.003098,23.003098
294920804,3407882,3407882,0,0,0,0,0,0,0,0,800.0008,800.0008,6410.6265,6410.6265,4.0407743,0.07219334,3.54067e-08,-0.3868448,0.1192113,-10.113608,-0.020553842,-0.014064007,0.026194759,150.89178,46.747055,173.48793,0.083729066,0.05321613,0.0075264857,22.986082,22.986082
295965802,3407882,3407882,0,0,0,0,0,0,0,0,800.0008,800.0008,6410.6143,6410.6143,3.6135767,0.06585113,1.3024378e-07,-0.055887908,-0.058186825,-9.867039,-0.5512088,-0.05611949,-0.0022713696,89.28842,37.06595,149.99844,0.055702206,0.0397513,0.0037993486,22.962849,22.962849
296910801,3407882,3407882,0,0,0,0,0,0,0,0,800.0008,800.0008,6410.6333,6410.6333,6.10038,0.08304258,1.3750163e-07,0.40149945,0.87066627,-10.412596,0.39517006,-0.09867996,-0.0036437288,498.85983,80.29226,365.40677,0.07328925,0.071860924,0.03423767,22.946133,22.946133
298900804,3407882,3407882,0,0,0,0,0,0,0,0,800.00073,800.00073,6410.6,6410.6,6.7340593,0.08788114,9.4285284e-08,-0.75942975,1.1605518,-9.888334,-0.07670162,0.014033658,0.022787627,711.8304,342.08722,479.9716,0.19375929,0.1505413,0.02919798,22.890305,22.890305
299945811,3407882,3407882,0,0,0,0,0,0,0,0,800.00073,800.00073,6410.607,6410.607,7.4430733,0.10619053,2.3799538e-07,-1.2715821,0.7645258,-10.077617,0.0658354,0.38144982,-0.06327466,959.5649,393.4544,530.4518,0.14807954,0.2014199,0.04967316,22.906622,22.906622
300990803,3407882,3407882,0,0,0,0,0,0,0,0,800.00073,800.00073,6410.6074,6410.6074,5.5330477,0.085236244,4.9670007e-08,-0.18356778,0.33174866,-9.550771,-0.0074892477,-0.013482639,0.028059408,317.2628,183.66068,444.48962,0.15644376,0.15948893,0.009137504,22.894077,22.894077
301930803,3407882,3407882,0,0,0,0,0,0,0,0,800.00073,800.00073,6410.612,6410.612,5.412367,0.07582087,5.424117e-08,-0.26386654,0.5523865,-8.74625,0.06956289,-0.011896541,0.009161553,465.3444,149.16565,283.72318,0.17577235,0.15284258,0.01644673,22.894178,22.894178
302980804,3407882,3407882,0,0,0,0,0,0,0,0,800.00073,800.00073,6410.622,6410.622,5.067024,0.081486724,7.1042926e-08,-0.40839624,0.06978418,-8.997702,0.041634344,-0.022344349,0.007427192,589.3962,280.83643,274.72717,0.17969422,0.2193229,0.028316462,22.857643,22.857643
303925802,3407882,3407882,0,0,0,0,0,0,0,0,800.0006,800.0006,6410.6377,6410.6377,6.93254,0.12329905,1.0477736e-07,-0.073168665,0.35257152,-9.373932,0.07700385,-0.18850526,0.025461737,691.1848,481.30585,317.47095,0.30945218,0.19869675,0.04418736,22.84219,22.84219
304975805,3407882,3407882,0,0,0,0,0,0,0,0,800.0006,800.0006,6410.624,6410.624,6.214806,0.11818927,1.3678762e-07,-0.37835824,0.2597372,-10.005698,0.22631389,-0.15331513,0.07255619,555.7793,289.5808,523.8619,0.25408566,0.15428388,0.024357194,22.823275,22.823275
305920804,3407882,3407882,0,0,0,0,0,0,0,0,800.0006,800.0006,6410.6284,6410.6284,5.647677,0.10173823,9.753904e-08,-0.6185104,-0.07023314,-9.718818,-0.24179237,0.073551334,-0.048774254,298.87158,228.35431,355.9842,0.24061386,0.11711461,0.019868242,22.799149,22.799149
306965804,3407882,3407882,0,0,0,0,0,0,0,0,800.0006,800.0006,6410.644,6410.644,5.758046,0.10879945,1.041789e-07,-0.17765266,0.024116606,-9.785199,-0.1001004,0.023563633,-0.085815445,395.95038,304.58627,530.8857,0.32665524,0.13369888,0.025505979,22.786144,22.786144
307905819,3407882,3407882,0,0,0,0,0,0,0,0,800.0006,800.0006,6410.6396,6410.6396,8.506168,0.16218963,1.4832638e-07,-0.21322322,0.23116526,-10.186541,0.3392083,-0.09907715,0.058277942,538.8877,272.9293,334.32828,0.22888565,0.16797516,0.02165757,22.755865,22.755865
308950808,3407882,3407882,0,0,0,0,0,0,0,0,800.0006,800.0006,6410.6353,6410.6353,6.669229,0.12112457,5.074414e-08,-0.11505252,-0.037056625,-13.150857,-0.0886068,-0.08119096,0.08677353,305.19397,91.4182,132.57005,0.056128435,0.045035526,0.031758055,22.739775,22.739775
310000803,3407882,3407882,0,0,0,0,0,0,0,0,800.0006,800.0006,6410.6406,6410.6406,8.001898,0.12658045,1.4823055e-07,-0.35241708,-0.80728865,-10.54055,-0.30010626,0.21276751,-0.066013895,735.5872,199.78134,551.5255,0.14742133,0.17672825,0.03599635,22.70878,22.70878
310940812,3407882,3407882,0,0,0,0,0,0,0,0,800.00055,800.00055,6410.642,6410.642,5.526715,0.082782544,4.072889e-08,-0.13061821,-0.0069110245,-7.322936,-0.11983108,0.10319937,0.043601625,71.472626,38.572556,61.67347,0.040261164,0.045455582,0.0025764487,22.706871,22.706871
311990803,3407882,3407882,0,0,0,0,0,0,0,0,800.00055,800.00055,6410.644,6410.644,5.6351647,0.07748525,1.4867929e-07,-0.58130985,0.08952738,-9.000109,0.39846927,-0.09573564,-0.016270591,160.35336,43.823654,136.52408,0.05194853,0.06629843,0.008709553,22.70223,22.70223
312930803,3407882,3407882,0,0,0,0,0,0,0,0,800.00055,800.00055,6410.637,6410.637,4.8096533,0.08454041,1.3034733e-07,-0.59142923,0.62037325,-9.340989,-0.1844403,-0.040254563,0.046216276,376.1778,114.40966,282.3708,0.14640373,0.15798122,0.020741649,22.68797,22.68797
313980804,3407882,3407882,0,0,0,0,0,0,0,0,800.00055,800.00055,6410.6445,6410.6445,4.7590976,0.08680665,6.8718066e-08,-0.3705424,0.69571483,-9.61754,0.15280846,0.011709168,-0.0048820344,204.45453,94.56227,313.8965,0.12554665,0.078063756,0.015794443,22.634329,22.634329
314920803,3407882,3407882,0,0,0,0,0,0,0,0,800.00055,800.00055,6410.6396,6410.6396,5.145422,0.08913665,7.955461e-08,-0.09569861,0.750096,-9.659829,-0.14969975,-0.020352708,-0.032834463,226.5932,83.60621,271.33905,0.102454655,0.0694279,0.014159076,22.62529,22.62529
315970803,3407882,3407882,0,0,0,0,0,0,0,0,800.00055,800.00055,6410.6377,6410.6377,4.2860394,0.080066286,8.555441e-08,-0.32455072,0.84534246,-9.787204,0.11069126,-0.086054675,0.08249013,313.65414,110.78533,279.60825,0.092467055,0.09412156,0.012464276,22.608797,22.608797
316915806,3407882,3407882,0,0,0,0,0,0,0,0,800.00055,800.00055,6410.626,6410.626,4.8860097,0.08311309,4.3967745e-08,-0.27368116,0.42393047,-9.68045,-0.050320618,0.0046096155,0.04832577,202.45314,127.195435,339.09702,0.091252044,0.048905883,0.0120425895,22.614927,22.614927
317965802,3407882,3407882,0,0,0,0,0,0,0,0,800.00055,800.00055,6410.627,6410.627,5.436202,0.089882925,6.270367e-08,-0.021596551,0.5312637,-9.782629,-0.065269075,0.064411104,-0.01671131,442.77982,175.56194,358.9582,0.1342495,0.17611866,0.017769212,22.607283,22.607283
318905802,3407882,3407882,0,0,0,0,0,0,0,0,800.00055,800.00055,6410.6216,6410.6216,5.243511,0.090686806,1.0235458e-07,-0.0068902336,0.56862485,-9.888526,0.024977867,0.0839451,-0.08754693,404.9463,191.46402,494.72495,0.3107856,0.13063559,0.015041037,22.586063,22.586063
319950812,3407882,3407882,0,0,0,0,0,0,0,0,800.00055,800.00055,6410.63,6410.63,4.9509807,0.090722874,7.816284e-08,0.082640685,0.8464019,-10.180934,0.018080622,0.08686467,0.07084862,543.6904,113.28607,356.3914,0.14222875,0.20983957,0.027165616,22.570843,22.570843
321000804,3407882,3407882,0,0,0,0,0,0,0,0,800.0005,800.0005,6410.63,6410.63,8.031699,0.12311776,2.545998e-07,-0.3347133,0.7034149,-9.61412,-0.014777054,0.24042046,0.19472602,1200.1406,228.97522,599.3497,0.2189069,0.24279226,0.0625891,22.524435,22.524435
321945803,3407882,3407882,0,0,0,0,0,0,0,0,800.0005,800.0005,6410.6357,6410.6357,7.310658,0.11229639,2.461437e-07,-0.121375896,0.63971364,-9.802732,0.260715,0.3121853,-0.08788537,404.3278,219.03694,488.33084,0.21871997,0.13456239,0.05281366,22.504974,22.504974
322995806,3407882,3407882,0,0,0,0,0,0,0,0,800.0005,800.0005,6410.6377,6410.6377,5.810858,0.109898925,8.4366675e-08,-0.6455767,0.41972885,-10.093088,0.109632395,0.008183154,-0.06996495,342.92825,160.34106,360.84818,0.1153658,0.14685535,0.024516696,22.52832,22.52832
323940804,3407882,3407882,0,0,0,0,0,0,0,0,800.0005,800.0005,6410.659,6410.659,4.8921533,0.084732026,5.156041e-08,-0.31375965,0.35610688,-9.476423,-0.103021964,-0.016420702,0.062961236,148.32509,73.361336,196.399,0.05901962,0.07450121,0.0066740448,22.504438,22.504438
324985802,3407882,3407882,0,0,0,0,0,0,0,0,800.0005,800.0005,6410.6494,6410.6494,3.2534475,0.06063979,2.7439512e-08,-0.2266535,0.30209234,-9.719528,-0.05426571,-0.0005268031,-0.050795563,97.3288,28.902878,184.77077,0.025806062,0.05354797,0.0024021307,22.50237,22.50237
325925808,3407882,3407882,0,0,0,0,0,0,0,0,800.0005,800.0005,6410.658,6410.658,3.0703192,0.05589107,4.2569816e-08,-0.29929906,-0.119992144,-10.023346,0.018381694,-0.19334961,-0.025335766,76.93514,21.119286,122.738235,0.04742518,0.03721579,0.0019902415,22.490452,22.490452
326970803,3407882,3407882,0,0,0,0,0,0,0,0,800.0005,800.0005,6410.6714,6410.6714,3.7291505,0.06425765,2.3470701e-08,-0.24999696,-0.07338506,-9.716803,0.025866795,0.008587332,0.008969349,120.689545,51.408535,207.46808,0.070737705,0.05064574,0.0066863233,22.46113,22.46113
327910804,3407882,3407882,0,0,0,0,0,0,0,0,800.0005,800.0005,6410.6885,6410.6885,4.3870535,0.07437206,4.6130268e-08,-0.43976104,-0.15219048,-9.515,0.07467555,0.11472701,-0.006131655,121.23109,48.87499,211.29742,0.053032752,0.070099406,0.006551287,22.46818,22.46818
328960804,3407882,3407882,0,0,0,0,0,0,0,0,800.0151,800.0151,6409.6484,6409.6484,3.6602573,0.059313294,4.9059093e-08,-0.21055602,-0.12766494,-9.685134,-0.027600983,0.16112089,0.041745547,85.13412,35.062374,187.29378,0.057439934,0.051333852,0.005271403,22.445004,22.445004
329905824,3407882,3407882,0,0,0,0,0,0,0,0,800.0033,800.0033,6410.9194,6410.9194,3.4486442,0.06353725,6.677349e-08,-0.60242283,-0.545801,-10.298274,-0.08121852,0.12376559,-0.075784296,83.90912,19.511568,136.16473,0.092592075,0.07334271,0.0071973028,22.44256,22.44256
330950801,3407882,3407882,0,0,0,0,0,0,0,0,800.0018,800.0018,6410.9297,6410.9297,3.599812,0.065850355,1.02841135e-07,0.010387883,0.046929106,-9.780622,-0.4496105,0.078868866,-0.060314886,161.04198,65.32399,126.42127,0.08065723,0.057077944,0.008963471,22.419748,22.419748
331990803,3407882,3407882,0,0,0,0,0,0,0,0,800.0012,800.0012,6410.786,6410.786,3.335975,0.06160259,7.145463e-08,-0.2126203,-0.2871931,-10.317193,-0.20134456,0.015709793,-0.021336265,132.37222,49.62744,243.0943,0.049511418,0.07968762,0.0080867475,22.421564,22.421564
332935806,3407882,3407882,0,0,0,0,0,0,0,0,800.0009,800.0009,6410.636,6410.636,3.6461644,0.06853668,3.3373915e-08,-0.19984114,-0.28513193,-9.347561,0.066709235,-0.03418435,0.0079516815,131.57253,48.70708,164.99907,0.040582333,0.07774322,0.0057676975,22.418356,22.418356
333985802,3407882,3407882,0,0,0,0,0,0,0,0,800.0008,800.0008,6410.9263,6410.9263,3.6084492,0.071969226,8.266982e-08,-0.27154905,-0.23374331,-9.833077,0.05483308,-0.012915856,0.17186421,75.10785,42.298615,185.83058,0.113410234,0.055125546,0.008388432,22.399881,22.399881
334925801,3407882,3407882,0,0,0,0,0,0,0,0,800.0006,800.0006,6410.9824,6410.9824,4.024718,0.072576106,5.872282e-08,-0.50304854,0.26013768,-10.204092,-0.01398901,-0.11384183,-0.026298283,267.00327,80.26042,276.30737,0.115361795,0.08254673,0.012550638,22.40024,22.40024
335975806,3407882,3407882,0,0,0,0,0,0,0,0,800.00055,800.00055,6411.09,6411.09,4.5457053,0.086317696,1.1376287e-07,-0.51642734,0.3291251,-9.074211,-0.0070708115,0.25420272,0.096098304,305.13828,47.163635,187.09406,0.10552099,0.10090119,0.004783702,22.366905,22.366905
336920804,3407882,3407882,0,0,0,0,0,0,0,0,800.0005,800.0005,6411.007,6411.007,4.5832253,0.07691625,5.9842094e-08,-0.0354072,0.3717416,-8.82282,-0.0933206,-0.06393982,0.09803617,166.5364,99.86716,252.54672,0.048520155,0.05701212,0.010476862,22.36343,22.36343
337970802,3407882,3407882,0,0,0,0,0,0,0,0,800.0005,800.0005,6410.964,6410.964,5.4458647,0.0948096,1.8044999e-07,-0.5434583,-3.0874898,-9.6014385,0.3454289,-0.2738705,0.34172678,126.44852,63.808372,118.08983,0.027402593,0.040028185,0.007839269,22.354923,22.354923
339960805,3407882,3407882,0,0,0,0,0,0,0,0,800.00037,800.00037,6410.828,6410.828,4.2692037,0.078894585,5.643614e-09,0.089044005,0.5028243,-9.596714,-0.0013227864,0.002412052,-0.0010450485,3.6442575,4.5929823,27.41462,0.0044425908,0.0071113044,0.00037791912,22.326715,22.326715
341000803,3407882,3407882,0,0,0,0,0,0,0,0,800.0003,800.0003,6410.8657,6410.8657,4.234209,0.06617839,7.487548e-09,-0.04414043,0.36830008,-9.684997,-0.0036469128,0.0056576133,-0.00026220008,24.573374,20.355917,35.74825,0.0078977095,0.004817341,0.0018871927,22.321983,22.321983
341940806,3407882,3407882,0,0,0,0,0,0,0,0,800.0003,800.0003,6410.963,6410.963,2.6220534,0.04618119,5.435157e-09,0.05269104,0.43589967,-9.777147,-0.0066828355,-0.0009976294,0.00097093335,2.9852467,2.2467945,32.39163,0.0016303998,0.007939872,0.00017372175,22.320713,22.320713
342980804,3407882,3407882,0,0,0,0,0,0,0,0,800.0003,800.0003,6410.9243,6410.9243,2.6733706,0.051285915,7.36501e-09,0.023969857,0.41898915,-9.767689,-0.002583577,-0.004690373,0.00028573466,2.3648968,3.0609581,35.810226,0.0017751807,0.011886273,0.00019085011,22.293142,22.293142
343920804,3407882,3407882,0,0,0,0,0,0,0,0,800.00024,800.00024,6410.984,6410.984,2.8586373,0.05728318,4.999889e-09,0.035257753,0.4783051,-9.968103,-0.000836667,0.0017877442,-0.00021747954,1.7447522,2.3030798,25.133362,0.0014766195,0.007450112,0.0001276192,22.291885,22.291885
344970801,3407882,3407882,0,0,0,0,0,0,0,0,800.00024,800.00024,6410.9927,6410.9927,5.0597706,0.07019849,9.3921635e-09,0.047202356,0.33031967,-9.859124,-0.006899408,-0.0043690046,0.0013445888,31.71629,21.700657,66.659355,0.01026231,0.017836872,0.0018587656,22.260208,22.260208
345905804,3407882,3407882,0,0,0,0,0,0,0,0,800.00024,800.00024,6410.955,6410.955,3.4860759,0.071523175,1.8203691e-08,-0.17294231,0.46292672,-9.740699,0.042851284,0.073374994,-0.017590508,12.324536,6.9877353,29.533985,0.0050765662,0.008530112,0.002252702,22.22524,22.22524
346955806,3407882,3407882,0,0,0,0,0,0,0,0,800.00024,800.00024,6410.887,6410.887,4.813542,0.07824916,2.503905e-08,0.17501996,0.3489736,-9.916773,-0.0055112094,-0.015218198,0.0025409544,21.99249,14.590189,119.946945,0.010406575,0.03514798,0.0020165907,22.227066,22.227066
347900803,3407882,3407882,0,0,0,0,0,0,0,0,800.00024,800.00024,6410.87,6410.87,2.7540016,0.06725571,2.4568232e-08,0.06583383,0.3467442,-9.791535,-0.0021698507,-0.0063050124,0.011369663,3.4354692,4.2626057,17.473915,0.005097621,0.015633384,0.00247671,22.220499,22.220499
348945805,3407882,3407882,0,0,0,0,0,0,0,0,800.00024,800.00024,6410.9385,6410.9385,2.3339972,0.05262323,6.8867796e-09,0.09784375,0.37333184,-9.823271,-0.0034481403,0.010157343,-0.00056985614,2.3536594,2.3113322,28.50234,0.0020021542,0.008158152,0.00036156166,22.182924,22.182924
349985804,3407882,3407882,0,0,0,0,0,0,0,0,800.00024,800.00024,6410.9946,6410.9946,1.4617747,0.032619204,6.3658203e-09,0.07243203,0.3614916,-9.59316,-0.0046968646,0.001676298,0.00031989548,1.4614856,3.1857195,13.965043,0.0027472388,0.0035557426,0.000473325,22.171574,22.171574
350925803,3407882,3407882,0,0,0,0,0,0,0,0,800.0002,800.0002,6410.991,6410.991,2.1501756,0.042654533,8.83303e-09,0.102921434,0.34379864,-9.710227,-0.0030026124,-0.0017667471,0.00030040284,2.9460566,1.3178333,41.73584,0.0023360408,0.014405466,0.0001542804,22.153017,22.153017
351970826,3407882,3407882,0,0,0,0,0,0,0,0,800.0002,800.0002,6411.01,6411.01,2.2648697,0.039795183,1.1642707e-09,0.12762202,0.34042132,-9.697696,-0.005145347,-0.00038087467,0.0010339378,2.3629634,4.739111,5.639393,0.0016741198,0.0010795313,0.00014454949,22.125248,22.125248
352915810,3407882,3407882,0,0,0,0,0,0,0,0,800.0,800.0,6411.0327,6411.0327,1.9521391,0.0374998,2.987908e-09,0.050357997,0.3717568,-9.753529,-0.00071822637,0.0075734453,-0.0017254855,2.7877927,1.7031167,15.012602,0.001398592,0.004446566,0.0002902433,22.145561,22.145561
353965803,3407882,3407882,0,0,0,0,0,0,0,0,800.0002,800.0002,6411.0283,6411.0283,1.8302907,0.03338029,3.0378717e-09,0.09595107,0.33147442,-9.658945,-0.004553919,0.0045356443,-0.00072058185,2.6209807,4.309949,7.347711,0.0023571064,0.001969892,0.00018454972,22.11444,22.11444
354905802,3407882,3407882,0,0,0,0,0,0,0,0,800.0002,800.0002,6411.046,6411.046,0.4938167,0.01184013,6.4372674e-11,-0.0010218167,0.39692008,-9.7028,-0.0031231893,0.0019672755,-0.00025158678,0.0006680228,0.0027979587,0.0011576554,3.882603e-06,3.222547e-05,0.00013594,22.137444,22.137444
355950809,3407882,3407882,0,0,0,0,0,0,0,0,800.0002,800.0002,6411.041,6411.041,0.081310324,0.0026924466,8.216214e-12,0.00027926982,0.394739,-9.700685,-0.0030100706,0.000702685,-4.2775537e-05,0.00038599523,0.0003184369,0.000543107,1.5947193e-06,1.3730688e-06,1.224151e-06,22.099348,22.099348
357000804,3407882,3407882,0,0,0,0,0,0,0,0,800.0002,800.0002,6410.9946,6410.9946,0.027590908,0.0014839942,8.362565e-12,-0.0053196703,0.40345967,-9.705587,-0.0027722646,0.00093070685,0.00012586254,0.00037270554,0.00031233716,0.0003968746,2.063116e-06,1.6050172e-06,1.2751883e-06,22.101503,22.101503
357945804,3407882,3407882,0,0,0,0,0,0,0,0,800.00006,800.00006,6410.9775,6410.9775,0.022810243,0.0014209601,9.901458e-12,-0.0074541415,0.40138707,-9.707492,-0.002873368,0.00055890344,0.00016065103,0.00032623336,0.00042960132,0.00046611408,2.430193e-06,1.8734471e-06,1.7487506e-06,22.045807,22.045807
358995805,3407882,3407882,0,0,0,0,0,0,0,0,800.0002,800.0002,6410.9775,6410.9775,0.020612568,0.0012915117,7.340662e-12,-0.010384049,0.4032293,-9.701972,-0.002866426,0.00070887664,8.23727e-06,0.00039706612,0.00038838238,0.00042053795,1.4236459e-06,1.5878323e-06,1.1956723e-06,22.067465,22.067465
359930805,3407882,3407882,0,0,0,0,0,0,0,0,800.00006,800.00006,6411.017,6411.017,0.020370709,0.0013020259,7.939651e-12,-0.009282933,0.40380585,-9.703065,-0.0027278166,0.0008331925,-6.140892e-05,0.00037489552,0.00040383887,0.0003265791,1.5880335e-06,1.2459361e-06,1.5377964e-06,22.031277,22.031277
