timestamp,timestamp_sample,hover_thrust,hover_thrust_var,accel_innov,accel_innov_var,accel_innov_test_ratio,accel_noise_var,valid
207552244,207552223,0.6851594,0.0008722914,1.211843,5.044142,0.03234915,4.8118815,0
207562253,207562231,0.68420243,0.00083554094,0.35380936,5.023535,0.002768769,4.790023,0
207652242,207652217,0.6994025,0.00060615706,-4.4821014,4.820515,0.4630495,4.735253,0
207752276,207752252,0.6989955,0.00047017334,0.6811837,4.8615327,0.010605051,4.7359624,0
207852254,207852232,0.6981961,0.000383892,1.4664779,4.7288413,0.050530523,4.6329594,0
207952549,207952523,0.7,0.00032370674,-2.0338364,4.5700684,0.10056962,4.4913626,0
208052226,208052200,0.7,0.00027850695,-0.70964324,4.412193,0.012681866,4.329786,0
208152290,208152267,0.7,0.00024349801,-1.3510215,4.32202,0.046924025,4.252125,0
208252316,208252293,0.7,0.0002160239,-4.055911,4.271967,0.42786473,4.2701006,0
208352272,208352249,0.6998619,0.0001938929,0.19641739,4.148382,0.0010333289,4.0864515,0
208452544,208452518,0.69900435,0.00017517078,1.2206079,4.010417,0.041278154,3.9627275,0
208552332,208552309,0.6979632,0.00015977677,2.1761377,4.1168733,0.12780938,4.0910354,0
208652283,208652260,0.6982265,0.00014717935,3.311201,4.2872233,0.28415316,4.297533,0
208752275,208752254,0.6984506,0.00013684627,2.1687624,4.441094,0.11767697,4.4200706,0
208852286,208852265,0.7,0.0001279507,-1.6693412,4.301309,0.07198584,4.259865,0
208952485,208952462,0.69981366,0.00012001718,0.44783425,4.305287,0.0051759495,4.2608037,0
209052307,209052286,0.7,0.0001130992,-2.1951082,4.2996407,0.12451945,4.269933,0
209152223,209152201,0.6990099,0.00010687885,2.3023367,4.132574,0.14251956,4.1237535,0
209252266,209252245,0.7,0.0001012504,-1.7220422,4.0811095,0.08073593,4.048486,0
209352238,209352217,0.7,9.607881e-05,-0.3369681,3.9318912,0.003208733,3.892442,0
209452426,209452387,0.7,9.1286034e-05,-3.1536584,3.7927415,0.29136243,3.792942,0
209552270,209552249,0.7,8.68932e-05,-1.5457915,3.6932702,0.071886644,3.6643946,1
209652243,209652222,0.6986231,8.283893e-05,0.49053264,3.6105998,0.0074048103,3.578662,1
209752258,209752235,0.6997966,7.903861e-05,-2.552088,3.4699516,0.20855728,3.4616942,1
209852288,209852267,0.6986001,7.5520766e-05,0.31821293,3.4256842,0.0032843226,3.3947418,1
209952432,209952393,0.6992366,7.2276154e-05,1.5766214,3.459587,0.07983404,3.4439263,1
210052225,210052203,0.6982932,6.936665e-05,-0.06516302,3.5482903,0.00013296603,3.516851,1
210152282,210152261,0.6990313,6.670038e-05,-0.35604545,3.5042603,0.0040194998,3.473867,1
210252268,210252247,0.6995534,6.425086e-05,-3.1100783,3.4619849,0.31043807,3.4734077,1
210352298,210352275,0.69961965,6.197812e-05,-0.13034192,3.4904273,0.00054081297,3.4612534,1
210452277,210452255,0.6996005,5.987639e-05,-0.48867127,3.524778,0.007527649,3.4961143,1
210552279,210552258,0.6998289,5.7907004e-05,-1.4683796,3.5437605,0.067603596,3.5221846,1
210652275,210652254,0.7,5.602369e-05,-1.6201757,3.4018905,0.08573564,3.3832967,1
210752267,210752244,0.699334,5.4206364e-05,-0.10506675,3.4094281,0.00035975475,3.3816338,1
210852323,210852302,0.69923615,5.2381652e-05,2.7318685,3.3963609,0.24415368,3.4104586,1
210952272,210952250,0.69985497,5.0661612e-05,-2.462809,3.3815374,0.19929884,3.3788412,1
211252236,211252214,0.6998416,4.5994093e-05,0.037419975,3.348521,4.646345e-05,3.3218763,1
211352247,211352225,0.6997732,4.455059e-05,-1.2597456,3.28748,0.053636458,3.266176,1
211452258,211452237,0.6990942,4.321768e-05,1.2485437,3.4990587,0.04950098,3.481757,1
211552232,211552210,0.7,4.1976866e-05,-2.0159428,3.4523144,0.13079874,3.4405942,1
211652265,211652242,0.7,4.0820905e-05,-2.0321095,3.4312096,0.13372248,3.4208848,1
211752252,211752231,0.69967353,3.985179e-05,-0.087307274,3.3212306,0.00025501123,3.2975855,1
211852240,211852217,0.69995844,3.905297e-05,0.028140187,3.1730797,2.772876e-05,3.1520226,1
211952238,211952217,0.7,3.8384947e-05,-0.05507946,3.0352666,0.00011105548,3.0158365,1
212052243,212052222,0.7,3.7826383e-05,-1.3851051,2.924293,0.07289573,2.9110756,1
212152282,212152259,0.7,3.7211863e-05,-1.021481,2.871743,0.040371284,2.854062,1
212252267,212252243,0.7,3.646379e-05,-0.5712788,2.7989469,0.012955646,2.7792668,1
212352271,212352248,0.7,3.5579305e-05,-1.6364822,2.7487352,0.108254805,2.7327657,1
212452319,212452296,0.6991894,3.460769e-05,2.5095508,2.804929,0.24947533,2.8306284,1
212552288,212552265,0.6990167,3.3798013e-05,1.8566302,2.8813002,0.13292901,2.8886235,1
212652279,212652256,0.69884676,3.308623e-05,-0.661182,2.9477406,0.016478218,2.9269993,1
212752294,212752272,0.6991671,3.2344906e-05,1.4272982,2.8915129,0.07828198,2.8871326,1
213052261,213052240,0.6995124,3.0403504e-05,1.5598826,3.0811644,0.08774582,3.0782459,1
213152262,213152241,0.69936645,2.9843864e-05,2.7718732,3.0998838,0.27539676,3.1262944,1
213252242,213252221,0.7,2.9283898e-05,-2.0308285,3.1512291,0.14541994,3.1422946,1
213352230,213352208,0.69962096,2.8707562e-05,-1.3209994,3.1212516,0.062120356,3.104408,1
213452275,213452254,0.6996777,2.8174867e-05,-0.56445324,3.1727042,0.0111579355,3.1511607,1
213552234,213552213,0.7,2.7672571e-05,-0.5836743,3.198911,0.011833045,3.177474,1
213652233,213652212,0.69958425,2.718056e-05,1.0783725,3.156262,0.04093757,3.145409,1
213752288,213752267,0.6996859,2.6704034e-05,2.5298653,3.195629,0.22253378,3.2151215,1
213852244,213852222,0.6999755,2.6249772e-05,0.16942427,3.1734984,0.0010050101,3.15372,1
213952264,213952243,0.6998915,2.5802383e-05,0.88360107,3.0483658,0.028457902,3.0354242,1
214052266,214052244,0.6999543,2.5364685e-05,-0.70685446,3.0469127,0.018220382,3.0274413,1
214152234,214152213,0.7,2.4939327e-05,-1.7011695,3.0118885,0.10676128,3.0013974,1
214252305,214252284,0.7,2.452993e-05,-0.14987099,3.0080929,0.0008296624,2.9883082,1
214352275,214352254,0.69977427,2.4131765e-05,0.34816885,2.9358664,0.0045877635,2.9184182,1
214452272,214452251,0.69990945,2.3733119e-05,0.7689562,2.897224,0.022676636,2.8837967,1
214552279,214552258,0.69989014,2.3351733e-05,-1.215179,2.859696,0.057374395,2.8449345,1
214652259,214652238,0.7,2.2978413e-05,-2.3037527,2.8720047,0.20532604,2.8730218,1
214752522,214752500,0.6994773,2.2620683e-05,1.8002515,2.9526482,0.121958524,2.9545243,1
214852268,214852247,0.6999317,2.2280268e-05,-0.51724756,2.9619617,0.010036331,2.9429665,1
214952278,214952256,0.6998747,2.1945974e-05,1.1568238,2.9267485,0.050805002,2.9180858,1
215052327,215052306,0.69996285,2.1618334e-05,0.34807825,2.9485958,0.0045655807,2.9313354,1
215152268,215152247,0.69985765,2.1298778e-05,-0.101668894,2.9044058,0.00039543616,2.8859484,1
215252438,215252416,0.6996874,2.098208e-05,1.4416872,2.8247402,0.08175628,2.8208513,1
215352271,215352249,0.6997044,2.0660886e-05,0.8329457,2.777432,0.027755398,2.765063,1
215452232,215452211,0.69938415,2.03632e-05,-0.9518993,2.6978772,0.03731791,2.6832526,1
215552272,215552249,0.6999184,2.0080312e-05,-0.35481188,2.7313564,0.005121243,2.713957,1
215652236,215652214,0.6995422,1.9793317e-05,0.24252021,2.774567,0.0023553648,2.7577016,1
215752421,215752381,0.6998818,1.9511644e-05,1.147221,2.750055,0.053175338,2.7416317,1
215852227,215852204,0.699952,1.9237314e-05,0.18926084,2.777329,0.0014330181,2.7603714,1
215952246,215952222,0.7,1.8971108e-05,-0.89873505,2.8054245,0.03199059,2.7893856,1
216052261,216052239,0.6999341,1.8713548e-05,-1.0243123,2.7649927,0.042162683,2.750083,1
216152237,216152214,0.6999713,1.8456632e-05,0.1516034,2.718238,0.0009394807,2.702135,1
216252506,216252461,0.69970995,1.8238336e-05,0.4099421,2.867838,0.0065110037,2.8520544,1
216352333,216352308,0.7,1.8009687e-05,-1.6929599,2.903331,0.10968677,2.8945496,1
216452272,216452249,0.6999918,1.7787208e-05,0.09312242,2.9672997,0.00032471668,2.9499063,1
216552283,216552260,0.7,1.7593085e-05,-2.069445,3.069013,0.15504812,3.0630455,1
216652299,216652277,0.69990426,1.7379387e-05,1.1785738,3.3228364,0.04644748,3.317007,1
216752450,216752429,0.69980234,1.718092e-05,2.4612858,3.2887473,0.20466854,3.3135169,1
216852304,216852283,0.69971496,1.7016364e-05,3.357233,3.6907244,0.33931953,3.746504,1
216952266,216952244,0.7,1.6847836e-05,-1.8878646,3.721151,0.10641966,3.7062402,1
217052261,217052240,0.69999397,1.6688951e-05,0.092508435,3.9027383,0.00024364119,3.8820906,1
217152261,217152239,0.69974715,1.6537255e-05,2.228474,3.910569,0.14110182,3.925585,1
217252417,217252379,0.7,1.6387396e-05,-4.584222,3.9680974,0.5884457,4.022159,1
217352255,217352220,0.7,1.6251688e-05,-3.0677075,4.183395,0.24995194,4.187645,1
217452238,217452218,0.7,1.6117268e-05,-1.1471446,4.1405773,0.035312857,4.1172013,1
217552233,217552210,0.7,1.5983785e-05,-0.4977432,4.0942526,0.0067234705,4.070317,1
217652285,217652263,0.6996406,1.5874111e-05,1.9160049,4.458531,0.09148691,4.466236,1
217752462,217752438,0.7,1.5755406e-05,-0.18329269,4.4546175,0.0008379872,4.4297686,1
217852229,217852208,0.7,1.5636451e-05,-5.79455,4.374238,0.85289294,4.474309,1
217952263,217952242,0.7,1.5525473e-05,-2.77883,4.7279096,0.18147312,4.721532,1
218052233,218052207,0.6997933,1.5421014e-05,0.99304855,4.7109737,0.023258824,4.6972804,1
218152244,218152223,0.6997043,1.5331923e-05,1.8806965,5.0646286,0.07759743,5.068979,1
218252416,218252378,0.7,1.5234563e-05,-1.4685466,5.1238484,0.046766695,5.0963106,1
218352273,218352252,0.69995034,1.51374115e-05,1.0792558,5.0751004,0.02550126,5.065674,1
218452269,218452248,0.7,1.5043214e-05,-0.8317686,5.069054,0.015164762,5.040323,1
218552275,218552254,0.69991904,1.4949904e-05,-0.119442046,5.043467,0.0003142988,5.017659,1
218652293,218652272,0.7,1.4860026e-05,-3.506052,5.112996,0.26712757,5.119531,1
218752489,218752445,0.6998311,1.4772994e-05,0.5305488,5.036346,0.0062100147,5.016039,1
218852280,218852258,0.6996533,1.4693237e-05,-1.3591282,5.1245036,0.040052217,5.09821,1
218952309,218952288,0.69967794,1.461726e-05,1.0809182,4.9938993,0.025995811,4.980036,1
219052294,219052274,0.69963425,1.4547892e-05,-0.02729699,5.050453,1.6392934e-05,5.024319,1
219152260,219152239,0.7,1.4478705e-05,-3.6337047,4.9342723,0.2973265,4.95258,1
219252515,219252493,0.7,1.4401842e-05,-3.7659726,4.856,0.32451376,4.8778205,1
219352228,219352207,0.7,1.4320203e-05,-1.7690217,4.8229938,0.07209533,4.8023305,1
219452224,219452203,0.6999334,1.4243934e-05,-0.9562671,4.6773996,0.021722583,4.652347,1
219552238,219552215,0.7,1.4168177e-05,-0.2634473,4.6648865,0.0016531185,4.6399913,1
219652228,219652205,0.69996524,1.4090046e-05,0.78377926,4.7159853,0.014473467,4.700577,1
219752393,219752371,0.6998669,1.4011888e-05,0.61016357,4.798318,0.008621067,4.778991,1
219852227,219852204,0.6996485,1.3946565e-05,-3.0274055,4.9511385,0.20568073,4.952801,1
219952267,219952245,0.7,1.3875634e-05,-3.4769475,4.9175267,0.27315366,4.9298034,1
220052240,220052219,0.6998823,1.3801243e-05,1.3829122,4.850355,0.043809988,4.84359,1
220152232,220152211,0.7,1.3723198e-05,-0.18150043,4.78434,0.0007650517,4.759201,1
220252492,220252448,0.6997907,1.3641509e-05,1.672229,4.6999316,0.066108525,4.7006903,1
220352289,220352265,0.69996417,1.3564534e-05,0.8372998,4.8125424,0.016186202,4.797415,1
220452270,220452247,0.6999151,1.34899765e-05,0.7694963,4.7401953,0.013879516,4.723887,1
220652260,220652236,0.7,1.3348858e-05,-2.2671103,4.7754283,0.119588785,4.761521,1
221052266,221052245,0.69978374,1.3088395e-05,1.4819348,4.944009,0.049355604,4.9357333,1
221152257,221152236,0.7,1.3027423e-05,-1.3133532,4.85719,0.039458036,4.8338885,1
221252511,221252489,0.69996494,1.2962808e-05,0.8527031,4.72837,0.017086051,4.7118344,1
221352231,221352208,0.7,1.289447e-05,-0.23532847,4.610428,0.0013346432,4.5858164,1
221452218,221452196,0.69985795,1.28323545e-05,0.24145913,4.6661186,0.001388318,4.6443458,1
221552270,221552249,0.69991726,1.2764979e-05,1.6708856,4.6420474,0.06682537,4.64193,1
221652255,221652234,0.6999903,1.2699031e-05,-1.3143549,4.6299076,0.041458204,4.606725,1
221752416,221752377,0.6999279,1.2632253e-05,1.2690376,4.524382,0.039550062,4.5168233,1
221852250,221852228,0.7,1.25665465e-05,-1.4466109,4.482042,0.05187822,4.4605627,1
221952226,221952205,0.6998305,1.25012175e-05,2.1793573,4.457792,0.11838443,4.469928,1
222052220,222052198,0.6999435,1.2437739e-05,1.3404014,4.441098,0.044950742,4.4346223,1
222152225,222152203,0.6999449,1.2374418e-05,-1.9644601,4.362331,0.09829362,4.348194,1
222252413,222252374,0.69996184,1.2311197e-05,0.13505733,4.2381625,0.00047820728,4.2166586,1
222352286,222352261,0.7,1.2246304e-05,-0.25365716,4.3234773,0.0016535546,4.300205,1
222452254,222452232,0.6999237,1.2181639e-05,-0.1781061,4.2661753,0.00082618324,4.243395,1
222552305,222552283,0.6999713,1.2116415e-05,0.3904431,4.09616,0.0041351956,4.0781293,1
222652261,222652240,0.6999189,1.2048596e-05,1.3866875,3.9736388,0.0537683,3.969768,1
222752447,222752426,0.6999215,1.19816195e-05,1.7347357,3.9378934,0.084910266,3.9411354,1
222852314,222852292,0.699968,1.1913361e-05,0.6953168,3.8453512,0.013969694,3.831509,1
222952294,222952272,0.6999284,1.1844949e-05,0.080305815,3.7620528,0.00019047,3.7429786,1
223052253,223052231,0.7,1.1776109e-05,-2.9103196,3.694545,0.2547287,3.7010655,1
223152300,223152279,0.7,1.1706446e-05,-0.91877234,3.5926535,0.026107062,3.5733027,1
223252443,223252422,0.6999931,1.1635675e-05,0.078565836,3.4613357,0.00019814413,3.4429379,1
223352224,223352202,0.69990575,1.1564374e-05,1.6942699,3.3688617,0.094675906,3.3722458,1
223452239,223452218,0.7,1.1491685e-05,-0.91603696,3.318135,0.02809891,3.3003848,1
223552232,223552211,0.7,1.1418317e-05,-1.5161108,3.275767,0.0779662,3.2626138,1
223652223,223652201,0.6999798,1.134379e-05,-0.9815135,3.2707307,0.03272693,3.2532556,1
223752416,223752378,0.7,1.1268017e-05,-0.8381653,3.2116365,0.02430471,3.1935701,1
223852256,223852216,0.7,1.11924e-05,-3.3045428,3.126424,0.3880899,3.1457384,1
223952242,223952221,0.7,1.1117091e-05,-1.7739238,3.177398,0.11004131,3.1665118,1
224052261,224052240,0.69994134,1.1042738e-05,1.1450801,3.2313635,0.045086175,3.227446,1
224152285,224152264,0.69992226,1.0972824e-05,0.88476026,3.2504268,0.026758904,3.2421484,1
224252443,224252420,0.699833,1.0905174e-05,3.3667545,3.1745083,0.3967381,3.230136,1
224352226,224352203,0.69999295,1.0837905e-05,0.13896006,3.1750693,0.00067574723,3.1592243,1
224452263,224452240,0.7,1.0769657e-05,-2.9619093,3.1340868,0.31102118,3.1456692,1
224552267,224552243,0.69994766,1.0701979e-05,1.0108583,3.058855,0.037117537,3.052996,1
224652259,224652235,0.69999367,1.0631875e-05,0.118890405,2.949049,0.0005325607,2.9344537,1
224752257,224752234,0.6999963,1.0560904e-05,-1.6377474,2.8843496,0.10332453,2.8744667,1
224852263,224852241,0.69998056,1.049061e-05,0.35833114,2.8176496,0.0050633694,2.8053107,1
224952264,224952239,0.6998911,1.041762e-05,1.9450426,2.7549856,0.15257958,2.768592,1
225052270,225052246,0.7,1.0344914e-05,-2.0709877,2.6935031,0.17692739,2.689482,1
225152293,225152269,0.7,1.0270987e-05,-2.7233207,2.706164,0.3045096,2.7137349,1
225252280,225252256,0.69997114,1.0197635e-05,-1.3537505,2.6961405,0.075525254,2.683432,1
225352312,225352290,0.7,1.0123814e-05,-0.86539805,2.6526854,0.03136921,2.6377532,1
225452275,225452253,0.7,1.0050685e-05,-1.6257849,2.645455,0.111015424,2.6352386,1
225552261,225552239,0.6999181,9.978141e-06,-0.24804193,2.6213892,0.0026078115,2.6069171,1
225652222,225652201,0.6999221,9.9066465e-06,1.389607,2.6329188,0.081489936,2.6371603,1
225752233,225752212,0.6999472,9.836509e-06,-0.5297382,2.596183,0.012010047,2.5810916,1
225852229,225852208,0.7,9.765005e-06,-2.4885802,2.5651453,0.2682556,2.567716,1
225952221,225952200,0.7,9.696142e-06,-1.8354799,2.5343711,0.14770205,2.5271347,1
226052246,226052223,0.7,9.648315e-06,-0.83569527,2.9427993,0.026368942,2.9266388,1
226152228,226152205,0.69989234,9.585698e-06,1.5255411,2.8707297,0.09007681,2.8745396,1
226252221,226252199,0.7,9.526553e-06,-0.74539363,2.8587403,0.021595046,2.8429792,1
226352220,226352199,0.699983,9.469521e-06,-1.6745057,2.8416886,0.10963628,2.833017,1
226452285,226452264,0.6999861,9.413295e-06,0.14751256,2.753822,0.0008779698,2.7402792,1
226552319,226552278,0.7,9.3722465e-06,-1.2409654,2.9477236,0.058048375,2.9344928,1
226652289,226652267,0.7,9.315824e-06,-1.5307822,2.9076557,0.089545,2.8965297,1
226752305,226752283,0.7,9.262163e-06,-2.4667199,2.9439979,0.2296464,2.9462159,1
226852289,226852266,0.7,9.2084265e-06,-2.1530986,2.906149,0.17724234,2.9011927,1
226952265,226952242,0.7,9.152532e-06,-0.4412209,2.8180606,0.007675724,2.8024476,1
227052257,227052234,0.7,9.112838e-06,-2.113196,3.0960715,0.16026032,3.0904653,1
227152267,227152246,0.7,9.060311e-06,-0.51235527,3.0960715,0.009420824,3.0789194,1
227252252,227252231,0.69994193,9.016493e-06,0.04640758,3.1151009,7.681804e-05,3.0998926,1
227352256,227352235,0.7,8.9684545e-06,-0.62435293,3.0162978,0.014359641,2.9995694,1
227452222,227452198,0.7,8.92032e-06,-2.1855035,2.8909054,0.18358053,2.8872898,1
227552221,227552197,0.6999898,8.8884135e-06,0.25174356,3.3355618,0.0021110827,3.3204036,1
227652228,227652205,0.6999138,8.845775e-06,2.0452445,3.198107,0.1453299,3.2120624,1
227752253,227752211,0.69986683,8.804956e-06,1.4411597,3.1569443,0.07309956,3.1569157,1
227852230,227852208,0.6999329,8.7654125e-06,0.021130234,3.1739275,1.5630363e-05,3.1572742,1
227952258,227952235,0.69997346,8.725942e-06,-0.30913675,3.0829394,0.003444243,3.0660737,1
228052261,228052240,0.699969,8.697043e-06,0.795395,3.3296762,0.021111604,3.3183327,1
228152254,228152231,0.6999761,8.656776e-06,-0.58509314,3.2360373,0.011754224,3.2185993,1
228252221,228252200,0.7,8.617865e-06,-3.7914712,3.2042978,0.49847132,3.244166,1
228352227,228352206,0.7,8.581063e-06,-1.071499,3.202221,0.039837282,3.1871884,1
228452264,228452242,0.7,8.544206e-06,-1.4632863,3.17162,0.07501273,3.1600418,1
228552260,228552239,0.7,8.521927e-06,-1.6346209,3.9088945,0.075951725,3.8961196,1
228652259,228652237,0.6999571,8.4914645e-06,0.5237539,3.774796,0.008074554,3.7582712,1
228752254,228752233,0.6998614,8.4621115e-06,0.49466002,3.8097413,0.007136342,3.7924852,1
228852257,228852236,0.7,8.433646e-06,-3.3720896,3.7220638,0.33944696,3.7472982,1
228952272,228952251,0.7,8.404728e-06,-0.47700274,3.6567316,0.0069136303,3.6371582,1
229052463,229052441,0.7,8.38323e-06,-0.7550194,3.8289254,0.016542338,3.8086894,1
229152258,229152235,0.6999778,8.351661e-06,0.6433728,3.7051103,0.012413141,3.690348,1
229252283,229252261,0.6998661,8.320999e-06,-0.7808501,3.717652,0.018223178,3.698456,1
229352299,229352277,0.69995993,8.2916e-06,1.1892027,3.652281,0.04302343,3.6450045,1
229452331,229452307,0.7,8.26287e-06,-1.0232705,3.5677893,0.03260913,3.550403,1
229552391,229552370,0.7,8.243053e-06,-1.2437446,3.869334,0.044420525,3.8518004,1
229652221,229652200,0.6999352,8.214564e-06,1.9622111,3.823832,0.1118794,3.830398,1
229752232,229752210,0.6999842,8.187717e-06,0.12094164,3.727169,0.0004360438,3.7086039,1
229852218,229852197,0.6998978,8.161392e-06,-0.96405333,3.6954045,0.027944583,3.6775095,1
229952224,229952203,0.7,8.135704e-06,-3.437694,3.633706,0.3613617,3.6593177,1
230052386,230052365,0.7,8.118569e-06,-0.84171015,3.9534209,0.019911755,3.9333024,1
230152223,230152201,0.69994336,8.093057e-06,-3.0551302,3.899839,0.26593181,3.914984,1
230252223,230252202,0.7,8.067286e-06,-2.475362,3.8023663,0.17905276,3.8034477,1
230352282,230352260,0.7,8.042025e-06,-4.315198,3.7095323,0.5577502,3.764568,1
230452221,230452200,0.6999102,8.016909e-06,2.2139766,3.6482425,0.14928626,3.6605306,1
230552498,230552455,0.7,7.991348e-06,-1.4949192,3.5468884,0.07000764,3.534073,1
230652305,230652285,0.6997766,7.966558e-06,1.8029602,3.499411,0.103213094,3.5013015,1
230752329,230752287,0.6996636,7.942638e-06,-0.17034301,3.4770749,0.0009272399,3.458697,1
230852262,230852239,0.69973797,7.9197225e-06,-0.28245345,3.4231374,0.0025895657,3.4049842,1
230952264,230952243,0.6998445,7.904095e-06,-0.02520442,3.6219604,1.9487998e-05,3.6027493,1
231052432,231052393,0.6999116,7.880121e-06,2.6803246,3.5436423,0.22525913,3.563693,1
231152253,231152232,0.6998829,7.856624e-06,1.5167503,3.5194318,0.07262951,3.5137093,1
231252264,231252242,0.6999414,7.8338235e-06,0.7426483,3.475357,0.017632928,3.4605498,1
231352260,231352238,0.6999118,7.81016e-06,1.1130139,3.3512452,0.041072622,3.3406706,1
231452270,231452247,0.69994706,7.785724e-06,1.0241284,3.3202503,0.035099063,3.3091614,1
231552446,231552424,0.69992954,7.761069e-06,-0.7035729,3.2343178,0.017005643,3.2181733,1
231652288,231652265,0.7,7.735015e-06,-2.169355,3.0959516,0.16889803,3.09906,1
231752227,231752204,0.6999273,7.707775e-06,2.0203538,3.0750337,0.14748996,3.0817127,1
231852266,231852243,0.6999703,7.6809e-06,0.35582364,3.0419106,0.0046246685,3.0267594,1
231952278,231952257,0.69997144,7.653243e-06,-0.47967604,2.937855,0.008702083,2.9223526,1
232052419,232052379,0.7,7.6250953e-06,-1.9816325,2.9129386,0.1497864,2.9122858,1
232152229,232152206,0.69995344,7.5962057e-06,1.2091252,2.84734,0.05705066,2.8418102,1
232252233,232252210,0.7,7.566664e-06,-2.8885145,2.8188279,0.32888043,2.8373606,1
232352220,232352198,0.6999288,7.5376224e-06,0.29033226,2.8403883,0.0032973902,2.826376,1
232452227,232452204,0.7,7.5086436e-06,-1.7373849,2.81963,0.11894809,2.8144581,1
232552443,232552422,0.6998958,7.479267e-06,0.6290585,2.7698374,0.015873961,2.7584977,1
232652253,232652231,0.6998931,7.448937e-06,1.4762294,2.8769336,0.084165744,2.87674,1
232752261,232752240,0.7,7.4205714e-06,-2.7154737,2.824819,0.29004008,2.8365083,1
232852257,232852236,0.699977,7.391863e-06,0.59268385,2.7577713,0.014152901,2.7470503,1
232952325,232952303,0.7,7.367505e-06,-0.6355231,2.8465347,0.015765352,2.8311036,1
233052456,233052435,0.7,7.337828e-06,-2.0025358,2.7967646,0.159317,2.7942443,1
233152286,233152265,0.7,7.3076585e-06,-0.18100142,2.7305512,0.0013331258,2.7158182,1
233252300,233252279,0.6999974,7.2767093e-06,0.063538074,2.6895869,0.00016677848,2.675652,1
233352262,233352241,0.7,7.2455996e-06,-1.0269568,2.5888102,0.045264907,2.576557,1
233452259,233452239,0.6999912,7.2138187e-06,-0.54941213,2.5153947,0.013333613,2.5016623,1
233552412,233552374,0.7,7.19357e-06,-2.061111,2.9479105,0.16012013,2.9453158,1
233652237,233652216,0.6999427,7.16532e-06,-1.3568438,2.8725312,0.07121188,2.8612294,1
233752219,233752197,0.69991475,7.1384256e-06,0.6731024,2.87259,0.01752452,2.862156,1
233852219,233852196,0.6999788,7.1125364e-06,-2.7131274,2.8344712,0.28855315,2.8458927,1
234152220,234152199,0.6999928,7.0360634e-06,0.19891578,2.8106387,0.0015641953,2.7970197,1
234252292,234252269,0.7,7.010997e-06,-2.4856534,2.748355,0.2497847,2.7551947,1
234352219,234352196,0.7,6.9848697e-06,-1.7328527,2.6792715,0.12452716,2.6733155,1
234752261,234752240,0.7,6.871758e-06,-1.2250726,2.4828334,0.067163534,2.4720435,1
234852260,234852239,0.7,6.852045e-06,-1.7238318,2.7143424,0.12164174,2.7076333,1
234952304,234952281,0.6998924,6.823942e-06,0.87541187,2.7542977,0.030915158,2.7475433,1
235052448,235052427,0.6999475,6.798431e-06,1.3870218,2.7428627,0.077932745,2.7442222,1
235152257,235152236,0.7,6.78242e-06,-1.1683037,3.2163575,0.047152497,3.2016146,1
235252267,235252244,0.6999619,6.7604587e-06,-0.21738786,3.0992873,0.001694206,3.0828805,1
235352252,235352231,0.7,6.7434726e-06,-0.60723543,3.2563086,0.012581897,3.2394252,1
235452256,235452236,0.69997257,6.7227897e-06,0.8294852,3.1722238,0.024099661,3.1627758,1
235552499,235552454,0.69996274,6.703169e-06,-0.2864592,3.1353333,0.002908033,3.1184087,1
235652220,235652197,0.69996214,6.6839093e-06,0.46211588,3.0858493,0.0076892604,3.0728323,1
235752270,235752246,0.69993186,6.664435e-06,1.246266,2.971048,0.058085706,2.9678302,1
235852272,235852250,0.7,6.653774e-06,-1.7495418,3.5074427,0.09696512,3.4981642,1
235952225,235952201,0.6999592,6.637849e-06,-0.6020201,3.4966395,0.0115167145,3.478001,1
236052417,236052376,0.6999622,6.6224056e-06,0.62821305,3.4390318,0.012750734,3.425548,1
236152221,236152198,0.6999956,6.6071175e-06,-0.4243142,3.3599072,0.005953952,3.34216,1
236252241,236252218,0.69997555,6.5914805e-06,0.82628906,3.2666423,0.023223085,3.2567663,1
236352229,236352205,0.7,6.5822915e-06,-0.6005392,3.601116,0.011127642,3.5826821,1
236452226,236452203,0.7,6.5671247e-06,-1.1812038,3.4698567,0.0446782,3.4543564,1
236552389,236552367,0.69992775,6.5516065e-06,2.5462186,3.4027565,0.2116986,3.426509,1
236652288,236652265,0.69997156,6.5371896e-06,-1.6432756,3.3593476,0.08931479,3.3492815,1
236752267,236752245,0.69995105,6.5221298e-06,1.6792276,3.2714434,0.09577171,3.2748387,1
236852310,236852289,0.6999252,6.5130093e-06,0.2608813,3.4378128,0.0021996885,3.4212127,1
236952254,236952233,0.6999604,6.498219e-06,-0.6989794,3.4261234,0.015844671,3.4085557,1
237052442,237052420,0.6999662,6.4838628e-06,-0.94841796,3.3371763,0.02994869,3.3209984,1
237152305,237152284,0.69996,6.4690894e-06,1.379269,3.2783284,0.06447673,3.2758508,1
237252256,237252234,0.7,6.454252e-06,-0.7831795,3.2419226,0.021022169,3.2252095,1
237352259,237352238,0.6999168,6.440986e-06,1.8616459,3.1216,0.12336002,3.1284745,1
237452263,237452240,0.7,6.4275036e-06,-1.9337114,3.1717112,0.13099273,3.166833,1
237552446,237552424,0.7,6.412473e-06,-2.5311267,3.1366386,0.22694509,3.1425228,1
237752224,237752204,0.699893,6.3816124e-06,-0.9496941,3.0610254,0.032738443,3.046503,1
237852242,237852220,0.69995296,6.3684397e-06,1.5115396,2.987185,0.08498346,2.987203,1
237952262,237952239,0.6999881,6.3527464e-06,0.38675445,3.016566,0.0055095395,3.002995,1
238052390,238052369,0.69999737,6.3373354e-06,-1.0008106,2.97013,0.037470188,2.9563828,1
238152284,238152263,0.69986516,6.3216617e-06,3.159039,2.9627018,0.37426528,3.005429,1
238252218,238252202,0.69985443,6.306413e-06,2.6865337,2.9326742,0.27345023,2.9599898,1
238352222,238352201,0.6998864,6.294543e-06,0.4563871,3.0226243,0.007656672,3.0091474,1
238452282,238452259,0.69995725,6.279599e-06,0.7348598,2.9405658,0.020404954,2.9297879,1
238552416,238552376,0.6999186,6.264679e-06,-0.6781297,2.88028,0.017739782,2.8658166,1
238652258,238652237,0.7,6.249853e-06,-0.09090204,2.8489902,0.00032226546,2.8339481,1
238752263,238752242,0.69998336,6.2376794e-06,-1.1041455,2.875457,0.047108926,2.8638253,1
238852256,238852235,0.7,6.224344e-06,-1.0525525,2.8752766,0.042811982,2.8630571,1
238952253,238952232,0.7,6.2064796e-06,-1.1590147,2.8160338,0.05300264,2.8044567,1
239052270,239052246,0.69999486,6.1894857e-06,0.15579492,2.7977943,0.00096393615,2.7839653,1
239152333,239152309,0.69998485,6.1721084e-06,0.44724673,2.6824443,0.008285546,2.6707153,1
239252287,239252267,0.69976187,6.1668225e-06,0.101992846,2.762809,0.00041835604,2.7491271,1
239352260,239352238,0.6999942,6.1637106e-06,-1.2442229,2.671666,0.064383075,2.6626832,1
239452317,239452296,0.7,6.1553537e-06,-1.1802952,2.6868463,0.057609748,2.6753018,1
239552253,239552232,0.6999837,6.1421547e-06,0.4920728,2.5858374,0.01040435,2.57604,1
239652221,239652198,0.7,6.124913e-06,-1.2301838,2.5517952,0.06589488,2.5410523,1
239752280,239752259,0.7,6.1052233e-06,-1.2592936,2.4727814,0.071256705,2.4623551,1
239852225,239852204,0.7,6.0840684e-06,-0.846958,2.4875007,0.03204188,2.4749544,1
239952229,239952208,0.6999831,6.063114e-06,-0.22259003,2.5137763,0.0021899906,2.5003767,1
240052212,240052191,0.7,6.0421985e-06,-0.23707443,2.523512,0.0024746945,2.5100515,1
240152217,240152195,0.69993883,6.021855e-06,-1.0200222,2.4937046,0.04635875,2.481847,1
240252227,240252206,0.7,6.001583e-06,-2.2862816,2.4570317,0.23637752,2.4598382,1
240352224,240352202,0.6999935,5.980907e-06,-1.3363618,2.403495,0.0825586,2.3943796,1
240452252,240452231,0.6999316,5.9597073e-06,0.1638909,2.3761523,0.0012560094,2.3649557,1
240552254,240552233,0.6999725,5.938135e-06,0.7108189,2.3256166,0.024140002,2.3196306,1
240652259,240652236,0.6999651,5.916159e-06,0.8849139,2.2757914,0.038232006,2.2717702,1
240752318,240752295,0.6999505,5.8938576e-06,0.763587,2.2528121,0.028757397,2.2474577,1
240852267,240852246,0.6999961,5.871641e-06,-1.0505387,2.249676,0.054508172,2.2394843,1
240952259,240952238,0.7,5.849437e-06,-1.545908,2.2169209,0.11977732,2.2109773,1
241052306,241052285,0.7,5.8271285e-06,-0.5225878,2.169855,0.0139844455,2.1579626,1
241152266,241152243,0.7,5.8041283e-06,-0.17847306,2.0960798,0.0016884764,2.0849571,1
241252258,241252237,0.6999614,5.7804173e-06,0.7374989,2.0427072,0.029585171,2.0378704,1
241352255,241352233,0.7,5.7564594e-06,-3.5409942,2.016141,0.69101435,2.0504887,1
241452259,241452238,0.6999541,5.732414e-06,1.0542041,1.9858464,0.062181503,1.9856644,1
241552262,241552241,0.6999913,5.7074335e-06,0.1950196,1.9221537,0.0021984973,1.9135634,1
241652225,241652204,0.6999726,5.6823856e-06,0.6224334,1.9357866,0.022237493,1.9308312,1
241752227,241752203,0.7,5.658514e-06,-2.1887455,1.9375066,0.27472922,1.9414424,1
241852254,241852231,0.6999546,5.6348586e-06,1.0282612,1.8934755,0.062044702,1.8937448,1
241952223,241952198,0.6999735,5.611147e-06,-1.170585,1.8866038,0.0807017,1.8785876,1
242052294,242052272,0.7,5.5878063e-06,-0.6365994,1.8479278,0.024367165,1.8377309,1
242152223,242152199,0.7,5.563201e-06,-2.7476907,1.8033398,0.46517417,1.8181071,1
242252221,242252200,0.7,5.5387145e-06,-1.1032238,1.7995237,0.075149685,1.7912496,1
242552227,242552204,0.6999159,5.4610414e-06,1.730346,1.672641,0.19889353,1.6879281,1
242652266,242652243,0.699973,5.4356287e-06,0.5732658,1.7126113,0.021321155,1.7088526,1
242752270,242752249,0.7,5.411227e-06,-2.021284,1.7325126,0.26202083,1.7339158,1
242852254,242852233,0.7,5.3866092e-06,-0.34627512,1.7055922,0.0078113284,1.6964179,1
242952287,242952266,0.7,5.3621134e-06,-0.8805157,1.6608595,0.051867917,1.6522337,1
243052249,243052228,0.7,5.337576e-06,-1.0130353,1.6399108,0.06953227,1.6321234,1
243152285,243152263,0.7,5.308148e-06,-2.9149346,1.6620524,0.5680289,1.6785882,1
243252266,243252245,0.6999956,5.2872074e-06,-3.1574514,1.8782611,0.5897594,1.899256,1
243352567,243352546,0.69978446,5.268387e-06,1.7118313,1.9874932,0.16382259,2.0016606,1
243452256,243452234,0.699903,5.2525997e-06,-1.2170811,2.0689414,0.07955149,2.0601745,1
243552257,243552236,0.7,5.2408323e-06,-1.190033,2.2016711,0.07146987,2.191476,1
243652266,243652245,0.6999891,5.2266228e-06,0.318713,2.26529,0.004982339,2.2573788,1
243752218,243752196,0.7,5.213207e-06,-2.3605785,2.3028498,0.26886162,2.3053162,1
243852413,243852374,0.69983405,5.2006976e-06,4.4915867,2.3193069,0.96649325,2.433091,1
243952231,243952210,0.7,5.19031e-06,-0.8660917,2.590168,0.032177873,2.5765126,1
244052223,244052201,0.6998644,5.1814864e-06,-0.65594876,2.701048,0.017699664,2.6869369,1
244152223,244152202,0.6999265,5.174127e-06,0.83013105,2.7931051,0.027413437,2.787256,1
244252248,244252226,0.6999979,5.167284e-06,-0.39057446,2.7536662,0.006155366,2.7389584,1
244352414,244352374,0.7,5.1601346e-06,-0.8447922,2.6924083,0.029452106,2.67853,1
244452258,244452237,0.69989973,5.1527513e-06,-0.87901205,2.7016795,0.03177703,2.688283,1
244552219,244552198,0.7,5.145153e-06,-1.1754029,2.6188798,0.058615897,2.6075418,1
244652301,244652279,0.69999224,5.1367733e-06,0.2677139,2.582081,0.0030841073,2.571034,1
244752254,244752234,0.6999343,5.128177e-06,1.4578618,2.5382023,0.09303877,2.5421247,1
244852445,244852424,0.69996977,5.1198e-06,1.0486753,2.5711977,0.047523025,2.568816,1
244952312,244952291,0.7,5.111641e-06,-2.8028207,2.6260846,0.33238345,2.6387217,1
245052259,245052239,0.7,5.103677e-06,-1.8752015,2.6194732,0.14915554,2.6155066,1
245152260,245152240,0.7,5.0957265e-06,-1.1917787,2.6239028,0.060145196,2.6128168,1
245252262,245252239,0.7,5.088058e-06,-4.6292043,2.648179,0.89913076,2.719017,1
245352450,245352429,0.69986695,5.080975e-06,2.1657062,2.7093782,0.19234768,2.7272155,1
245552292,245552271,0.69999975,5.067652e-06,-1.7063458,2.7831075,0.11624161,2.7765405,1
245652274,245652253,0.7,5.0609087e-06,-1.112711,2.7066898,0.05082574,2.6947868,1
245752252,245752231,0.69995016,5.053699e-06,1.812582,2.6793137,0.13624772,2.6892104,1
245852412,245852371,0.7,5.0463464e-06,-2.154659,2.6243415,0.1965596,2.6250288,1
245952252,245952215,0.6999334,5.0388458e-06,0.9581026,2.6431012,0.038589373,2.6379132,1
246052217,246052194,0.69998926,5.031394e-06,-0.4438715,2.6341536,0.008310572,2.6203036,1
246152225,246152201,0.7,5.0239264e-06,-1.1439667,2.6029506,0.055862237,2.5919347,1
246252269,246252246,0.69999266,5.0163712e-06,-0.07990533,2.5568223,0.00027746518,2.5436525,1
246352411,246352371,0.7,5.008267e-06,-0.05010906,2.4667733,0.000113099515,2.4540281,1
246452229,246452207,0.69997567,4.9994674e-06,-0.6767324,2.4059854,0.021149421,2.3937147,1
246552227,246552204,0.69999266,4.9908786e-06,-2.6389613,2.3936598,0.3232668,2.4064517,1
246652229,246652206,0.699968,4.9821306e-06,-1.0516307,2.3810227,0.051608413,2.3710623,1
246752282,246752259,0.69981813,4.9739365e-06,1.8416581,2.4606254,0.1531546,2.4688337,1
246852534,246852495,0.6998682,4.9665173e-06,1.644762,2.4722376,0.121583164,2.4765983,1
246952266,246952243,0.7,4.9583064e-06,-1.5439867,2.4727097,0.10712022,2.4673107,1
247052284,247052263,0.7,4.948686e-06,-1.4754785,2.3865616,0.101356275,2.380363,1
247152255,247152234,0.7,4.9375035e-06,-2.1089172,2.2980857,0.21503557,2.3009546,1
247252285,247252264,0.69999856,4.9255495e-06,0.04334092,2.264502,9.216819e-05,2.2531147,1
247352450,247352429,0.7,4.912939e-06,-0.99866694,2.173647,0.050981175,2.1638231,1
247452261,247452240,0.69999075,4.899696e-06,0.26352882,2.1280892,0.0036259675,2.1182637,1
247652253,247652232,0.6999978,4.872577e-06,-0.23343092,2.042854,0.0029637183,2.0320718,1
247752225,247752204,0.7,4.8587262e-06,-0.19210082,1.9830809,0.0020676428,1.972393,1
247852418,247852380,0.7,4.8446045e-06,-1.6640071,1.9713775,0.1560623,1.9692907,1
247952228,247952207,0.6999859,4.830523e-06,0.37827456,1.9473866,0.008164312,1.9395188,1
248052226,248052203,0.6999525,4.816023e-06,1.2391808,1.88509,0.090509616,1.887549,1
248152256,248152234,0.7,4.8011825e-06,-0.9133816,1.8551701,0.04996642,1.8465047,1
248252228,248252207,0.7,4.7862013e-06,-1.1399174,1.8123806,0.07966267,1.8052473,1
248352454,248352433,0.6999977,4.771115e-06,0.05761987,1.796165,0.00020537889,1.7871603,1
248452225,248452203,0.7,4.7556264e-06,-0.24416378,1.7522638,0.0037802495,1.7427876,1
248552252,248552214,0.7,4.739399e-06,-0.7461555,1.7091862,0.036193185,1.7003098,1
248652231,248652210,0.7,4.722999e-06,-2.8840837,1.6987735,0.54404867,1.7176197,1
248752275,248752252,0.7,4.706478e-06,-0.2800322,1.6622095,0.0052418867,1.6532612,1
248852561,248852537,0.69996035,4.6895707e-06,0.93143165,1.638833,0.058819965,1.6391797,1
248952259,248952238,0.6999427,4.673217e-06,0.37321442,1.660215,0.009322019,1.6543897,1
249152266,249152245,0.7,4.640112e-06,-1.4059098,1.559983,0.14078374,1.555847,1
249252269,249252246,0.7,4.623082e-06,-0.5964376,1.5684502,0.02520094,1.5599382,1
249352453,249352432,0.7,4.6060463e-06,-1.1176457,1.5403794,0.09010277,1.5336062,1
249452284,249452263,0.7,4.5886272e-06,-0.44471258,1.5434636,0.014237048,1.5349472,1
249552262,249552240,0.7,4.571209e-06,-0.3855126,1.5069116,0.010958393,1.4986815,1
249652262,249652241,0.6999802,4.5536744e-06,0.4486878,1.528376,0.014635778,1.5247054,1
249752228,249752207,0.7,4.536498e-06,-1.3983128,1.527827,0.1421975,1.5228282,1
249852450,249852427,0.7,4.5195184e-06,-2.6730554,1.4995344,0.5294403,1.512984,1
249952229,249952205,0.699965,4.5023503e-06,-1.8326135,1.5138055,0.24650694,1.5132489,1
250052221,250052199,0.69998866,4.486346e-06,0.25580174,1.4736285,0.0049337423,1.4686532,1
250152268,250152246,0.69997305,4.471738e-06,0.6316089,1.4843748,0.029861417,1.4829302,1
250252223,250252200,0.69998366,4.45801e-06,-1.9857706,1.4997904,0.29213598,1.5017539,1
250352411,250352370,0.6999378,4.4448375e-06,1.3320272,1.4838907,0.13285618,1.4926955,1
250452237,250452214,0.69996417,4.4326725e-06,-0.92457765,1.5496204,0.06129414,1.5420203,1
250552257,250552233,0.7,4.4211574e-06,-0.752069,1.561411,0.04024905,1.5532116,1
250652225,250652202,0.6999657,4.4095937e-06,-0.17880473,1.5494547,0.002292644,1.5416914,1
250752293,250752270,0.7,4.3982977e-06,-1.8996646,1.5677092,0.2557678,1.5685023,1
250852444,250852422,0.7,4.387003e-06,-1.1533881,1.5365684,0.0961959,1.53011,1
250952257,250952235,0.7,4.375313e-06,-0.9896509,1.5595732,0.06977756,1.5521837,1
251052258,251052237,0.6998956,4.3642126e-06,2.677442,1.5899665,0.5009676,1.6294549,1
251152284,251152263,0.7,4.3534187e-06,-0.864272,1.5972122,0.051963184,1.5893689,1
251252256,251252235,0.6998282,4.342573e-06,0.79680854,1.7026879,0.041431475,1.7011651,1
251352465,251352442,0.6999772,4.3331183e-06,0.11857411,1.7150617,0.00091087236,1.7073896,1
251452302,251452281,0.69992846,4.325923e-06,-4.0278373,1.7120391,1.0529013,1.7638755,1
251552260,251552239,0.7,4.3168247e-06,-1.652129,1.7290691,0.1754014,1.7260996,1
251652268,251652248,0.69998646,4.3071113e-06,0.36708713,1.6889293,0.008865114,1.683641,1
251752232,251752210,0.6999592,4.2972038e-06,-0.5102161,1.6678578,0.017342305,1.6588569,1
251852442,251852421,0.6999438,4.287165e-06,1.5127033,1.6688596,0.15235096,1.6789333,1
251952223,251952202,0.7,4.2773327e-06,-1.905996,1.7119762,0.23577824,1.7126919,1
252052245,252052223,0.69990903,4.2680676e-06,0.37685996,1.7132543,0.009210764,1.707169,1
252152222,252152201,0.69993347,4.258977e-06,1.8381557,1.6904635,0.2220835,1.7052759,1
252252231,252252208,0.7,4.250287e-06,-3.093269,1.709818,0.621789,1.7363033,1
252352392,252352371,0.699928,4.2422566e-06,1.7215924,1.7511817,0.1880559,1.7628975,1
252452250,252452211,0.6999684,4.2344013e-06,0.90601754,1.7405375,0.052401934,1.7390686,1
252552224,252552203,0.6999884,4.2259576e-06,-2.6779537,1.7395561,0.45806298,1.7561009,1
252652221,252652200,0.69996023,4.2179477e-06,-0.2780212,1.7992226,0.0047734063,1.7897902,1
252752267,252752244,0.7,4.210481e-06,-2.6644664,1.8229567,0.43271467,1.8390675,1
252852490,252852446,0.7,4.203139e-06,-1.3087051,1.8163334,0.10477207,1.8108784,1
252952256,252952235,0.7,4.1954086e-06,-1.1058375,1.7799418,0.07633686,1.7730687,1
253052276,253052255,0.69981843,4.1942103e-06,-0.29140663,1.8335251,0.005145997,1.8240733,1
253152287,253152266,0.7,4.194373e-06,-1.2062457,1.7763016,0.09101486,1.7707627,1
253252258,253252238,0.7,4.192236e-06,-1.2350779,1.8327899,0.09247694,1.8258152,1
253352290,253352269,0.7,4.187554e-06,-0.70467365,1.772201,0.031132974,1.7628766,1
253452258,253452237,0.6999395,4.18094e-06,-0.5241848,1.777605,0.017174777,1.7682067,1
253552252,253552231,0.69997215,4.1738203e-06,-2.3698213,1.7522947,0.35610786,1.7597998,1
253652254,253652233,0.69990283,4.166641e-06,-0.1646194,1.7734733,0.0016978326,1.7645727,1
253752292,253752271,0.69998974,4.159383e-06,0.24788356,1.7672137,0.0038633482,1.7602743,1
253852220,253852199,0.69995284,4.152142e-06,0.45195538,1.8183799,0.012481419,1.8125143,1
253952226,253952203,0.6999393,4.145179e-06,-0.47015518,1.8124977,0.013550724,1.802822,1
254052270,254052248,0.69993776,4.138998e-06,1.9662075,1.8971235,0.22642303,1.9150718,1
254152227,254152204,0.7,4.133468e-06,-1.7952275,1.9775051,0.1810835,1.9758928,1
254252228,254252205,0.6999627,4.1289095e-06,-2.9377825,2.0266795,0.47316402,2.0478928,1
254352245,254352224,0.6999714,4.124638e-06,0.9753884,2.0324237,0.052011386,2.0304978,1
254452257,254452235,0.6999768,4.1203407e-06,0.7991519,2.0586867,0.034468777,2.0544527,1
254552228,254552203,0.7,4.1159465e-06,-1.8751757,2.0251322,0.19292481,2.0253375,1
254652261,254652237,0.6999114,4.1116323e-06,1.1004491,2.1117332,0.06371745,2.110854,1
254752229,254752206,0.69997597,4.10784e-06,0.84378195,2.090716,0.037837546,2.0865557,1
254852265,254852242,0.69995487,4.1031462e-06,0.80981374,2.0525985,0.035499625,2.0480022,1
254952260,254952237,0.69999695,4.0996183e-06,-0.41962376,2.1481977,0.009107589,2.1365848,1
255052287,255052264,0.6999671,4.0947784e-06,-0.8131792,2.185656,0.033616167,2.1748602,1
255152257,255152236,0.6998991,4.0905393e-06,1.2460666,2.2724876,0.0759169,2.2724247,1
255252263,255252242,0.6999392,4.0865402e-06,-3.361907,2.2984855,0.5463703,2.332598,1
255352303,255352283,0.6998873,4.0828786e-06,0.8561115,2.2944357,0.035492968,2.288505,1
255452258,255452237,0.69998777,4.0818104e-06,0.5296962,2.6908388,0.011585736,2.680194,1
255552264,255552243,0.69991577,4.081095e-06,1.0780082,2.952063,0.043739717,2.9457324,1
255652260,255652239,0.6999465,4.0814743e-06,-3.6961012,3.0065384,0.5048687,3.0470614,1
255752285,255752263,0.69991213,4.0818586e-06,3.097525,2.9560363,0.36064288,2.9953885,1
255852231,255852210,0.6999701,4.082206e-06,-2.0782442,3.0691764,0.15636113,3.0686162,1
255952231,255952210,0.7,4.0830196e-06,-3.7321365,3.191518,0.4849257,3.231798,1
256052221,256052200,0.6999238,4.084541e-06,1.8709075,3.339166,0.11647269,3.3444366,1
256152225,256152202,0.69984776,4.086274e-06,-2.3074493,3.3070679,0.17888696,3.311346,1
256252237,256252216,0.69994533,4.0878726e-06,1.7955077,3.2960396,0.10867749,3.2993078,1
256352249,256352210,0.699948,4.0898685e-06,-3.1665573,3.4279926,0.32500672,3.4525485,1
256452234,256452213,0.69989014,4.0921113e-06,0.6496053,3.4107764,0.013746855,3.3962233,1
256552221,256552200,0.69996506,4.0943874e-06,0.40434945,3.53098,0.005144888,3.5143135,1
256752226,256752205,0.7,4.099038e-06,-1.7812381,3.3416512,0.10549705,3.336359,1
257252272,257252249,0.7,4.1073795e-06,-0.5663532,3.238973,0.011003349,3.2225225,1
257352256,257352235,0.7,4.1083417e-06,-0.3572983,3.191037,0.004445162,3.1745467,1
257452260,257452239,0.699991,4.109137e-06,-0.085933626,3.2587893,0.00025178364,3.24256,1
257552258,257552235,0.7,4.111701e-06,-3.3005395,3.4970725,0.34611684,3.5175397,1
257652508,257652464,0.7,4.11342e-06,-2.0504575,3.552221,0.13151008,3.5454302,1
257752261,257752239,0.7,4.1146864e-06,-2.1005774,3.483569,0.1407377,3.4767554,1
257852222,257852201,0.7,4.1131957e-06,-3.5474927,3.591103,0.3893791,3.6120045,1
257952276,257952254,0.69997317,4.110554e-06,1.3490541,3.6623404,0.055215057,3.663316,1
258052220,258052197,0.6998405,4.1111516e-06,3.1343417,3.9693172,0.27500105,4.0147257,1
258152441,258152420,0.6998624,4.114e-06,1.4140406,4.061814,0.054696713,4.058965,1
258252234,258252213,0.6998832,4.11783e-06,0.9384121,4.0911145,0.023916798,4.079732,1
258352255,258352229,0.7,4.122087e-06,-1.3007586,4.0007358,0.046990607,3.982833,1
258452231,258452208,0.7,4.126149e-06,-2.242578,3.8378618,0.14560065,3.8317108,1
258552236,258552210,0.7,4.1299354e-06,-1.3525301,3.7014606,0.05491339,3.685102,1
258652413,258652374,0.7,4.133439e-06,-2.2914975,3.6326013,0.1606122,3.6276007,1
258752230,258752208,0.69998693,4.1363946e-06,0.7672831,3.5216782,0.01857458,3.5133781,1
258852263,258852241,0.7,4.139026e-06,-1.7824051,3.433609,0.10280625,3.422033,1
258952290,258952270,0.6999892,4.14137e-06,0.5971432,3.2978413,0.012013918,3.288583,1
259052259,259052235,0.7,4.1434505e-06,-0.74401003,3.1830032,0.019323153,3.1666753,1
259152466,259152445,0.7,4.1454164e-06,-1.7249802,3.1029491,0.10654942,3.0920978,1
259252312,259252291,0.6999759,4.14718e-06,1.2411805,3.0209749,0.056660485,3.0225163,1
259352274,259352251,0.6999545,4.148616e-06,1.0949944,2.946242,0.04521816,2.9451227,1
259452289,259452267,0.7,4.1496646e-06,-2.7185116,2.882088,0.28491324,2.88884,1
259552256,259552234,0.7,4.1503545e-06,-0.015865892,2.8114226,9.948563e-06,2.798849,1
259652508,259652486,0.69999844,4.1505637e-06,-1.7100744,2.7314932,0.11895628,2.7225122,1
259752259,259752238,0.7,4.1501826e-06,-1.517185,2.6534805,0.09638704,2.6434972,1
259852267,259852246,0.7,4.1496273e-06,-2.6261525,2.6093974,0.29366836,2.6159778,1
259952222,259952201,0.69995683,4.148963e-06,0.21106783,2.594411,0.0019079316,2.583554,1
260052226,260052205,0.7,4.1480416e-06,-2.3860183,2.506905,0.252329,2.510552,1
260152422,260152384,0.7,4.1467047e-06,-0.8974681,2.4839866,0.036028508,2.4713378,1
260252252,260252216,0.6999929,4.1446215e-06,0.28414696,2.4353619,0.0036836641,2.4265094,1
260352228,260352207,0.7,4.142125e-06,-3.0604858,2.4021208,0.4332548,2.4175425,1
260452222,260452201,0.69997644,4.1415915e-06,-0.44489247,2.5937784,0.008478806,2.5804589,1
260552266,260552244,0.69994956,4.1405888e-06,-0.48180926,2.650508,0.009731474,2.6368058,1
260652425,260652386,0.7,4.1404355e-06,-2.1430802,2.7346196,0.18661109,2.7322116,1
260752252,260752231,0.69989604,4.1403264e-06,0.22842714,2.672799,0.0021691353,2.6613896,1
260852230,260852209,0.6999775,4.140278e-06,-3.2441444,2.774986,0.42140245,2.797009,1
260952292,260952271,0.69995004,4.1403937e-06,0.08147472,2.8676333,0.00025720513,2.8549745,1
261052250,261052229,0.7,4.1402463e-06,-0.5461818,2.8743863,0.011531526,2.8595066,1
261152457,261152434,0.7,4.1398157e-06,-1.4658659,2.8873696,0.082688205,2.8755589,1
261252269,261252248,0.7,4.1391786e-06,-0.9012841,2.7911,0.03233743,2.7769365,1
261352256,261352235,0.7,4.138355e-06,-0.53564125,2.7611067,0.011545755,2.7468061,1
261452276,261452255,0.6999259,4.13708e-06,-1.3884149,2.7886457,0.07680733,2.7776341,1
261552288,261552267,0.69989675,4.1359413e-06,2.0706215,2.8127174,0.16936857,2.8310401,1
261752266,261752243,0.69998527,4.136472e-06,-0.4394933,2.848307,0.007534861,2.8335357,1
261852307,261852286,0.7,4.1359594e-06,-0.91428876,2.7983801,0.033190787,2.7846608,1
261952221,261952200,0.6999083,4.1354865e-06,1.017159,2.8466043,0.040383883,2.8427556,1
262052246,262052225,0.6999814,4.135352e-06,0.06440139,2.8604438,0.00016110705,2.8469603,1
262152417,262152377,0.6999481,4.1356657e-06,0.12942088,2.8813553,0.0006459061,2.8677654,1
262252263,262252242,0.6999971,4.1359917e-06,0.13505962,2.8487518,0.00071146566,2.8355315,1
262352224,262352203,0.6999979,4.1361914e-06,-0.90034074,2.776603,0.032438256,2.7633538,1
262452232,262452209,0.7,4.136019e-06,-0.5065091,2.7288642,0.010446003,2.71502,1
262552223,262552200,0.6999686,4.1361586e-06,-0.607708,2.868451,0.014305397,2.853795,1
262652393,262652369,0.69993895,4.136458e-06,2.9014342,2.8929758,0.32332417,2.9321282,1
262752226,262752203,0.6999705,4.1368107e-06,1.4293491,2.966238,0.07652937,2.967355,1
262852256,262852219,0.7,4.137087e-06,-0.7378013,2.94424,0.020542964,2.929351,1
262952258,262952236,0.7,4.137026e-06,-2.5174103,2.8742878,0.2449826,2.8800633,1
263052266,263052245,0.7,4.1371095e-06,-2.2452817,3.0620508,0.18293078,3.061244,1
263152581,263152544,0.7,4.137524e-06,-4.5036325,3.0353208,0.7424698,3.098637,1
263252256,263252236,0.7,4.1378844e-06,-1.6261675,3.0377753,0.096723594,3.0284252,1
263352301,263352280,0.6999776,4.13832e-06,1.1273837,3.122206,0.045231342,3.1187105,1
263452260,263452239,0.6999088,4.139135e-06,1.3762518,3.2200377,0.06535704,3.220568,1
263552258,263552235,0.7,4.140273e-06,-3.6299934,3.2328136,0.4528856,3.2612631,1
263652449,263652426,0.7,4.1412227e-06,-1.7479576,3.1998966,0.10609218,3.1896188,1
263752256,263752234,0.6999588,4.1423223e-06,2.1782348,3.2774682,0.16085273,3.2979624,1
263852260,263852239,0.7,4.1442886e-06,-2.5566607,3.5010145,0.20744824,3.501097,1
263952226,263952206,0.69997287,4.1462436e-06,-0.6981582,3.485131,0.015539824,3.4675682,1
264052219,264052198,0.699908,4.1467856e-06,1.5976923,3.4997826,0.081040606,3.5057611,1
264152449,264152428,0.7,4.1477283e-06,-3.5753827,3.4870217,0.4073314,3.5103428,1
264252222,264252201,0.69985455,4.151231e-06,0.37195605,3.6976092,0.00415738,3.6832335,1
264352226,264352204,0.69998735,4.1542803e-06,0.06921083,3.7767475,0.00014092487,3.7597291,1
264452295,264452274,0.6999783,4.157244e-06,1.3032205,3.6789021,0.051295005,3.6783721,1
264552229,264552208,0.7,4.1598137e-06,-3.280963,3.5595005,0.3360246,3.5738192,1
264652438,264652416,0.6999613,4.162328e-06,-0.35057613,3.5302393,0.0038682811,3.5122101,1
264752232,264752211,0.6999953,4.164731e-06,0.047142208,3.462378,7.131861e-05,3.446825,1
264852227,264852206,0.6999969,4.166905e-06,-1.6271325,3.3617034,0.08750723,3.3496745,1
264952255,264952234,0.7,4.1700723e-06,-1.9230962,3.4942524,0.11759943,3.4839246,1
265052260,265052237,0.7,4.1720896e-06,-0.33533654,3.4589682,0.0036122072,3.4419167,1
265152453,265152432,0.7,4.173678e-06,-0.3133357,3.404699,0.003204044,3.387648,1
265252257,265252235,0.7,4.1747517e-06,-0.20768255,3.3529189,0.0014293364,3.3368835,1
265352255,265352234,0.7,4.175735e-06,-0.059305727,3.3731544,0.000115854935,3.3580973,1
265452293,265452271,0.69996476,4.1767566e-06,0.2308501,3.3291378,0.001778631,3.3164496,1
265552265,265552245,0.6999616,4.1779786e-06,0.25326854,3.305135,0.002156407,3.2922454,1
265652503,265652448,0.6999583,4.17935e-06,2.1903102,3.216493,0.16572429,3.241609,1
265752349,265752328,0.6999637,4.1807043e-06,-0.83404815,3.251475,0.02377165,3.234767,1
265852259,265852238,0.7,4.181713e-06,-2.1175737,3.179563,0.15669933,3.1737678,1
265952254,265952232,0.69993246,4.1826747e-06,3.4629278,3.170548,0.42025223,3.2338295,1
266052239,266052217,0.7,4.1837707e-06,-0.55663675,3.1929169,0.0107823545,3.1761456,1
266152424,266152384,0.6999471,4.184657e-06,-1.2991319,3.1796458,0.058977347,3.165799,1
266252219,266252198,0.7,4.1854014e-06,-1.2100283,3.1375113,0.051851727,3.1234534,1
266352226,266352205,0.6999829,4.185927e-06,0.8443818,3.0560486,0.025922384,3.0498347,1
266452224,266452203,0.6999719,4.1862004e-06,1.3587968,3.000167,0.06837875,3.0025532,1
266552227,266552204,0.7,4.18612e-06,-0.42568153,2.9221108,0.0068901777,2.9070559,1
266652416,266652376,0.7,4.1859885e-06,-3.7470355,2.9316702,0.5321303,2.964967,1
266852227,266852203,0.7,4.1857916e-06,-3.7330098,2.8365238,0.5458701,2.8699222,1
266952226,266952202,0.69998866,4.185623e-06,0.035222083,2.9153814,4.72816e-05,2.901972,1
267052336,267052313,0.7,4.1854664e-06,-2.9058368,2.8671083,0.32723206,2.8788483,1
267152450,267152426,0.6999597,4.1850863e-06,0.3648802,2.7994442,0.0052842856,2.788696,1
267252292,267252268,0.6999711,4.184328e-06,1.3106083,2.7992737,0.068180144,2.8014417,1
267352257,267352234,0.7,4.1837006e-06,-4.1479063,2.7928464,0.6844919,2.8418324,1
267452257,267452234,0.699972,4.183301e-06,-0.02085039,2.7920585,1.7300606e-05,2.7792566,1
267552258,267552237,0.7,4.182702e-06,-0.21907869,2.7407422,0.0019457615,2.7267601,1
267652258,267652235,0.69998133,4.181689e-06,0.7989087,2.6211193,0.02705609,2.6160872,1
267752263,267752241,0.7,4.1803687e-06,-0.44266215,2.6275733,0.008286048,2.6138866,1
267852263,267852242,0.7,4.1790545e-06,-2.0346584,2.6046047,0.17660324,2.6021981,1
267952257,267952234,0.6999844,4.1772823e-06,0.6413727,2.5335996,0.018040162,2.5271997,1
268052253,268052217,0.7,4.1751086e-06,-3.6724398,2.4625278,0.60853523,2.4977543,1
268152229,268152208,0.6999084,4.173189e-06,1.3827142,2.511316,0.08459037,2.5150788,1
268252226,268252205,0.6999895,4.171514e-06,0.4456256,2.590507,0.008517516,2.5810127,1
268352296,268352275,0.69992113,4.170181e-06,-0.7683722,2.5610976,0.025613835,2.5481932,1
268452231,268452210,0.6999664,4.1687563e-06,0.15643662,2.5309606,0.0010743579,2.519348,1
268552274,268552252,0.7,4.1670874e-06,-0.1412107,2.52925,0.00087599375,2.5161688,1
268652227,268652206,0.7,4.1650487e-06,-3.4659925,2.458367,0.54295766,2.4902253,1
268752235,268752212,0.69994324,4.163087e-06,-0.64965725,2.514411,0.01865047,2.5013926,1
268852237,268852216,0.7,4.1609433e-06,-1.7212901,2.4829733,0.13258475,2.4775944,1
268952226,268952205,0.69989973,4.1587487e-06,0.11650145,2.498196,0.00060366176,2.4863033,1
269052256,269052235,0.6998037,4.157507e-06,0.009171128,2.580662,3.6213619e-06,2.5674744,1
269152260,269152240,0.7,4.1564913e-06,-4.189502,2.5135655,0.7758755,2.5716865,1
269252286,269252267,0.69988316,4.155545e-06,0.93211234,2.5246303,0.038238093,2.518823,1
269352289,269352268,0.69993377,4.1543285e-06,1.1671361,2.520726,0.06004472,2.51877,1
269452298,269452277,0.69991475,4.153122e-06,3.648048,2.5912037,0.5706594,2.6566973,1
269552256,269552233,0.69997555,4.15232e-06,0.77291536,2.6462708,0.02508344,2.6389406,1
269652332,269652311,0.7,4.151131e-06,-2.420821,2.608206,0.24965538,2.6139908,1
269752257,269752237,0.7,4.1498915e-06,-0.75274354,2.6635537,0.02363688,2.6499107,1
269852313,269852274,0.6999856,4.148473e-06,-1.1289062,2.5774522,0.05493924,2.5662522,1
269952262,269952242,0.6999922,4.146838e-06,0.32352322,2.5514953,0.004557993,2.5412183,1
270052222,270052201,0.69994366,4.144761e-06,0.62059367,2.4856498,0.017215999,2.4778755,1
270152218,270152195,0.7,4.1423887e-06,-2.230187,2.4230082,0.22807893,2.4251463,1
270252223,270252202,0.69997483,4.1396374e-06,-0.15792003,2.3943667,0.0011572875,2.382318,1
270352225,270352202,0.6999962,4.136525e-06,-0.9192762,2.3228757,0.040422533,2.311686,1
270452221,270452200,0.6999971,4.133207e-06,0.10573751,2.2630816,0.00054892804,2.2529674,1
270552226,270552205,0.7,4.1292824e-06,-1.5619508,2.1731403,0.12473963,2.1673522,1
270652250,270652209,0.7,4.1250214e-06,-1.8468492,2.1774802,0.17404683,2.1749275,1
270752248,270752225,0.69998,4.1207204e-06,0.70081675,2.1438298,0.025455179,2.139468,1
270852228,270852203,0.69991195,4.1164776e-06,-0.094869375,2.2196486,0.0004505317,2.208642,1
270952305,270952282,0.6999854,4.1127455e-06,-2.4249165,2.2029004,0.2965898,2.2097528,1
271052254,271052232,0.7,4.109191e-06,-3.7270021,2.2208147,0.69496745,2.2596598,1
271152272,271152250,0.7,4.1063145e-06,-1.1717904,2.3129199,0.06596245,2.3031847,1
271252254,271252231,0.699997,4.103857e-06,-0.8295237,2.3434577,0.032625556,2.3318396,1
271452265,271452240,0.7,4.0995724e-06,-3.638838,2.394489,0.61442673,2.4310615,1
271752255,271752234,0.69998145,4.0950626e-06,-1.0810854,2.3558588,0.055122424,2.3457966,1
271852253,271852231,0.7,4.093055e-06,-0.65649796,2.3021069,0.020801697,2.2903438,1
271952523,271952500,0.69997174,4.0906157e-06,-1.67958,2.239506,0.13996087,2.2359405,1
272052245,272052224,0.7,4.087753e-06,-1.5509435,2.2296999,0.11986794,2.224496,1
272152232,272152211,0.6999898,4.0848536e-06,0.3770427,2.1950507,0.0071960473,2.18616,1
272252300,272252279,0.6999622,4.0817017e-06,-0.26128164,2.1239443,0.0035713483,2.1126776,1
272352221,272352199,0.6999393,4.078262e-06,-1.5269029,2.1473036,0.120638765,2.1429265,1
272452412,272452374,0.7,4.0751215e-06,-0.17004262,2.0972526,0.0015318715,2.0861793,1
272552222,272552202,0.6999249,4.0716086e-06,2.6199367,2.023449,0.376918,2.0538905,1
272652224,272652202,0.69997203,4.0680407e-06,-0.31010118,2.0177693,0.0052953274,2.0072339,1
272752241,272752219,0.6999911,4.064178e-06,-1.0608782,1.9628658,0.06370857,1.9555678,1
272852224,272852203,0.69996536,4.0599475e-06,0.788755,1.9491755,0.03546425,1.9441226,1
272952413,272952376,0.6999274,4.055586e-06,-0.60782015,1.9300624,0.021268474,1.9201033,1
273052212,273052191,0.69985867,4.050996e-06,1.7944734,1.9332067,0.18507732,1.9429463,1
273152259,273152238,0.69990253,4.046599e-06,0.70628166,1.9327288,0.028677577,1.9267312,1
273252298,273252277,0.6999083,4.042374e-06,-1.0524616,2.0036767,0.0614246,1.9962766,1
273352284,273352263,0.69993335,4.038651e-06,1.766629,2.027555,0.17103127,2.0365968,1
273652255,273652233,0.6999504,4.0264435e-06,-0.65996957,1.9221894,0.0251773,1.9127764,1
273752255,273752234,0.6999107,4.022098e-06,-1.0995138,2.0400958,0.06584279,2.0326748,1
273852263,273852240,0.69992405,4.0184545e-06,-0.4796835,2.1108754,0.012111681,2.0999846,1
273952464,273952441,0.6999332,4.01512e-06,0.03570056,2.1291718,6.6511515e-05,2.1182597,1
274052280,274052258,0.7,4.011624e-06,-0.157637,2.069254,0.00133432,2.058364,1
274152233,274152212,0.6999331,4.0081654e-06,-0.07316628,2.0754724,0.00028659098,2.0646188,1
274252219,274252198,0.7,4.004567e-06,-2.451924,2.0189192,0.33086637,2.032004,1
274352218,274352196,0.6999854,4.0008413e-06,-0.121896386,2.0265038,0.00081468874,2.0158505,1
274452414,274452376,0.699985,3.996803e-06,0.5028755,1.9546301,0.014375199,1.9470389,1
274552254,274552220,0.7,3.9922083e-06,-1.2284588,1.8910409,0.0886702,1.885328,1
274652248,274652224,0.699994,3.986999e-06,0.15650505,1.8303679,0.0014868797,1.8215297,1
274752225,274752202,0.7,3.981559e-06,-1.5466163,1.8277518,0.14541374,1.8254426,1
274852302,274852278,0.69998324,3.975831e-06,-1.8741622,1.7895277,0.21808882,1.7919573,1
274952392,274952369,0.6999753,3.9700594e-06,0.07467055,1.8068877,0.0003428665,1.7979127,1
275052222,275052199,0.69988984,3.966132e-06,1.1962051,1.8605105,0.085454844,1.8623102,1
275152256,275152233,0.6999763,3.960866e-06,-0.41138718,1.8261437,0.010297315,1.8164275,1
275252259,275252235,0.69995546,3.9573147e-06,-4.0344343,1.7915103,1.0094935,1.847228,1
275352275,275352253,0.6998712,3.9524234e-06,2.699609,1.814127,0.44636646,1.8483357,1
275452447,275452425,0.6999983,3.9479705e-06,-1.2695819,1.8323146,0.09774148,1.8269671,1
275552260,275552238,0.69997257,3.9432953e-06,-0.92465526,1.8120419,0.052426267,1.8042928,1
275652259,275652237,0.7,3.9384186e-06,-0.8067942,1.7657095,0.040960364,1.7573462,1
275752287,275752264,0.6999466,3.9353213e-06,0.5950518,1.8032129,0.021818258,1.7975409,1
275852282,275852261,0.69994813,3.9303827e-06,0.67197776,1.7885982,0.028051399,1.78356,1
275952501,275952457,0.699851,3.925517e-06,1.4655565,1.8125514,0.13166559,1.8175145,1
276052256,276052236,0.6999176,3.9207375e-06,2.6580157,1.8272578,0.4296084,1.8601595,1
276152267,276152246,0.6999121,3.9186416e-06,0.22220227,1.9963402,0.0027480202,1.9871356,1
276252228,276252207,0.6999491,3.917635e-06,-0.004434794,2.1107965,1.0352805e-06,2.1002212,1
276352222,276352199,0.7,3.915298e-06,-3.28229,2.07682,0.57638484,2.1087286,1
276452423,276452384,0.7,3.913024e-06,-1.65105,2.091491,0.14481778,2.088858,1
276552235,276552213,0.7,3.910611e-06,-0.75781065,2.116447,0.030148901,2.1059995,1
276652216,276652195,0.6999964,3.908609e-06,0.0050763786,2.1830328,1.3116115e-06,2.1719346,1
276752233,276752210,0.69999295,3.9062184e-06,0.25795877,2.1108913,0.0035026136,2.1014922,1
276852246,276852223,0.7,3.903811e-06,-1.0250022,2.1083279,0.05536929,2.0993085,1
276952429,276952389,0.7,3.901685e-06,-0.6824561,2.199188,0.023531225,2.187953,1
277052247,277052225,0.6999361,3.900245e-06,2.5563602,2.253815,0.3221687,2.283489,1
277152286,277152265,0.7,3.899119e-06,-2.4965522,2.2464354,0.30827966,2.257214,1
277252285,277252264,0.69998485,3.897572e-06,-0.15542093,2.201132,0.0012193556,2.189745,1
277352256,277352235,0.69995075,3.8954186e-06,1.1320024,2.1531274,0.066127546,2.1527998,1
277452514,277452491,0.6999893,3.8951057e-06,-0.18711928,2.2604322,0.0017210878,2.2486346,1
277552252,277552231,0.7,3.8936264e-06,-4.3535924,2.3263407,0.9052733,2.389701,1
277652257,277652236,0.6999007,3.893111e-06,-0.9176073,2.4125583,0.038778715,2.4014418,1
277752263,277752240,0.6999611,3.89277e-06,-0.5256375,2.384184,0.0128762815,2.3720899,1
277852260,277852239,0.69993275,3.8926883e-06,-1.2116327,2.4203188,0.067394875,2.411677,1
277952441,277952420,0.6999662,3.8931157e-06,-0.34210688,2.4781463,0.0052475207,2.4650507,1
278052260,278052239,0.69996125,3.8934386e-06,-0.30774134,2.4502976,0.0042944774,2.4373224,1
278152263,278152242,0.69990283,3.89385e-06,-1.1202848,2.5375428,0.054954216,2.5276916,1
278252260,278252240,0.6998674,3.8945027e-06,-1.4714844,2.558992,0.0940156,2.552915,1
278352254,278352233,0.6997617,3.895413e-06,1.5634185,2.543818,0.106763296,2.545541,1
278452442,278452420,0.69977367,3.8962935e-06,-1.1204726,2.5114913,0.05554286,2.5026686,1
278552255,278552234,0.6997993,3.8969697e-06,-0.79142404,2.5632064,0.027151411,2.5517538,1
278652229,278652208,0.6998339,3.8977123e-06,-1.0797532,2.505161,0.051709555,2.4960556,1
278752264,278752249,0.6999513,3.898216e-06,-1.2279348,2.5379243,0.066013,2.5299892,1
278852225,278852203,0.69996935,3.8987664e-06,1.3759592,2.5125337,0.083725296,2.5115151,1
278952415,278952376,0.7,3.899365e-06,-2.7668345,2.5077288,0.33919019,2.5265708,1
279052228,279052205,0.7,3.899776e-06,-1.0651519,2.536677,0.049695317,2.5267296,1
279152232,279152211,0.69998777,3.900073e-06,-1.3088083,2.5407891,0.0749102,2.5332043,1
279252256,279252234,0.7,3.9003476e-06,-1.7176117,2.5204604,0.13005516,2.5173063,1
279352267,279352242,0.6999527,3.9003203e-06,1.3941718,2.47707,0.087187015,2.4780824,1
279452441,279452418,0.69998884,3.9001497e-06,0.48385644,2.4843557,0.010470726,2.4746678,1
279552294,279552271,0.7,3.8998774e-06,-0.60758346,2.5819995,0.015885951,2.5684302,1
279652285,279652262,0.7,3.8999888e-06,-2.0950744,2.6262639,0.1857026,2.6259878,1
279852297,279852276,0.6999964,3.9003744e-06,-4.323794,2.6200042,0.7928399,2.6827102,1
280152255,280152234,0.7,3.9018646e-06,-1.0065567,2.8446593,0.03957344,2.831479,1
280252219,280252196,0.69992954,3.903234e-06,1.6820543,2.9098058,0.10803725,2.9167533,1
280352222,280352201,0.6999941,3.9050883e-06,-1.2122635,3.1355262,0.052076414,3.1215632,1
280452411,280452372,0.6999306,3.9073675e-06,2.3230612,3.12218,0.1920529,3.145625,1
280552220,280552199,0.69999105,3.910793e-06,-5.4038844,3.2376432,1.0021682,3.3372302,1
280652220,280652199,0.6999336,3.91369e-06,0.4196489,3.4910326,0.0056050015,3.4772375,1
280752229,280752208,0.69994915,3.9167467e-06,0.6312082,3.4452808,0.01284926,3.4342468,1
280852222,280852201,0.7,3.9196725e-06,-3.788129,3.4540198,0.46161744,3.4861872,1
