timestamp,timestamp_sample,accel_device_id,gyro_device_id,delta_angle[0],delta_angle[1],delta_angle[2],delta_velocity[0],delta_velocity[1],delta_velocity[2],delta_angle_dt,delta_velocity_dt,delta_angle_clipping,delta_velocity_clipping,accel_calibration_count,gyro_calibration_count
200501962,200501730,3407898,3407898,-3.1148058e-05,-1.3973937e-05,1.5169812e-05,-7.189773e-05,0.0005294466,-0.048158154,4977,4977,0,0,1,1
201001936,201001730,3407898,3407898,-3.5031462e-05,1.0303278e-05,6.2570552e-06,-0.00020503555,0.00060087815,-0.050213024,4999,4999,0,0,1,1
201501914,201501729,3407898,3407898,-1.4333385e-05,5.9911355e-07,2.494808e-05,-0.0003683292,0.0015117049,-0.048784498,5000,5000,0,0,1,1
202001917,202001729,3407898,3407898,-1.6201333e-05,8.296256e-06,1.0945838e-05,-0.000440652,-0.00023755673,-0.04764804,5000,5000,0,0,1,1
202501925,202501729,3407898,3407898,-2.0080572e-06,2.8386607e-05,2.8399314e-05,-0.00056736235,0.00095942116,-0.047531944,5000,5000,0,0,1,1
203001926,203001729,3407898,3407898,1.2439068e-05,1.6964083e-05,1.5858028e-05,0.000301605,0.0012790046,-0.048986375,5000,5000,0,0,1,1
203501906,203501729,3407898,3407898,-3.567999e-05,1.227639e-06,1.1874143e-05,-0.0009395298,0.00032626098,-0.048728354,5000,5000,0,0,1,1
204001909,204001729,3407898,3407898,-5.2991592e-05,-5.7742247e-05,7.5946277e-06,-0.0046308246,-0.012575852,-0.04589086,4999,4999,0,0,1,1
204501938,204501729,3407898,3407898,7.336704e-05,0.00011966715,1.6442846e-05,-0.003624683,0.0041160206,-0.050373852,5000,5000,0,0,1,1
205001934,205001729,3407898,3407898,0.00023591991,3.5477304e-05,-3.918592e-05,0.012683307,-0.010909374,-0.046619833,5000,5000,0,0,1,1
205501908,205501729,3407898,3407898,0.0017442876,0.0003280313,0.00023269882,0.004767367,0.0065491265,-0.055344436,5000,5000,0,0,1,1
206001908,206001729,3407898,3407898,-0.0005840142,-0.00035499872,0.00067448046,0.00149855,-0.00037546866,-0.03887401,4999,4999,0,0,1,1
207001951,207001729,3407898,3407898,0.0003142611,0.00043030194,0.00027638362,0.0051039113,0.00088034064,-0.060209997,5000,5000,0,0,1,1
207501907,207501729,3407898,3407898,7.1439754e-05,-6.438956e-05,-0.000641053,-0.001997374,0.001219036,-0.051258586,5000,5000,0,0,1,1
208001912,208001729,3407898,3407898,0.0012114382,0.00037594835,-0.00075041637,-0.0054512057,-0.00042523484,-0.058121435,5000,5000,0,0,1,1
208501931,208501729,3407898,3407898,-0.00024348579,-0.0007902726,-5.6997764e-05,-0.006926109,-0.0038587763,-0.03912708,5000,5000,0,0,1,1
209001925,209001729,3407898,3407898,-0.0002824196,-0.00037867046,0.0003215234,0.0029597008,0.0034280287,-0.058513068,5000,5000,0,0,1,1
209501907,209501729,3407898,3407898,-0.00031346275,-0.00067672506,0.0012136442,0.0054457616,-0.0005954856,-0.044045933,5000,5000,0,0,1,1
210001908,210001729,3407898,3407898,0.00023411088,0.001230991,0.00046707896,0.009416609,-0.0010128082,-0.04224554,5000,5000,0,0,1,1
210501948,210501729,3407898,3407898,0.0006565729,0.00029756827,-9.606237e-05,0.006333367,0.002410408,-0.031290054,4999,4999,0,0,1,1
211501907,211501729,3407898,3407898,0.00043216656,0.00095394923,-9.227388e-05,-0.004419789,-0.002059648,-0.060372952,5000,5000,0,0,1,1
212001912,212001729,3407898,3407898,-4.931962e-05,0.00016232276,-0.00021511194,0.0067283665,0.02634207,-0.032648526,5000,5000,0,0,1,1
212501924,212501729,3407898,3407898,0.0001528998,0.0017027487,3.209102e-05,-0.005881217,-0.0053833486,-0.049953748,5000,5000,0,0,1,1
213001926,213001729,3407898,3407898,5.832934e-05,-0.00044976556,7.3020374e-06,-0.010559579,-0.009261223,-0.046930432,5000,5000,0,0,1,1
213501907,213501729,3407898,3407898,-0.00031988777,-0.0008577008,0.00026099687,-0.006783161,0.009966102,-0.056920122,5000,5000,0,0,1,1
214001911,214001729,3407898,3407898,0.0002536207,-0.00044342023,0.00014287449,-0.0021577594,0.010984044,-0.05862687,4997,4997,0,0,1,1
214501925,214501729,3407898,3407898,-0.00013244517,-0.00078012765,1.5202191e-05,-0.0020228135,0.00965523,-0.05264797,5000,5000,0,0,1,1
215001936,215001729,3407898,3407898,-0.0008276584,-0.00023827463,-0.00033545302,-0.0022296498,0.008761833,-0.04536541,5000,5000,0,0,1,1
215501913,215501729,3407898,3407898,-6.5043074e-05,-0.00096141006,0.00018075336,0.009394864,0.019883001,-0.06224546,5000,5000,0,0,1,1
216001909,216001729,3407898,3407898,0.00039938558,-0.0020681939,-0.0004738405,0.006540201,0.021622125,-0.04396749,5000,5000,0,0,1,1
216501928,216501729,3407898,3407898,-0.00042587225,0.00010111882,0.00012579326,0.017505692,-0.0026793792,-0.025706172,5000,5000,0,0,1,1
217001932,217001729,3407898,3407898,0.00017477972,0.001134766,-8.0311715e-05,0.009510272,-0.0032550225,-0.07082431,5000,5000,0,0,1,1
217501907,217501729,3407898,3407898,5.960676e-05,-0.00035683587,-0.00020665038,0.021373358,-0.001879777,-0.06649284,5000,5000,0,0,1,1
218001912,218001729,3407898,3407898,0.00017359176,-0.0030266754,2.3694658e-05,0.008149925,-0.014374321,-0.053243898,5000,5000,0,0,1,1
218501925,218501729,3407898,3407898,-0.0001670615,0.0030464064,-0.00031739174,-0.012815608,-0.024188543,-0.04672199,5000,5000,0,0,1,1
219001949,219001729,3407898,3407898,-8.184243e-05,-0.0012418474,-0.0004892485,-0.016713483,-0.0023213879,-0.034377217,5000,5000,0,0,1,1
219501907,219501729,3407898,3407898,-2.6721475e-05,-0.0003553713,0.00035059152,0.0061866813,0.024293154,-0.04844802,5000,5000,0,0,1,1
220001909,220001730,3407898,3407898,-0.00035205847,-0.00018415616,8.760934e-05,-0.025333002,0.0032221617,-0.053782336,5001,5001,0,0,1,1
221001944,221001729,3407898,3407898,-0.0008326464,7.619102e-05,0.00024768498,0.0025262493,0.013024375,-0.029726544,5000,5000,0,0,1,1
221501907,221501729,3407898,3407898,-0.0006839436,-0.0003141653,0.00019990792,0.0015949593,0.0041797883,-0.051350225,5000,5000,0,0,1,1
222001914,222001729,3407898,3407898,0.0008444593,-0.0007507514,0.00023527526,-0.015848197,-0.0025713497,-0.054735117,5000,5000,0,0,1,1
222501925,222501729,3407898,3407898,0.00060862093,0.00060569413,-0.0005654232,-0.009243878,-3.3468846e-06,-0.053958118,5000,5000,0,0,1,1
223001929,223001729,3407898,3407898,-0.00014772723,0.00010772986,-0.0002074273,-0.005129518,-0.011742024,-0.05169239,5000,5000,0,0,1,1
223501908,223501729,3407898,3407898,0.0007342594,0.0001243255,0.00081366923,-0.0010049025,0.005786351,-0.05242576,5000,5000,0,0,1,1
224001907,224001729,3407898,3407898,-0.0005697064,-0.000304295,-0.00051135325,-0.011912819,0.012676039,-0.045565493,5000,5000,0,0,1,1
224501929,224501729,3407898,3407898,-0.00057287526,0.00042243954,-0.0004997378,0.009935101,0.0049382793,-0.045709275,5000,5000,0,0,1,1
225001932,225001729,3407898,3407898,0.00022357449,-0.00026036365,6.0367656e-05,-0.002083099,0.007497711,-0.04768955,5000,5000,0,0,1,1
226001917,226001729,3407898,3407898,0.00076540397,0.00039783132,0.0002938084,0.011210412,-0.0029527629,-0.037459794,5000,5000,0,0,1,1
226501926,226501729,3407898,3407898,-5.3227282e-05,0.00047469404,0.00011525026,-0.019785542,-0.010107407,-0.0355818,5000,5000,0,0,1,1
227001927,227001729,3407898,3407898,1.0974468e-05,0.00083887775,-0.00036394043,-0.012931872,-0.011845777,-0.043294262,5000,5000,0,0,1,1
227501908,227501729,3407898,3407898,0.00014263927,0.0006521579,-0.00026391895,-0.010995024,-0.004320723,-0.03380342,5000,5000,0,0,1,1
228001909,228001729,3407898,3407898,0.0002119987,0.00087911804,0.00089971465,-0.01451303,-0.0058341175,-0.03180298,5000,5000,0,0,1,1
228501925,228501729,3407898,3407898,-0.0017674224,0.0005078813,0.00018345175,-0.0044093602,0.004174876,-0.044488773,5000,5000,0,0,1,1
229001929,229001729,3407898,3407898,0.0004263826,0.00074378523,-0.00056396687,-0.009699729,-0.005450604,-0.036852363,5000,5000,0,0,1,1
229501923,229501729,3407898,3407898,-0.00024094853,0.0005823914,0.00014006945,-0.014890276,0.0055643045,-0.04274084,5000,5000,0,0,1,1
230001917,230001729,3407898,3407898,-0.00010950016,0.00053299963,-0.00020065933,0.0025987444,-0.0048794453,-0.02633719,5000,5000,0,0,1,1
230501930,230501729,3407898,3407898,4.0984945e-05,0.000835923,-0.00023399606,0.0047077117,-0.013740171,-0.052896388,5000,5000,0,0,1,1
231001933,231001729,3407898,3407898,-3.9819366e-05,9.0150446e-05,0.00010729761,0.001524765,0.011058703,-0.046231378,5000,5000,0,0,1,1
231501907,231501729,3407898,3407898,-0.0003464194,0.0004857915,3.3765788e-05,-0.014796777,-0.0063551343,-0.0458896,5000,5000,0,0,1,1
232001906,232001729,3407898,3407898,-0.00026462696,0.00032015276,-0.0001012495,0.0039499705,0.0053091007,-0.05575312,5000,5000,0,0,1,1
232501906,232501729,3407898,3407898,-8.910545e-05,-9.503486e-05,0.00021614431,-0.008741129,-0.00018316713,-0.035815533,5000,5000,0,0,1,1
233001925,233001729,3407898,3407898,0.0010367583,-0.0008591121,-0.0003474954,-0.007863915,-0.002327458,-0.04823312,5000,5000,0,0,1,1
233501926,233501729,3407898,3407898,0.00018060855,0.0005747764,-0.0005351832,-0.004781756,0.008364979,-0.04426079,5000,5000,0,0,1,1
235001926,235001729,3407898,3407898,-0.00073086575,-0.0024489372,-0.00018368293,-0.009780966,0.0059382273,-0.058372688,4999,4999,0,0,1,1
235501937,235501729,3407898,3407898,-0.0010209347,-0.0007319881,-8.3678264e-05,0.0093698455,-0.0057002055,-0.046935186,5000,5000,0,0,1,1
236001907,236001729,3407898,3407898,-0.0002939357,-0.0013909809,0.0002052171,0.0074698892,0.0032445304,-0.054646537,5000,5000,0,0,1,1
236501914,236501729,3407898,3407898,-9.7756405e-05,-0.0017554621,-0.0005591744,-0.003316487,0.005548224,-0.05952619,5000,5000,0,0,1,1
237001924,237001729,3407898,3407898,-0.00046797274,-0.0022139251,-9.637347e-05,-0.011363917,0.0036689227,-0.039484423,5000,5000,0,0,1,1
237501930,237501729,3407898,3407898,-0.00025213687,0.0002405226,0.00049503794,-0.0010943101,-0.0022529305,-0.042526107,5000,5000,0,0,1,1
238001907,238001729,3407898,3407898,-0.00042098886,-0.00019629287,0.00022549534,-0.007864666,0.019836199,-0.051897533,5000,5000,0,0,1,1
238501943,238501729,3407898,3407898,-0.00021056633,-0.00051926245,0.00014712667,-0.0010034905,0.004101306,-0.044307,5000,5000,0,0,1,1
239001928,239001729,3407898,3407898,-0.0011699039,-0.0012029435,-0.0006060967,-0.0023923074,-0.0008313081,-0.0533488,5000,5000,0,0,1,1
239501925,239501729,3407898,3407898,0.000120764285,0.00036119635,-0.00038604907,0.013861241,-0.0031922325,-0.053465877,5000,5000,0,0,1,1
240001907,240001729,3407898,3407898,-0.0014497861,-0.00034745404,-0.00018955028,-0.00039625255,-0.0048914147,-0.043683186,5000,5000,0,0,1,1
240501909,240501729,3407898,3407898,-0.0009785612,-0.00057678146,4.275963e-05,-0.021408737,-0.0010060737,-0.055113625,5000,5000,0,0,1,1
241001924,241001729,3407898,3407898,-0.0005247396,-0.00024049755,6.139644e-05,0.0069138156,0.0054992875,-0.0424828,5000,5000,0,0,1,1
241501930,241501729,3407898,3407898,-0.00037729516,2.0333226e-05,0.00023306895,0.009667251,-0.0070267436,-0.05237675,5000,5000,0,0,1,1
242001911,242001729,3407898,3407898,-0.00022632875,-5.4634216e-05,2.3839073e-05,0.0002030465,-0.007918958,-0.046485525,5000,5000,0,0,1,1
243001926,243001729,3407898,3407898,6.864954e-05,0.00032089604,-0.00027841108,-0.0014755116,0.003073794,-0.038468685,5000,5000,0,0,1,1
243501925,243501729,3407898,3407898,0.0024385243,0.0010075236,0.0004856304,-0.00050951494,-0.0037675875,-0.031780064,5000,5000,0,0,1,1
244001913,244001729,3407898,3407898,0.0013782383,0.0004897825,0.000114348164,0.0035088419,-0.00010476309,-0.03174195,5000,5000,0,0,1,1
244501906,244501729,3407898,3407898,0.0007590906,0.0002051859,6.10779e-05,-0.0014597968,0.009705359,-0.05441295,5000,5000,0,0,1,1
245001931,245001729,3407898,3407898,0.00028128404,0.00031222065,7.683233e-05,-0.002536317,-0.008537355,-0.043161478,5001,5001,0,0,1,1
246001919,246001729,3407898,3407898,-0.0004634555,0.00017844315,-0.00011221419,0.002028985,0.0043925717,-0.060098335,5000,5000,0,0,1,1
246501909,246501729,3407898,3407898,-0.0001280514,0.00022483252,-0.0001192972,0.011573261,0.012549596,-0.043558232,5000,5000,0,0,1,1
247001923,247001729,3407898,3407898,-0.003847159,-0.0015245586,-0.00020944739,0.008927011,-0.006962479,-0.045986164,5000,5000,0,0,1,1
248001909,248001729,3407898,3407898,-0.00024780488,-0.00035933687,-0.00017494765,-0.00971032,-0.0032696521,-0.05291495,5000,5000,0,0,1,1
248501909,248501729,3407898,3407898,0.0008348965,-6.443005e-05,0.0002711301,0.0037134343,0.0049658893,-0.049931485,5000,5000,0,0,1,1
249001923,249001729,3407898,3407898,0.00022949964,6.612838e-05,0.00030396788,-0.003878973,-0.008112083,-0.04829399,5000,5000,0,0,1,1
249501933,249501729,3407898,3407898,1.5921221e-05,0.0002920859,-7.813567e-05,0.0026464763,0.004348166,-0.05473421,5000,5000,0,0,1,1
250001907,250001729,3407898,3407898,0.00092857983,0.00038996863,0.00013321279,-0.007567231,-0.003704168,-0.050386876,5000,5000,0,0,1,1
250501921,250501729,3407898,3407898,0.00019805397,9.819275e-06,-8.764065e-05,-0.0061555426,-0.0029829752,-0.04572632,5000,5000,0,0,1,1
251001929,251001731,3407898,3407898,0.00017914231,2.9831288e-05,0.00010453847,-0.007135159,0.0038581423,-0.038978685,5002,5002,0,0,1,1
251501927,251501729,3407898,3407898,-0.0003177239,-0.00035149223,-0.00028165593,-0.008814945,-0.010745251,-0.056660946,5000,5000,0,0,1,1
252001913,252001729,3407898,3407898,-0.00062975055,-5.475365e-05,-0.00023885035,0.0032641112,-0.013520714,-0.055151004,5000,5000,0,0,1,1
252501907,252501729,3407898,3407898,0.0005351353,3.468008e-05,-0.0001785683,0.0021315026,-0.005376616,-0.04254968,5000,5000,0,0,1,1
253001931,253001729,3407898,3407898,3.0845626e-05,2.8349934e-05,0.00019947242,-0.011719687,0.001784608,-0.04981821,5000,5000,0,0,1,1
253501927,253501729,3407898,3407898,-0.0021451039,-0.00043966813,0.00024251043,-0.003575567,0.0013642841,-0.047879856,5000,5000,0,0,1,1
254001912,254001729,3407898,3407898,-0.0014236943,-0.00040320336,0.00012584927,0.00043872604,0.011609871,-0.040695667,5000,5000,0,0,1,1
254501920,254501729,3407898,3407898,-0.00019509754,-0.00012390869,-0.00013076985,0.008597227,0.015012134,-0.046462595,5000,5000,0,0,1,1
255001927,255001729,3407898,3407898,0.00072288257,-0.00020849361,-0.00022533031,-0.014616052,-0.000556107,-0.05010363,5000,5000,0,0,1,1
255501930,255501729,3407898,3407898,4.7586578e-05,0.00037890725,-0.00019996896,-0.037525456,-0.011848816,-0.058866903,5000,5000,0,0,1,1
256001914,256001729,3407898,3407898,0.00030559627,-0.0005673102,5.5238223e-05,-0.0063169175,-0.00018180038,-0.049427,5000,5000,0,0,1,1
256501936,256501729,3407898,3407898,-0.00043794507,3.4522473e-05,0.00026221815,0.021083102,0.005328833,-0.06344619,5000,5000,0,0,1,1
257501926,257501729,3407898,3407898,-0.0004588527,-0.00017201796,0.00015394599,-0.0022386631,0.005800192,-0.056346256,5000,5000,0,0,1,1
258001910,258001729,3407898,3407898,0.0011802183,0.0012755643,4.1741234e-05,0.0032779234,0.016778076,-0.055235863,5000,5000,0,0,1,1
258501909,258501729,3407898,3407898,-0.00078811194,-0.000241919,-0.00026023792,-0.0061189835,-0.0035091254,-0.04210745,5000,5000,0,0,1,1
259001931,259001731,3407898,3407898,-0.0012032816,-0.00027727705,-0.00034459872,-0.00020350255,-0.0049912324,-0.042608473,5002,5002,0,0,1,1
259501924,259501729,3407898,3407898,0.0002479846,-0.00042206715,0.00017451729,0.0016780988,0.0050531253,-0.05033233,5000,5000,0,0,1,1
260001908,260001729,3407898,3407898,2.6262807e-05,-0.000637419,7.005677e-05,0.0025018537,0.0026570542,-0.05315225,5000,5000,0,0,1,1
260501912,260501729,3407898,3407898,0.0005813327,0.00040404347,-0.00069433753,-0.0024847335,-0.00029831537,-0.05819834,5000,5000,0,0,1,1
261001938,261001729,3407898,3407898,-0.00055485684,0.00090707827,0.00031682913,0.007810991,0.010195873,-0.053044714,5000,5000,0,0,1,1
261501927,261501729,3407898,3407898,0.0008333136,6.875024e-05,0.00013014999,-0.0025820828,0.0018295578,-0.041201442,5000,5000,0,0,1,1
262001905,262001729,3407898,3407898,0.00041513584,-7.3303363e-06,3.7661295e-05,0.0048644715,-0.00089543284,-0.061163653,5000,5000,0,0,1,1
262501910,262501729,3407898,3407898,-0.0004269645,-0.00022646067,0.00029557353,0.0018825452,-0.0023424216,-0.045271095,5000,5000,0,0,1,1
263001926,263001729,3407898,3407898,-0.00029370975,0.00014184686,0.00016332937,-0.015547431,0.0044134245,-0.06376641,5000,5000,0,0,1,1
263501923,263501729,3407898,3407898,-0.0009174188,0.00027738194,0.00028012702,-0.010426237,-0.008908406,-0.055161852,5000,5000,0,0,1,1
264001912,264001729,3407898,3407898,0.00063803594,0.00014055437,-0.0002875437,0.0060093515,0.011592422,-0.034783028,5000,5000,0,0,1,1
264501904,264501729,3407898,3407898,-0.0010105842,0.00076488015,-0.00061137014,-0.0099277925,0.004885531,-0.045607895,5000,5000,0,0,1,1
265001932,265001729,3407898,3407898,-0.00039484538,0.00028172252,0.0001964454,-0.0065752193,0.008122255,-0.05656451,5000,5000,0,0,1,1
265501926,265501729,3407898,3407898,-0.0004527877,0.00037411498,-0.00012238689,-0.013197746,-0.00616932,-0.06788893,5000,5000,0,0,1,1
266001907,266001729,3407898,3407898,0.00022379495,0.00088732375,7.658248e-05,-0.0028233747,-0.0029169465,-0.04391362,5000,5000,0,0,1,1
266501908,266501729,3407898,3407898,-0.00022845785,0.0003615808,-0.00013732201,0.005547935,0.003840396,-0.054506302,5000,5000,0,0,1,1
267001928,267001729,3407898,3407898,-0.00027004193,-0.00042546575,7.554386e-05,-0.010574417,-0.0010049505,-0.047223695,5000,5000,0,0,1,1
267501924,267501729,3407898,3407898,0.0001627338,-4.3523618e-05,7.4650416e-05,0.0019245566,-0.009657925,-0.056578606,5000,5000,0,0,1,1
268001909,268001729,3407898,3407898,0.00013843614,3.2326712e-05,-0.00012516107,4.6738907e-05,0.0028193784,-0.043371294,5000,5000,0,0,1,1
268501908,268501729,3407898,3407898,-0.000374089,-0.0006505648,-0.00020877666,-0.005385337,0.0021331552,-0.058524817,5000,5000,0,0,1,1
269001928,269001729,3407898,3407898,-0.00048526045,0.0023783774,0.0015877392,-0.0075912005,-0.010656203,-0.056785453,5000,5000,0,0,1,1
269501926,269501729,3407898,3407898,-0.00027097668,-0.00083313865,0.0043065418,-0.0011050238,-0.0068582594,-0.048737865,5000,5000,0,0,1,1
270001927,270001729,3407898,3407898,-2.74054e-05,-0.00031119058,0.0047760084,-0.00017291769,0.006383404,-0.05806934,5000,5000,0,0,1,1
270501925,270501729,3407898,3407898,8.7322274e-05,0.00035838532,0.0052032215,0.011469876,-0.007179501,-0.050909646,5000,5000,0,0,1,1
271001907,271001729,3407898,3407898,6.526163e-05,-3.851645e-05,0.0053521297,-0.009248812,0.004994767,-0.03842903,5000,5000,0,0,1,1
271501932,271501729,3407898,3407898,0.00010521951,-7.701028e-05,0.0048236763,0.018260842,0.00039374994,-0.035839908,5000,5000,0,0,1,1
272001931,272001729,3407898,3407898,-0.00039013397,-9.056362e-05,0.004640417,0.0047292104,0.008514991,-0.03880574,5000,5000,0,0,1,1
272501912,272501729,3407898,3407898,-0.00025782085,-0.00023245919,0.0046620867,0.0065257144,0.0014631163,-0.047391545,4999,4999,0,0,1,1
273001955,273001729,3407898,3407898,0.00044765076,-1.335769e-05,0.0048245923,0.0057507637,-0.008625179,-0.03982854,5000,5000,0,0,1,1
274001926,274001729,3407898,3407898,0.0003744192,0.00018877718,0.004616802,-0.0021803076,0.00712411,-0.05489665,5000,5000,0,0,1,1
274501925,274501730,3407898,3407898,-9.805868e-05,-9.554645e-05,0.005264329,-0.0029909571,0.0035214922,-0.0518613,5001,5001,0,0,1,1
275001908,275001729,3407898,3407898,-0.00017642003,7.5724805e-05,0.00523186,0.0048212367,-0.00642333,-0.04860888,5000,5000,0,0,1,1
275501924,275501729,3407898,3407898,-0.00021965384,0.00018504479,0.004779162,0.0019196197,-0.010747527,-0.04146133,5000,5000,0,0,1,1
276001927,276001729,3407898,3407898,-0.00024177406,-4.7481626e-05,0.004582441,0.01419849,0.0050172447,-0.049030703,5000,5000,0,0,1,1
276501914,276501729,3407898,3407898,-0.00012617689,-0.0004143243,0.005284225,0.00391331,0.0010776285,-0.037751544,5000,5000,0,0,1,1
277001915,277001729,3407898,3407898,-0.00016883783,-0.0004114329,0.0048094112,0.00024133654,-0.016153187,-0.065794,5000,5000,0,0,1,1
277501929,277501729,3407898,3407898,0.00021042269,0.00065189373,0.002558718,0.003158763,-0.00273551,-0.046235252,5000,5000,0,0,1,1
278001926,278001729,3407898,3407898,0.00028412754,0.00061040913,-0.00028694433,0.0056461156,-0.00094098254,-0.05886766,5000,5000,0,0,1,1
278501913,278501729,3407898,3407898,0.00048110328,-0.0005436997,-0.00068084156,-0.009272007,-0.0019211089,-0.044394705,5000,5000,0,0,1,1
279001909,279001729,3407898,3407898,-0.0006075114,-0.00013147398,-7.8470606e-05,0.00094453857,-0.0049485904,-0.042128038,5000,5000,0,0,1,1
279501926,279501729,3407898,3407898,5.2505166e-05,0.00039722997,-0.000117159616,0.010005807,-0.008507782,-0.036026597,5000,5000,0,0,1,1
280501908,280501728,3407898,3407898,-0.00019673194,-0.00021192292,-0.00018541464,0.0011589582,0.007557087,-0.048889462,4999,4999,0,0,1,1
281001909,281001729,3407898,3407898,6.401472e-05,-2.7937582e-05,0.00018007756,-0.0051231133,-0.00016501818,-0.05940096,5000,5000,0,0,1,1
281501926,281501729,3407898,3407898,-0.00016892221,-0.00029569265,-0.0002943515,-0.00057149533,-6.206072e-05,-0.052971907,5000,5000,0,0,1,1
282001926,282001729,3407898,3407898,0.00029101505,-8.523008e-05,0.00017269474,0.010086692,0.006278159,-0.04050704,5000,5000,0,0,1,1
282501918,282501729,3407898,3407898,-0.0004112802,-0.00016412626,0.00013627406,-0.0045800386,0.0010458421,-0.03424988,5000,5000,0,0,1,1
283001908,283001729,3407898,3407898,0.00016254782,-0.0002825876,0.00020533768,0.0027812796,-0.0013112922,-0.0408925,5000,5000,0,0,1,1
284001926,284001729,3407898,3407898,0.00027842555,0.0009830054,-0.010445448,-0.016838718,0.016463036,-0.0348556,5000,5000,0,0,1,1
284501907,284501729,3407898,3407898,-0.0005796647,-0.0013011579,-0.0034529879,-0.00087193726,-0.01583684,-0.04332744,5000,5000,0,0,1,1
285001908,285001729,3407898,3407898,-0.00023593262,0.00057317805,-0.00088135403,-0.008056525,0.010078123,-0.06890144,5000,5000,0,0,1,1
285501930,285501729,3407898,3407898,0.00013183229,-0.0004680051,0.00039490752,-0.0042007873,-0.006609255,-0.047604803,5000,5000,0,0,1,1
286001942,286001731,3407898,3407898,-0.000153215,-0.0006529337,0.0003424694,-0.019162241,0.0027418896,-0.066652045,5002,5002,0,0,1,1
286501907,286501729,3407898,3407898,-0.00080547604,-2.5802055e-05,0.00062684936,-0.009775164,-0.002900113,-0.045889214,5000,5000,0,0,1,1
287001912,287001729,3407898,3407898,-4.143506e-05,0.00038777976,7.952515e-05,-0.008876962,0.007784758,-0.038582787,5000,5000,0,0,1,1
287501927,287501729,3407898,3407898,-7.0078226e-05,-0.00022119167,-8.026161e-05,-0.0131078,-0.00039011767,-0.045505457,5000,5000,0,0,1,1
288001928,288001729,3407898,3407898,-0.00041639793,-0.0005703568,-0.00030864007,0.002021898,0.016944284,-0.056354545,5000,5000,0,0,1,1
288501910,288501729,3407898,3407898,-0.00054129865,-2.4356947e-05,-4.116522e-05,-0.019570442,0.009836665,-0.05397301,5000,5000,0,0,1,1
289001912,289001729,3407898,3407898,-7.4427815e-05,0.00031562202,-0.00012251872,-0.0054326514,-0.0027424316,-0.047450565,5000,5000,0,0,1,1
289501945,289501729,3407898,3407898,-0.00030589514,-0.00033961053,1.2464796e-05,0.009113591,0.0006504108,-0.037175816,5000,5000,0,0,1,1
290001931,290001729,3407898,3407898,0.0009767317,0.0006397264,-0.0006341381,0.021907022,-0.032500546,-0.04965027,5000,5000,0,0,1,1
290501909,290501729,3407898,3407898,-8.200127e-05,-0.0001967049,3.2933785e-05,0.010309689,-0.005121216,-0.034751005,5000,5000,0,0,1,1
291001917,291001729,3407898,3407898,-0.0002894446,0.00019895536,-0.0003379495,-0.0039398316,0.003471457,-0.047012947,5000,5000,0,0,1,1
291501941,291501729,3407898,3407898,-5.4144133e-05,4.4365766e-05,-0.000104534585,0.007872721,-0.010516669,-0.055251293,5000,5000,0,0,1,1
292001927,292001729,3407898,3407898,-0.00045967763,0.0009928239,-0.00035229634,-0.018180296,-0.0027031188,-0.033064887,5000,5000,0,0,1,1
292501909,292501729,3407898,3407898,0.001362357,0.00019942054,0.0008974944,-0.002141917,0.015041923,-0.042756427,4998,4998,0,0,1,1
293001909,293001729,3407898,3407898,-0.0002619135,0.000115184695,0.00012746095,0.015597597,-0.0048462525,-0.018367615,5000,5000,0,0,1,1
293501927,293501729,3407898,3407898,-0.00066593324,0.00051890325,-0.0005460647,-0.009086892,0.0059647956,-0.05028298,5000,5000,0,0,1,1
294001932,294001728,3407898,3407898,-0.00015941613,0.00015433032,0.00029328672,0.014164403,-0.009307292,-0.034880184,4999,4999,0,0,1,1
294501912,294501729,3407898,3407898,-0.00043410787,-0.00021952354,9.5582895e-05,0.0058167,-6.6724424e-05,-0.03507116,5000,5000,0,0,1,1
295001916,295001729,3407898,3407898,-0.00013168718,-0.00066680124,0.00012463726,-0.0027733224,-0.002527389,-0.049066365,5000,5000,0,0,1,1
295501946,295501729,3407898,3407898,-1.969662e-05,0.0002544119,-0.00015924704,-0.0021241917,0.014329534,-0.041650727,5000,5000,0,0,1,1
296001929,296001729,3407898,3407898,-0.003757983,-6.493341e-05,6.7729496e-05,-0.00074882596,-0.0035468964,-0.05275492,5000,5000,0,0,1,1
297001910,297001729,3407898,3407898,0.0024197276,-0.0005541835,-0.00016019867,0.009150118,0.005678801,-0.032967377,5000,5000,0,0,1,1
297501926,297501729,3407898,3407898,0.00017827972,0.0005317341,-0.00039409194,-0.023503289,0.0043756403,-0.039535224,5000,5000,0,0,1,1
298501911,298501729,3407898,3407898,-0.00045302245,-0.0012188946,-0.00010931744,-0.0027148854,-0.020468688,-0.035058815,5000,5000,0,0,1,1
299001911,299001729,3407898,3407898,7.311411e-05,0.00023962173,-0.00022886218,0.023326175,-0.015650606,-0.054801572,5000,5000,0,0,1,1
299501925,299501729,3407898,3407898,-0.00077259284,0.0005005294,0.00020173023,0.016560357,0.024013188,-0.0559649,5000,5000,0,0,1,1
300001961,300001729,3407898,3407898,2.940188e-05,0.0016073654,-0.0007351705,-0.0018104012,-0.008398498,-0.0646296,5000,5000,0,0,1,1
300501900,300501742,3407898,3407898,0.00029172772,0.0010874497,-0.00038218996,0.005342116,-0.015353359,-0.03293855,5013,5013,0,0,1,1
301001909,301001729,3407898,3407898,-4.6801622e-05,0.0002929418,0.00011302612,-0.0015246416,0.008586623,-0.035256147,5000,5000,0,0,1,1
301501908,301501729,3407898,3407898,-0.0004531706,-0.00018236453,-0.0001368123,0.0044448967,0.0034314292,-0.036162768,5000,5000,0,0,1,1
302001932,302001729,3407898,3407898,-0.000101985825,0.0002189626,3.5183588e-05,0.020796703,0.014022235,-0.046762533,5000,5000,0,0,1,1
302501926,302501729,3407898,3407898,0.00018855657,-0.0005965047,0.0002725839,-0.029534323,0.0041771815,-0.057651863,5000,5000,0,0,1,1
303001908,303001729,3407898,3407898,-0.00040288924,0.00068097544,4.1356e-05,-0.00047144337,0.00024190388,-0.054011166,5000,5000,0,0,1,1
303501911,303501729,3407898,3407898,1.879811e-05,-0.00016138538,-0.00020619638,-0.051304135,0.002377118,-0.050780993,4983,4983,0,0,1,1
304001932,304001729,3407898,3407898,0.0018149158,-0.00042782087,-0.0002178383,0.017854797,0.023195589,-0.05685437,5000,5000,0,0,1,1
304501943,304501729,3407898,3407898,-0.0018854208,0.0004286687,0.0002113728,0.026495952,0.028014159,-0.053900376,5000,5000,0,0,1,1
305001915,305001729,3407898,3407898,0.00072250166,-0.00019617713,0.00017041557,-0.008560115,-0.00040469933,-0.053424545,5000,5000,0,0,1,1
305501907,305501729,3407898,3407898,0.0011579401,-0.0003584766,0.00028414183,0.0026941388,-0.008836237,-0.064804904,5000,5000,0,0,1,1
306001943,306001729,3407898,3407898,-0.0004695155,4.9057155e-05,6.607799e-05,-0.0034743387,-0.004395622,-0.06464256,5000,5000,0,0,1,1
306501932,306501729,3407898,3407898,0.0003480735,0.00039960165,-0.0003004488,0.010087909,-0.006981479,-0.04980399,5000,5000,0,0,1,1
307001910,307001729,3407898,3407898,0.00048406614,-0.0002881154,-0.00022289473,-0.04834426,-0.027066959,-0.034755427,5000,5000,0,0,1,1
307501908,307501729,3407898,3407898,-0.00023706011,-0.0005008129,-0.00015554078,0.0045795715,0.0010708945,-0.07707331,5000,5000,0,0,1,1
308001940,308001729,3407898,3407898,-0.0021200401,0.0009699524,-6.15013e-06,-0.0055576283,0.00022058008,-0.0428295,5000,5000,0,0,1,1
308501926,308501729,3407898,3407898,0.0051655415,-0.0009493415,0.0009001973,0.014660386,0.0008404599,-0.057608135,5000,5000,0,0,1,1
309001918,309001729,3407898,3407898,-0.00020819678,-0.00026265497,0.00055184774,-0.013520251,-0.00749867,-0.072080694,5000,5000,0,0,1,1
309501909,309501729,3407898,3407898,-0.0018908413,0.0009156775,-0.00016041966,0.01626405,0.008907775,-0.043497223,5000,5000,0,0,1,1
310001930,310001729,3407898,3407898,-0.001657356,0.0010961413,-0.00048757726,-0.014572166,-0.013456294,-0.05313055,5000,5000,0,0,1,1
310501926,310501729,3407898,3407898,0.00053018663,-0.0004989021,-0.00019926637,-0.01047023,-0.0044761705,-0.056697905,5000,5000,0,0,1,1
311001909,311001729,3407898,3407898,0.0005298974,0.00014708297,0.00017974632,0.0014320698,-0.0057722824,-0.036065377,5000,5000,0,0,1,1
311501909,311501729,3407898,3407898,0.0006584126,-1.9277599e-05,0.00035525433,0.0022946764,-0.0052533573,-0.030656569,5000,5000,0,0,1,1
312001927,312001729,3407898,3407898,0.0020150184,-0.00032144933,4.6837515e-05,-0.0015241451,-0.010911709,-0.045241285,5000,5000,0,0,1,1
312501930,312501730,3407898,3407898,0.0028577037,-0.0007310038,0.00016791806,0.010570037,0.009867231,-0.0479699,5001,5001,0,0,1,1
313001917,313001729,3407898,3407898,0.0010213908,-0.0011397273,-9.0254856e-05,-0.01022557,0.017318547,-0.057426274,5000,5000,0,0,1,1
313501912,313501729,3407898,3407898,0.00029320028,0.00011829521,-0.00011114123,-0.0097881295,0.00052451,-0.051124223,5000,5000,0,0,1,1
314001926,314001729,3407898,3407898,0.0012554605,-6.881113e-05,0.00021175588,-0.0048958543,-0.00848496,-0.056954544,5000,5000,0,0,1,1
314501933,314501729,3407898,3407898,0.00026677456,-0.00033912197,3.4411853e-05,-0.0021390729,0.0015644098,-0.03243003,5000,5000,0,0,1,1
315001939,315001731,3407898,3407898,0.0014626087,0.0005441793,-2.846044e-05,0.0034588743,0.008936127,-0.0585529,5002,5002,0,0,1,1
315501916,315501729,3407898,3407898,1.5626503e-05,0.00010214883,-0.0007260104,-0.00030164793,0.009828268,-0.04028154,5000,5000,0,0,1,1
316001930,316001729,3407898,3407898,0.0012640372,-0.00041394273,0.00058015954,-0.0051356587,-0.0035242466,-0.023920685,5000,5000,0,0,1,1
316501927,316501729,3407898,3407898,-0.0014826385,0.0002614039,0.00012079696,-0.00356408,-0.01425985,-0.05496025,5000,5000,0,0,1,1
317001916,317001729,3407898,3407898,-0.00039474858,-0.0002410803,-0.00014390533,0.0025133358,-0.0029760983,-0.051027745,5000,5000,0,0,1,1
317501908,317501729,3407898,3407898,-4.4773864e-05,0.0001251666,-0.0001910858,-0.024774086,-0.0020194964,-0.064046234,5000,5000,0,0,1,1
318001928,318001729,3407898,3407898,-0.000103522325,-0.00032380587,0.00010565183,0.0003570984,-0.008248993,-0.037984572,5000,5000,0,0,1,1
318501927,318501729,3407898,3407898,-0.0006833335,0.00026330884,-5.288759e-06,-0.02371183,0.021932783,-0.042543758,5000,5000,0,0,1,1
319001907,319001729,3407898,3407898,-0.0004969996,-1.9424699e-05,-0.00019716787,0.012610889,0.006126656,-0.04513436,5000,5000,0,0,1,1
319501908,319501729,3407898,3407898,-0.0016435313,0.000112049966,-3.530176e-05,-0.0025563168,0.0055279485,-0.060374297,5000,5000,0,0,1,1
320001932,320001729,3407898,3407898,0.00029590313,0.00045135187,0.00038613076,-0.0028044533,0.0043314756,-0.062686436,5000,5000,0,0,1,1
320501925,320501729,3407898,3407898,0.0013912865,0.00015315706,0.00034074186,0.002555725,-0.0131645035,-0.045830112,5000,5000,0,0,1,1
321001909,321001729,3407898,3407898,-0.00032472092,0.0011310944,0.0007864532,-0.025183026,-0.0071258,-0.074928775,5000,5000,0,0,1,1
321501909,321501729,3407898,3407898,0.00040915163,0.00027511313,-0.00031044573,0.019360771,-0.0049194708,-0.017882293,5000,5000,0,0,1,1
322001924,322001729,3407898,3407898,-0.00036792486,0.0004396702,-0.0005111679,-0.010914874,-0.0034364944,-0.057988647,5000,5000,0,0,1,1
322501945,322501729,3407898,3407898,-0.00032462637,-0.0002644115,-0.00039032978,-0.010241285,-0.001124664,-0.029711518,5000,5000,0,0,1,1
323001915,323001729,3407898,3407898,0.00035829973,5.9923183e-05,-0.00026663218,-0.0058913175,-0.0109367715,-0.04376548,5000,5000,0,0,1,1
323501905,323501729,3407898,3407898,0.00036773164,-0.0005905201,6.6036278e-06,-0.0012514339,0.0073079714,-0.04377064,5000,5000,0,0,1,1
324001925,324001729,3407898,3407898,-0.0002482622,-0.0006129411,0.00031713545,0.0018695127,4.9327205e-05,-0.045736928,5000,5000,0,0,1,1
324501930,324501729,3407898,3407898,6.4859276e-05,0.00011885782,0.00012673473,-0.006827744,-0.01064183,-0.04204372,5000,5000,0,0,1,1
325001907,325001729,3407898,3407898,-0.0005990882,8.972072e-06,-0.00028854833,-0.005588675,0.0006511614,-0.055740602,5000,5000,0,0,1,1
325501911,325501729,3407898,3407898,-0.00025363165,-0.0001583702,-9.985423e-05,-0.006411595,0.00076280837,-0.050746173,5000,5000,0,0,1,1
326001926,326001729,3407898,3407898,-0.00020081899,-0.0030466982,-1.0983265e-05,-0.013929511,-0.0031666856,-0.05581337,5000,5000,0,0,1,1
326501937,326501729,3407898,3407898,0.00021823014,0.0003547462,8.175879e-05,-0.008666489,-0.001947259,-0.035709377,5000,5000,0,0,1,1
327001914,327001729,3407898,3407898,-0.00056119624,0.00027210842,0.00022024951,0.0056852275,-0.009136368,-0.051657207,5000,5000,0,0,1,1
327501909,327501729,3407898,3407898,-0.00040393005,0.00033759905,0.00017544653,0.0034629023,0.008085157,-0.055732373,5000,5000,0,0,1,1
328001925,328001729,3407898,3407898,-0.0005399119,-0.0008020232,-0.00018442595,-0.009858586,0.00091564644,-0.058886364,5000,5000,0,0,1,1
328501927,328501730,3407898,3407898,0.00032891365,2.9769444e-05,3.7550744e-05,0.0005068472,0.015988091,-0.0374741,5001,5001,0,0,1,1
329001917,329001729,3407898,3407898,-0.00034285936,0.00044305835,6.2905114e-05,-0.0024563866,0.0037056399,-0.044838384,5000,5000,0,0,1,1
330001947,330001729,3407898,3407898,-0.0026283949,0.00092787645,-0.00024089673,0.0036484527,-0.0032708393,-0.053476963,5000,5000,0,0,1,1
330501925,330501729,3407898,3407898,0.0037700506,-0.001461902,-6.150282e-06,-0.009789003,0.0032720643,-0.056242265,5000,5000,0,0,1,1
331001908,331001729,3407898,3407898,-0.0014745147,-0.0005471157,-0.00034799209,0.0020641643,0.0018463919,-0.04173902,5000,5000,0,0,1,1
331501913,331501729,3407898,3407898,0.0005527378,-0.000205137,0.00052553974,-0.008142113,-0.00044880869,-0.054837707,5000,5000,0,0,1,1
332001925,332001729,3407898,3407898,-0.0017785912,0.00019841023,-0.00016820463,-0.0006432901,0.005848261,-0.046396248,5000,5000,0,0,1,1
332501953,332501729,3407898,3407898,-0.00020663223,-0.0003327,6.26497e-05,0.0062174965,0.0052276077,-0.047893196,4955,4955,0,0,1,1
333001909,333001729,3407898,3407898,0.0021209442,-0.0015332293,-4.4796034e-05,0.013950718,-0.004294382,-0.05323763,4999,4999,0,0,1,1
333501923,333501729,3407898,3407898,-0.0015763899,0.0008679355,-9.153527e-05,0.016950112,0.0020790787,-0.04574893,5000,5000,0,0,1,1
334001907,334001729,3407898,3407898,-9.812875e-05,-0.00037245016,0.0008330884,0.0030761843,0.01054259,-0.050101507,5000,5000,0,0,1,1
334501926,334501729,3407898,3407898,-0.0005677853,-0.0012579856,8.350173e-05,-0.003372383,-0.010357806,-0.04605086,5000,5000,0,0,1,1
335001928,335001729,3407898,3407898,1.3425593e-05,0.0009051875,0.00010912373,-0.0056467103,-0.012943958,-0.043227177,4980,4980,0,0,1,1
335501910,335501729,3407898,3407898,-0.000104303836,0.0003594533,-1.84901e-05,-0.018373426,-0.016585514,-0.04579376,5000,5000,0,0,1,1
336001906,336001729,3407898,3407898,-0.00012804335,0.0011346801,0.00067117106,-0.004852039,-0.003028216,-0.037359066,4970,4970,0,0,1,1
336501943,336501729,3407898,3407898,-0.00036534423,-9.253811e-05,0.0009369585,-0.015135534,-0.0008008763,-0.06259901,4978,4978,0,0,1,1
337001924,337001729,3407898,3407898,-0.00013695298,8.232128e-05,0.00019123395,0.0014958065,-0.008916224,-0.049406786,5000,5000,0,0,1,1
337501907,337501729,3407898,3407898,7.109184e-05,0.00025314846,-9.592131e-05,-0.0098423725,-0.016192388,-0.038661096,5000,5000,0,0,1,1
338001909,338001729,3407898,3407898,0.00094548013,-0.0011517873,0.0011712121,0.0044219214,-0.02482864,-0.048680563,4965,4965,0,0,1,1
338501926,338501729,3407898,3407898,-0.00054825656,0.0011385815,0.00060761825,0.010293439,0.036982954,-0.046632152,4988,4988,0,0,1,1
339501908,339501729,3407898,3407898,6.130695e-05,0.00022217481,4.3035943e-05,0.0010814259,-0.0027097592,-0.016797414,5000,5000,0,0,1,1
340001908,340001729,3407898,3407898,2.7127473e-05,9.7463475e-05,6.694288e-05,0.0007681494,-0.0033943327,-0.03540285,5000,5000,0,0,1,1
340501926,340501729,3407898,3407898,3.7880396e-05,0.0003259153,-0.00011590673,0.0127361985,-0.002392874,-0.04161998,5000,5000,0,0,1,1
341001933,341001729,3407898,3407898,-0.00017403296,-0.00019167227,2.559988e-05,-0.00366571,-0.008640543,-0.052702226,5000,5000,0,0,1,1
341501906,341501729,3407898,3407898,-0.00014839425,4.157933e-05,2.2647073e-05,0.001110137,0.014171383,-0.04535153,5000,5000,0,0,1,1
342001908,342001729,3407898,3407898,1.0241288e-07,-0.0002890396,1.4746813e-05,0.0006237889,0.003461701,-0.043174475,5000,5000,0,0,1,1
342501925,342501729,3407898,3407898,-1.1433377e-05,-0.00017411314,1.17274785e-05,0.0006789734,-0.0021105383,-0.042865265,5001,5001,0,0,1,1
343001924,343001729,3407898,3407898,-0.00013686548,-0.00019085739,-3.4225106e-06,0.0060518193,0.0006079538,-0.035026737,5000,5000,0,0,1,1
343501921,343501729,3407898,3407898,-6.0842463e-06,0.00027330872,-5.0888275e-06,-0.00060937135,-0.00014234715,-0.0485711,5000,5000,0,0,1,1
344001912,344001729,3407898,3407898,0.00043183187,0.00028918547,-8.676614e-05,-0.0027947007,0.0019370882,-0.052751534,4996,4996,0,0,1,1
344501948,344501729,3407898,3407898,4.581216e-06,-9.5866235e-05,4.4115e-05,-0.004180802,0.016922936,-0.04112212,4995,4995,0,0,1,1
345001926,345001729,3407898,3407898,-0.00019355412,-0.0001580453,-5.8884907e-05,-0.00023479151,0.0011969763,-0.058926895,5000,5000,0,0,1,1
345501914,345501729,3407898,3407898,3.725838e-05,-0.00019503213,-3.0047537e-05,-0.0073899394,-0.005758565,-0.042670134,5000,5000,0,0,1,1
346001907,346001729,3407898,3407898,0.00010361353,-0.00035122316,0.00017572114,-0.00067869056,0.0026903476,-0.051971983,5000,5000,0,0,1,1
346501925,346501729,3407898,3407898,-0.00019277613,-0.00022425293,-6.6009845e-05,-0.0036574714,-0.003762896,-0.03757009,5000,5000,0,0,1,1
347001929,347001729,3407898,3407898,-4.625224e-05,-0.00040915303,7.6222415e-05,-0.009002226,0.0020920832,-0.06193841,4998,4998,0,0,1,1
347501916,347501729,3407898,3407898,-0.00019294805,0.0003234063,-6.104618e-05,0.00770494,0.0018994196,-0.041765857,5000,5000,0,0,1,1
348001909,348001729,3407898,3407898,5.9995607e-05,-0.00020210276,0.00032621506,0.002198638,0.0037540002,-0.042775877,5000,5000,0,0,1,1
348501927,348501729,3407898,3407898,-0.000112419766,0.00011476547,-5.1968273e-05,0.0023100046,8.796446e-05,-0.048575692,5000,5000,0,0,1,1
349001947,349001729,3407898,3407898,-2.037723e-05,-0.00011482146,0.00018039637,-0.00083313783,0.0047972905,-0.056236837,4957,4957,0,0,1,1
349501908,349501729,3407898,3407898,0.00015312525,-2.9051385e-05,2.6237285e-05,0.0024663892,-0.009955849,-0.051183823,5000,5000,0,0,1,1
350001917,350001730,3407898,3407898,2.5530091e-05,-0.00029125222,0.00016706366,0.0029434015,0.002194829,-0.041425273,4999,4999,0,0,1,1
350501925,350501729,3407898,3407898,-5.053185e-05,-3.6100373e-05,-8.4507275e-07,0.002107339,0.0024083324,-0.054330863,5000,5000,0,0,1,1
351001925,351001729,3407898,3407898,-0.00017303783,5.4362536e-05,-4.3279e-05,0.0030692678,0.0016351063,-0.035906255,5000,5000,0,0,1,1
351501909,351501729,3407898,3407898,-3.0292871e-05,-0.00024338631,4.655902e-05,0.0009845244,0.0029801344,-0.052584462,4988,4988,0,0,1,1
352001908,352001729,3407898,3407898,-0.00012156435,-2.1200958e-06,2.5923773e-05,0.0011696318,0.0020030555,-0.04505451,4968,4968,0,0,1,1
352501927,352501729,3407898,3407898,3.0447662e-05,0.000130286,-6.6750994e-07,-0.001316099,0.0008852421,-0.06339344,5000,5000,0,0,1,1
353001930,353001729,3407898,3407898,1.6836739e-05,5.2544624e-06,4.0201005e-05,-0.0004011151,0.003147865,-0.050684724,5000,5000,0,0,1,1
353501910,353501729,3407898,3407898,4.7980397e-05,-7.8260935e-05,9.903438e-05,-0.0042679715,0.003590463,-0.053055603,5000,5000,0,0,1,1
354001906,354001729,3407898,3407898,-4.58868e-05,0.00014821472,7.70703e-05,-0.0015637993,0.0016039792,-0.05007121,5000,5000,0,0,1,1
354501925,354501729,3407898,3407898,1.5665088e-05,5.622964e-05,-3.617328e-05,-7.371376e-05,0.0013404534,-0.048909675,4977,4977,0,0,1,1
355001925,355001729,3407898,3407898,-2.4142553e-05,2.4968169e-05,-2.959333e-05,0.00011775164,0.001389369,-0.049039207,4988,4988,0,0,1,1
355501944,355501729,3407898,3407898,-2.3003966e-05,-1.6319747e-05,2.0997182e-05,0.00019248162,0.0015780278,-0.049100522,5000,5000,0,0,1,1
356001909,356001729,3407898,3407898,-3.096781e-05,-7.862866e-06,3.3013166e-06,0.00019639562,0.001634629,-0.049195565,5000,5000,0,0,1,1
356501923,356501729,3407898,3407898,-2.3784401e-05,-7.627473e-06,6.561262e-06,0.00025573163,0.0016569716,-0.04912785,4995,4995,0,0,1,1
357001923,357001729,3407898,3407898,-3.2151514e-05,-8.832182e-06,8.506598e-06,0.00018780239,0.0015789146,-0.04911498,5000,5000,0,0,1,1
357501909,357501729,3407898,3407898,-2.3143799e-05,-1.1605578e-05,2.8300303e-06,0.00014946255,0.001594184,-0.04927555,4999,4999,0,0,1,1
358001908,358001728,3407898,3407898,-2.3387494e-05,-8.229727e-06,7.940949e-06,9.235268e-05,0.0015628999,-0.049245454,4998,4998,0,0,1,1
359001926,359001729,3407898,3407898,-2.6097823e-05,-6.0841603e-06,8.412481e-06,0.0001526378,0.0015899169,-0.049218405,5000,5000,0,0,1,1
359501913,359501730,3407898,3407898,-3.0423686e-05,-3.2583155e-06,3.3022643e-06,0.000114667004,0.0016212807,-0.04930881,5000,5000,0,0,1,1
360001931,360001730,3407898,3407898,-2.4911315e-05,-4.9920845e-06,1.0036369e-05,0.00018916542,0.001533698,-0.049236245,5000,5000,0,0,1,1
