timestamp,timestamp_sample,gyro_device_id,gyro_bias[0],gyro_bias[1],gyro_bias[2],gyro_bias_limit,gyro_bias_variance[0],gyro_bias_variance[1],gyro_bias_variance[2],accel_device_id,accel_bias[0],accel_bias[1],accel_bias[2],accel_bias_limit,accel_bias_variance[0],accel_bias_variance[1],accel_bias_variance[2],mag_device_id,mag_bias[0],mag_bias[1],mag_bias[2],mag_bias_limit,mag_bias_variance[0],mag_bias_variance[1],mag_bias_variance[2],gyro_bias_valid,gyro_bias_stable,accel_bias_valid,accel_bias_stable,mag_bias_valid,mag_bias_stable
199102435,198911729,3407898,-0.0046237274,-0.0010495489,0.0009983261,0.15,1.8840792e-07,1.8855629e-07,3.9540708e-07,3407898,-0.0039737914,-0.010615724,-0.03503275,0.4,0.001917543,0.0019703407,1.4155381e-05,466953,0.001795747,-0.0012861212,-0.0069877403,0.5,0.0011606478,0.0011571766,0.0012501307,1,1,1,0,1,0
201122174,200931731,3407898,-0.004619752,-0.0010520455,0.0009812022,0.15,1.885852e-07,1.8872231e-07,3.9546794e-07,3407898,-0.003967822,-0.010619278,-0.035087984,0.4,0.0019177309,0.0019705289,1.4124964e-05,466953,0.0018466623,-0.0012830636,-0.0069813277,0.5,0.0011605511,0.0011570562,0.0012501241,1,1,1,0,1,0
202132316,201941729,3407898,-0.0046185474,-0.001049627,0.0009641547,0.15,1.8869994e-07,1.8883185e-07,3.955047e-07,3407898,-0.003969103,-0.010611409,-0.03502963,0.4,0.0019178231,0.0019706227,1.4109916e-05,466953,0.001894976,-0.001297728,-0.0069798296,0.5,0.0011604138,0.0011569057,0.0012501209,1,1,1,0,1,0
203142419,202951729,3407898,-0.0046166508,-0.0010441005,0.0009464012,0.15,1.879097e-07,1.8804984e-07,3.9550193e-07,3407898,-0.0039723124,-0.010600977,-0.034963306,0.4,0.0019179127,0.0019707142,1.4085052e-05,466953,0.0019396594,-0.0013320965,-0.006976094,0.5,0.0011601797,0.0011566661,0.0012501183,1,1,1,0,1,0
204152226,203961729,3407898,-0.0046131075,-0.001052405,0.00092979526,0.15,1.8799743e-07,1.8814366e-07,3.9554538e-07,3407898,-0.0039673736,-0.010593402,-0.03490539,0.4,0.0019180018,0.0019708052,1.4070772e-05,466953,0.0020455844,-0.0013210067,-0.0069726035,0.5,0.0011599449,0.0011564197,0.0012501155,1,1,1,0,1,0
205162448,204971729,3407898,-0.004631009,-0.0010567526,0.000907622,0.15,1.8881137e-07,1.8895824e-07,3.9857346e-07,3407898,-0.00398638,-0.010589922,-0.03479884,0.4,0.0019180903,0.0019708946,1.4056378e-05,466953,0.002095393,-0.001479244,-0.006981311,0.5,0.0011596706,0.0011560958,0.0012501002,1,0,1,0,1,0
205742649,205551729,3407898,-0.0046414454,-0.0010595096,0.00089234463,0.15,1.8902598e-07,1.8917244e-07,4.0043082e-07,3407898,-0.0040172143,-0.01054492,-0.03472863,0.4,0.0019181127,0.0019709107,1.40461825e-05,466953,0.0023892194,-0.0025481428,-0.007208798,0.5,0.00115289,0.0011454204,0.0012459436,1,0,1,0,1,0
205882416,205691729,3407898,-0.0046359147,-0.0010599035,0.0008880551,0.15,1.8944843e-07,1.8960944e-07,4.0082398e-07,3407898,-0.004031809,-0.0105213085,-0.03472509,0.4,0.0019180904,0.001970877,1.4048019e-05,466953,0.0027992842,-0.0037984818,-0.0074265664,0.5,0.0011461772,0.0011321675,0.0012375781,1,0,1,0,1,0
205952507,205761729,3407898,-0.0046361303,-0.0010675375,0.0008840627,0.15,1.8920699e-07,1.8941107e-07,4.0096285e-07,3407898,-0.0041048154,-0.010545397,-0.03473076,0.4,0.001918036,0.0019708239,1.404395e-05,466953,0.002460089,-0.005058921,-0.0075238906,0.5,0.0011371681,0.0011202416,0.0012338217,1,0,1,0,1,0
206092432,205901729,3407898,-0.004636754,-0.0010707686,0.0008797896,0.15,1.8961902e-07,1.8987373e-07,4.0132926e-07,3407898,-0.004160958,-0.010546343,-0.034733005,0.4,0.0019179553,0.0019707442,1.4045503e-05,466953,0.002872794,-0.0060471357,-0.0076502617,0.5,0.0011249904,0.0011039806,0.0012307495,1,0,1,0,1,0
206242666,206051729,3407898,-0.0046390546,-0.0010800201,0.0008744567,0.15,1.892361e-07,1.8964538e-07,4.0171224e-07,3407898,-0.004264294,-0.0106061,-0.03474156,0.4,0.0019177607,0.001970509,1.4037741e-05,466953,0.0024985326,-0.0073553617,-0.0076986672,0.5,0.0011040752,0.001077146,0.0012302414,1,0,1,0,1,0
206882465,206691729,3407898,-0.004645587,-0.0010814116,0.0008607787,0.15,1.8989402e-07,1.9019609e-07,4.0385336e-07,3407898,-0.0043048165,-0.0106216865,-0.034758944,0.4,0.0019166293,0.0019691826,1.4026955e-05,466953,0.003957108,-0.008067148,-0.007691873,0.5,0.00105419,0.0009948133,0.0012293013,1,0,1,0,1,0
207142358,206951729,3407898,-0.0046510133,-0.0010716026,0.0008580405,0.15,1.8962395e-07,1.8976024e-07,4.0518597e-07,3407898,-0.004311291,-0.010491488,-0.03477399,0.4,0.0019155707,0.001968236,1.4015374e-05,466953,0.0034904294,-0.009054126,-0.007755241,0.5,0.0010271445,0.00095979386,0.0012289544,1,0,1,0,1,0
207382457,207191729,3407898,-0.0046587014,-0.0010784147,0.0008529893,0.15,1.9004563e-07,1.9014287e-07,4.0608018e-07,3407898,-0.004471519,-0.010575023,-0.034788776,0.4,0.0019145509,0.0019674557,1.4012539e-05,466953,0.0044097095,-0.00963811,-0.007815198,0.5,0.000990992,0.00091268204,0.0012286435,1,0,1,0,1,0
207542388,207351730,3407898,-0.0046551595,-0.0010671911,0.00085101137,0.15,1.897293e-07,1.8990183e-07,4.0692163e-07,3407898,-0.004273343,-0.010397302,-0.03479239,0.4,0.0019133446,0.0019665998,1.4003116e-05,466953,0.0040478846,-0.0105965305,-0.007886779,0.5,0.00096836075,0.000888143,0.0012285231,1,0,1,0,1,0
207672517,207481729,3407898,-0.004663535,-0.0010782889,0.00084808125,0.15,1.9004509e-07,1.9029102e-07,4.0748887e-07,3407898,-0.004533881,-0.010573562,-0.034798957,0.4,0.0019126858,0.0019661672,1.4002257e-05,466953,0.0050755977,-0.010442399,-0.00786669,0.5,0.0009524586,0.00086895976,0.0012284062,1,0,1,0,1,0
207742643,207551729,3407898,-0.004672946,-0.0010692531,0.00084839406,0.15,1.8980197e-07,1.9014374e-07,4.078007e-07,3407898,-0.0046956693,-0.010352227,-0.034801964,0.4,0.0019120362,0.001965736,1.3996468e-05,466953,0.004166852,-0.011438133,-0.00790343,0.5,0.00094231404,0.00085898605,0.0012283056,1,0,1,0,1,0
208022417,207831729,3407898,-0.0046765427,-0.0010654972,0.00084392994,0.15,1.9066763e-07,1.9128754e-07,4.0903672e-07,3407898,-0.0046775853,-0.010247795,-0.034800276,0.4,0.0019107802,0.0019649158,1.39958e-05,466953,0.004363817,-0.012580259,-0.008159059,0.5,0.0009205553,0.0008333839,0.0012265419,1,0,1,0,1,0
208142460,207951731,3407898,-0.0046806056,-0.0010784159,0.0008419443,0.15,1.900383e-07,1.9097999e-07,4.0977787e-07,3407898,-0.004804586,-0.010507432,-0.03481236,0.4,0.0019096341,0.001964147,1.3982015e-05,466953,0.005472987,-0.012042876,-0.00821522,0.5,0.00090788584,0.0008241536,0.0012253796,1,0,1,0,1,0
208312242,208121729,3407898,-0.0046904995,-0.0010802465,0.00084019906,0.15,1.9078296e-07,1.9188337e-07,4.105673e-07,3407898,-0.005003902,-0.010435588,-0.03479654,0.4,0.0019091568,0.0019637586,1.3984418e-05,466953,0.0,0.0,0.0,0.5,0.0025000002,0.0025000002,0.0025000002,1,0,1,0,1,0
208382421,208191728,3407898,-0.0046922434,-0.0010785774,0.00084059226,0.15,1.9057836e-07,1.9180291e-07,4.112429e-07,3407898,-0.0050460645,-0.010333756,-0.034797832,0.4,0.0019075872,0.0019621747,1.3976638e-05,466953,0.00098334,0.0002813571,-0.00930405,0.5,0.0017520644,0.0017554268,0.0016668737,1,0,1,0,1,0
208452490,208261729,3407898,-0.0046846154,-0.001081711,0.00083934807,0.15,1.903972e-07,1.917395e-07,4.119198e-07,3407898,-0.004922189,-0.010427324,-0.034799065,0.4,0.0019070699,0.0019616704,1.3970274e-05,466953,0.0010478778,0.00023182016,-0.011202813,0.5,0.0016185809,0.0016217057,0.0015002755,1,0,1,0,1,0
208602446,208411729,3407898,-0.0046685445,-0.0010719072,0.0008385633,0.15,1.910017e-07,1.9245653e-07,4.133972e-07,3407898,-0.0046074796,-0.010378036,-0.034796454,0.4,0.001906704,0.0019612885,1.3970033e-05,466953,0.0012680221,0.0004910585,-0.012548808,0.5,0.0015299198,0.0015355351,0.0013891255,1,0,1,0,1,0
208812456,208621729,3407898,-0.004682869,-0.0010885228,0.0008384477,0.15,1.9132166e-07,1.9299806e-07,4.1545502e-07,3407898,-0.0049017672,-0.010403498,-0.034758996,0.4,0.0019063172,0.0019608226,1.3963462e-05,466953,0.00064808957,-5.172776e-05,-0.013276147,0.5,0.001483598,0.0014917909,0.0013329422,1,0,1,0,1,0
208952417,208761729,3407898,-0.004664858,-0.0010840537,0.0008370072,0.15,1.909699e-07,1.9285845e-07,4.168166e-07,3407898,-0.004711193,-0.010410458,-0.03474097,0.4,0.0019060982,0.0019604939,1.3951191e-05,466953,0.0011132307,0.0008100819,-0.013536625,0.5,0.0014636263,0.0014739588,0.0013130142,1,0,1,0,1,0
209142383,208951729,3407898,-0.0046805334,-0.0010817428,0.0008387308,0.15,1.9126425e-07,1.9315489e-07,4.1868145e-07,3407898,-0.004822705,-0.010345512,-0.034710404,0.4,0.0019059815,0.0019602221,1.39424355e-05,466953,-0.00025491283,-0.00049113546,-0.01355195,0.5,0.0014387935,0.0014527589,0.0012969155,1,0,1,0,1,0
209342360,209151729,3407898,-0.0046881572,-0.0010770905,0.00083977217,0.15,1.9214066e-07,1.934682e-07,4.206519e-07,3407898,-0.00487003,-0.010308679,-0.034681786,0.4,0.0019059031,0.0019599413,1.3934333e-05,466953,-0.0015408838,-0.001797325,-0.0135907475,0.5,0.0013975783,0.0014158946,0.0012776611,1,0,1,0,1,0
209442413,209251729,3407898,-0.004682723,-0.001075102,0.00083951163,0.15,1.9279788e-07,1.9359067e-07,4.216398e-07,3407898,-0.0048222337,-0.010261452,-0.034667443,0.4,0.0019058734,0.0019597874,1.3929908e-05,466953,-0.0003729951,-0.00059509824,-0.013746258,0.5,0.0013769909,0.001395595,0.0012722925,1,0,1,0,1,0
209832427,209641729,3407898,-0.0046832664,-0.0010800656,0.00083929196,0.15,1.9621254e-07,1.9384001e-07,4.2550238e-07,3407898,-0.0048634545,-0.010241,-0.034632485,0.4,0.001905761,0.0019590696,1.3912072e-05,466953,-0.0012668108,-0.0011374224,-0.013845674,0.5,0.0012882423,0.0013105223,0.0012497308,1,0,1,0,1,0
210232457,210041729,3407898,-0.004681575,-0.0010794995,0.000839249,0.15,2.000454e-07,1.9399343e-07,4.2947372e-07,3407898,-0.004961259,-0.010111025,-0.034553207,0.4,0.0019054892,0.0019579562,1.38942205e-05,466953,-0.0025302977,-0.0022412168,-0.013879526,0.5,0.0011775861,0.0012184229,0.0012241094,1,0,1,0,1,0
211242377,211051729,3407898,-0.0046832124,-0.0010758725,0.0008402519,0.15,2.0954936e-07,1.9432436e-07,4.395067e-07,3407898,-0.0047911513,-0.009812074,-0.034441624,0.4,0.0019040826,0.001950453,1.38429605e-05,466953,-0.002410285,-0.0021094463,-0.0140589215,0.5,0.0010200985,0.001056666,0.0012052883,1,0,1,0,1,0
212142369,211951729,3407898,-0.0046735355,-0.0010539029,0.0008396745,0.15,2.1643163e-07,1.9460298e-07,4.4839464e-07,3407898,-0.004377847,-0.008815444,-0.03433274,0.4,0.0018990384,0.0019372929,1.3787299e-05,466953,-0.002991104,-0.0020315899,-0.014251058,0.5,0.0009291361,0.00097392633,0.0011723987,1,0,1,0,1,0
212742609,212551729,3407898,-0.0046605268,-0.0010645984,0.0008378779,0.15,2.1683174e-07,1.9543701e-07,4.5418685e-07,3407898,-0.003430974,-0.0075132963,-0.03398006,0.4,0.0018899108,0.0019263213,1.3748968e-05,466953,-0.0038771692,-0.0022701751,-0.01430203,0.5,0.000888203,0.0009537924,0.0011324987,1,0,1,0,1,0
213342417,213151729,3407898,-0.004666358,-0.001031218,0.0008398501,0.15,2.0684529e-07,1.9598853e-07,4.595774e-07,3407898,-0.0035447385,-0.005296542,-0.033685297,0.4,0.0018780715,0.0019167679,1.3716749e-05,466953,-0.0037419088,-0.0022120194,-0.014638451,0.5,0.00078076206,0.0009398479,0.0009807281,1,0,1,0,1,0
213742583,213551729,3407898,-0.004689355,-0.001012744,0.0008450584,0.15,1.9908863e-07,1.9590173e-07,4.6307503e-07,3407898,-0.004050382,-0.004507346,-0.03356839,0.4,0.0018721767,0.0019117298,1.3697665e-05,466953,-0.0033964124,-0.0018052879,-0.015502933,0.5,0.00073259184,0.00092914293,0.00091767375,1,0,1,0,1,0
214752451,214561729,3407898,-0.004686481,-0.00100721,0.0008473823,0.15,1.9586219e-07,1.9590081e-07,4.726007e-07,3407898,-0.003992921,-0.004346541,-0.033536248,0.4,0.0018664065,0.0019034344,1.3661925e-05,466953,-0.0034273819,-0.0012449594,-0.016371539,0.5,0.0006844503,0.00089660805,0.0008775147,1,1,1,0,1,0
215762170,215571728,3407898,-0.00471216,-0.0010343116,0.0008500674,0.15,1.9888977e-07,1.9650876e-07,4.8240014e-07,3407898,-0.004605491,-0.005108758,-0.033638585,0.4,0.0018636854,0.0018983695,1.3641612e-05,466953,-0.003559399,-0.0010099581,-0.01635649,0.5,0.0006710182,0.00087130524,0.0008730903,1,1,1,0,1,0
216772237,216581729,3407898,-0.004757246,-0.0010546164,0.0008468643,0.15,2.0010889e-07,1.961173e-07,4.920327e-07,3407898,-0.0052370597,-0.005700831,-0.033757612,0.4,0.0018610234,0.0018960013,1.36227945e-05,466953,-0.0040181414,-0.0009756243,-0.016131341,0.5,0.00064633496,0.00086215086,0.00083357614,1,1,1,0,1,0
217432422,217241729,3407898,-0.004757752,-0.0010416019,0.00084476126,0.15,1.9825112e-07,1.9480444e-07,4.982559e-07,3407898,-0.0061411187,-0.0062978934,-0.033937015,0.4,0.0018581492,0.0018950952,1.3599841e-05,466953,-0.0041315267,-0.0009901593,-0.016367754,0.5,0.00063709007,0.0008586908,0.0008200927,1,1,1,0,1,0
218112354,217921729,3407898,-0.0047343983,-0.0010132011,0.00084732095,0.15,1.9833976e-07,1.9511867e-07,5.047111e-07,3407898,-0.006743841,-0.006703249,-0.034057487,0.4,0.0018550077,0.0018944475,1.3593771e-05,466953,-0.004746844,-0.00036605672,-0.015715407,0.5,0.00061343994,0.00085118023,0.00078456127,1,1,1,0,1,0
218752419,218561729,3407898,-0.0047539826,-0.0010535113,0.00083700166,0.15,1.9509449e-07,1.9432257e-07,5.102928e-07,3407898,-0.007515963,-0.0068312,-0.034140594,0.4,0.001850177,0.0018936923,1.357813e-05,466953,-0.0052839494,-0.0008187323,-0.016539635,0.5,0.00052964623,0.0008418967,0.0006549571,1,1,1,0,1,0
219632359,219441729,3407898,-0.004763536,-0.0009833641,0.00083716074,0.15,1.9365784e-07,1.9369841e-07,5.1840766e-07,3407898,-0.008242015,-0.007539249,-0.034257423,0.4,0.0018424926,0.0018925887,1.3568418e-05,466953,-0.0054629096,-0.00061505445,-0.01633347,0.5,0.0005270814,0.00083927246,0.0006520607,1,1,1,0,1,0
220642251,220451729,3407898,-0.0047365576,-0.00092436426,0.0008391725,0.15,1.9364107e-07,1.9347164e-07,5.2757355e-07,3407898,-0.008816458,-0.008170594,-0.034314416,0.4,0.0018308696,0.0018907965,1.3566083e-05,466953,-0.0055541433,-0.00015185097,-0.016025899,0.5,0.0005235963,0.00083630503,0.00064795313,1,1,1,0,1,0
221042604,220851729,3407898,-0.0047303014,-0.00090498885,0.0008391011,0.15,1.9348259e-07,1.9320179e-07,5.3083426e-07,3407898,-0.009793563,-0.008545184,-0.03439257,0.4,0.0018253466,0.0018900521,1.3566491e-05,466953,-0.005518053,-5.7258265e-05,-0.015964601,0.5,0.0005215518,0.0008354625,0.00064491906,1,1,1,0,1,0
221442429,221251730,3407898,-0.0047176126,-0.0008880159,0.00083692407,0.15,1.933176e-07,1.9292756e-07,5.336805e-07,3407898,-0.010911135,-0.008942481,-0.034476712,0.4,0.0018193591,0.0018892456,1.3567318e-05,466953,-0.0054485914,8.450301e-05,-0.01600831,0.5,0.0005179292,0.00083454035,0.00063948944,1,1,1,0,1,0
221842358,221651729,3407898,-0.004711028,-0.0008966888,0.00083472114,0.15,1.9326521e-07,1.9269581e-07,5.3614997e-07,3407898,-0.01197514,-0.00899211,-0.03455639,0.4,0.0018135104,0.001888618,1.3569059e-05,466953,-0.005299747,0.00014112357,-0.016129602,0.5,0.000512995,0.0008303697,0.0006344539,1,1,1,0,1,0
222242384,222051730,3407898,-0.0047090133,-0.00090330606,0.0008354416,0.15,1.9337377e-07,1.9251303e-07,5.3866444e-07,3407898,-0.013076283,-0.00907692,-0.03464553,0.4,0.0018081348,0.0018881575,1.3570846e-05,466953,-0.005278869,0.00021919179,-0.016218157,0.5,0.00050995714,0.0008253133,0.0006328054,1,1,1,0,1,0
222742430,222551730,3407898,-0.0047139665,-0.00091979554,0.0008370859,0.15,1.9354991e-07,1.9231622e-07,5.4220124e-07,3407898,-0.014139908,-0.009103106,-0.034737468,0.4,0.0018022687,0.0018878396,1.357459e-05,466953,-0.005287563,0.00029909096,-0.016220082,0.5,0.0005064413,0.00081605476,0.0006318757,1,1,1,0,1,0
223342506,223151729,3407898,-0.004730316,-0.00094374083,0.0008420141,0.15,1.9356519e-07,1.9206671e-07,5.4694465e-07,3407898,-0.015221286,-0.009077962,-0.03484345,0.4,0.00179631,0.0018874211,1.3577014e-05,466953,-0.005282026,0.00016621636,-0.016271269,0.5,0.0005052535,0.0008135381,0.0006308619,1,1,1,0,1,1
223942357,223751729,3407898,-0.004734997,-0.00095955207,0.0008442878,0.15,1.9347134e-07,1.9184826e-07,5.519417e-07,3407898,-0.016373806,-0.009197063,-0.03497009,0.4,0.0017914313,0.0018867784,1.3576796e-05,466953,-0.005287508,2.2746903e-05,-0.016247718,0.5,0.00050290104,0.0008096775,0.00062811247,1,1,1,0,1,1
224952213,224761729,3407898,-0.004754597,-0.00096666545,0.00084937556,0.15,1.934854e-07,1.9173423e-07,5.5997145e-07,3407898,-0.017215041,-0.009377959,-0.035092756,0.4,0.0017854193,0.0018858726,1.3574007e-05,466953,-0.005341131,-2.889215e-05,-0.01627246,0.5,0.00049746194,0.00080136885,0.00062186574,1,1,1,0,1,1
225962178,225771728,3407898,-0.00476395,-0.0009907548,0.0008487379,0.15,1.9319302e-07,1.9154267e-07,5.6777503e-07,3407898,-0.01768332,-0.0093191955,-0.03516793,0.4,0.0017799577,0.0018835843,1.3564396e-05,466953,-0.0053129494,-0.00020494261,-0.01622632,0.5,0.0004961113,0.0007986027,0.0006205766,1,1,1,0,1,1
226972449,226781729,3407898,-0.0047748857,-0.0010081065,0.00084853143,0.15,1.9267745e-07,1.9126999e-07,5.754673e-07,3407898,-0.017838348,-0.009356016,-0.03523297,0.4,0.0017756434,0.0018806433,1.3547261e-05,466953,-0.0052268934,-0.00033659537,-0.01602894,0.5,0.0004942886,0.0007930832,0.0006158986,1,1,1,0,1,1
227982173,227791730,3407898,-0.004783005,-0.001006275,0.0008459328,0.15,1.9219316e-07,1.911035e-07,5.8272855e-07,3407898,-0.017877536,-0.009711967,-0.03529083,0.4,0.0017722668,0.0018766888,1.3519252e-05,466953,-0.0051704813,-0.00011899577,-0.015933726,0.5,0.0004921055,0.0007810885,0.00060863385,1,1,1,0,1,1
228992235,228801729,3407898,-0.0047936197,-0.0009870939,0.0008505165,0.15,1.9179804e-07,1.9097051e-07,5.895512e-07,3407898,-0.01813904,-0.010640455,-0.03542326,0.4,0.0017692561,0.001871544,1.3483038e-05,466953,-0.0050052153,4.7859052e-05,-0.015701877,0.5,0.00048818928,0.0007619224,0.0005999927,1,1,1,0,1,1
230002227,229811729,3407898,-0.0048060543,-0.0009534678,0.0008543755,0.15,1.916501e-07,1.9094206e-07,5.96404e-07,3407898,-0.018210305,-0.0111431405,-0.03548096,0.4,0.0017676622,0.001867136,1.3444824e-05,466953,-0.004888195,1.0082938e-05,-0.015580615,0.5,0.00048522145,0.0007571673,0.0005967969,1,1,1,0,1,1
231012237,230821729,3407898,-0.004819197,-0.00092977955,0.0008584972,0.15,1.915575e-07,1.9087678e-07,6.027948e-07,3407898,-0.018295798,-0.011633609,-0.035549358,0.4,0.0017664033,0.0018624419,1.3403651e-05,466953,-0.0049170544,0.000120850746,-0.015514001,0.5,0.0004840624,0.0007553809,0.000595225,1,1,1,0,1,1
232022173,231831729,3407898,-0.0048150495,-0.0009392758,0.0008629339,0.15,1.9148533e-07,1.9083183e-07,6.087306e-07,3407898,-0.01851851,-0.012167998,-0.035638027,0.4,0.0017652,0.0018579807,1.3364532e-05,466953,-0.004910141,9.754534e-05,-0.015458425,0.5,0.00048334958,0.000754962,0.00059403654,1,1,1,0,1,1
233032419,232841729,3407898,-0.004812021,-0.0009346848,0.00086851895,0.15,1.9054326e-07,1.899383e-07,6.1456706e-07,3407898,-0.018600002,-0.012367711,-0.035669107,0.4,0.0017641021,0.0018538526,1.3316473e-05,466953,-0.004989957,0.00011653293,-0.015515698,0.5,0.000482242,0.0007527411,0.0005926802,1,1,1,0,1,1
235052382,234861729,3407898,-0.004773168,-0.0009531738,0.00087778067,0.15,1.9042616e-07,1.8992301e-07,6.239578e-07,3407898,-0.018993197,-0.012612622,-0.035723165,0.4,0.0017619499,0.0018458444,1.3244298e-05,466953,-0.004826534,-8.491187e-05,-0.015466924,0.5,0.00047826732,0.0007373883,0.00058444747,1,1,1,0,1,1
236062180,235871729,3407898,-0.0047619618,-0.00095081184,0.00087748526,0.15,1.9045211e-07,1.9000166e-07,6.279328e-07,3407898,-0.018989014,-0.012494684,-0.035702087,0.4,0.0017613998,0.0018428324,1.3211929e-05,466953,-0.0047775363,-0.00018027777,-0.015428254,0.5,0.00047602897,0.0007339873,0.00058262085,1,1,1,0,1,1
237072227,236881729,3407898,-0.0047524986,-0.00095638464,0.00088074844,0.15,1.9040918e-07,1.9002334e-07,6.322892e-07,3407898,-0.018932994,-0.012378259,-0.035675593,0.4,0.0017609698,0.0018403222,1.3181342e-05,466953,-0.0047078454,-0.00025268397,-0.015373948,0.5,0.00047252953,0.00072725094,0.0005801302,1,1,1,0,1,1
238082199,237891729,3407898,-0.004733942,-0.00095818343,0.0008862725,0.15,1.9043333e-07,1.900717e-07,6.3625714e-07,3407898,-0.019006537,-0.012530039,-0.035721403,0.4,0.0017606824,0.0018384999,1.3155022e-05,466953,-0.0047645397,-0.00027647417,-0.015478299,0.5,0.00047100298,0.00072387554,0.00057843456,1,1,1,0,1,1
239092199,238901729,3407898,-0.0047387397,-0.0009752422,0.0008952572,0.15,1.9050121e-07,1.9013734e-07,6.4031565e-07,3407898,-0.019120863,-0.012772262,-0.035788875,0.4,0.0017604509,0.0018371476,1.3132272e-05,466953,-0.0050604134,-0.00042257019,-0.015528751,0.5,0.00046647267,0.0007159531,0.00057573966,1,1,1,0,1,1
239562414,239371729,3407898,-0.00475164,-0.0009571176,0.0009093099,0.15,1.9031073e-07,1.8992603e-07,6.4123964e-07,3407898,-0.019236445,-0.012868026,-0.03579533,0.4,0.0017602771,0.0018363532,1.3117819e-05,466953,-0.0052653817,0.00022655728,-0.014651936,0.5,0.0004650899,0.0007011943,0.00056506234,1,1,1,0,1,1
240572189,240381729,3407898,-0.0047200173,-0.0009740004,0.00089856156,0.15,1.9103842e-07,1.909594e-07,6.2427563e-07,3407898,-0.019178143,-0.012255739,-0.035698052,0.4,0.0017596513,0.0018335782,1.308858e-05,466953,-0.005449464,0.0003327046,-0.015628556,0.5,0.00045873222,0.0005984768,0.0004887595,1,1,1,0,1,1
241342610,241151730,3407898,-0.0047352198,-0.0009848302,0.0008993569,0.15,1.905208e-07,1.9127594e-07,6.183245e-07,3407898,-0.019235328,-0.013277003,-0.035931256,0.4,0.0017588885,0.0018308345,1.3057021e-05,466953,-0.0055350126,0.00035295385,-0.015548502,0.5,0.0004578816,0.0005940558,0.0004863459,1,1,1,0,1,1
242242388,242051728,3407898,-0.004723097,-0.0010096311,0.00091329723,0.15,1.8994552e-07,1.9027995e-07,6.174379e-07,3407898,-0.019439504,-0.01424139,-0.03615427,0.4,0.0017582298,0.0018265186,1.3021737e-05,466953,-0.005460511,0.00042874925,-0.015638655,0.5,0.0004575759,0.0005816855,0.0004777263,1,1,1,0,1,1
243252218,243061729,3407898,-0.004675851,-0.0010205024,0.00093901873,0.15,1.8960574e-07,1.8968053e-07,6.12034e-07,3407898,-0.019672237,-0.015012422,-0.036298517,0.4,0.0017580694,0.0018228374,1.2987523e-05,466953,-0.0053507523,0.00042161084,-0.015756482,0.5,0.00045692868,0.00057401066,0.00047277898,1,1,1,0,1,1
243442392,243251729,3407898,-0.0046588164,-0.00102052,0.00094192027,0.15,1.8944552e-07,1.8960993e-07,6.106671e-07,3407898,-0.019707771,-0.015270306,-0.03633273,0.4,0.0017580572,0.0018221367,1.2979585e-05,466953,-0.0054674824,0.0009810302,-0.014914119,0.5,0.00045653226,0.0005675943,0.00046789547,1,1,1,0,1,1
244452209,244261729,3407898,-0.004650675,-0.001022892,0.0009492198,0.15,1.8965295e-07,1.9165259e-07,5.967154e-07,3407898,-0.019774038,-0.015763566,-0.036472216,0.4,0.0017577464,0.001819281,1.2952604e-05,466953,-0.005517492,0.0012787482,-0.015807968,0.5,0.0004523946,0.00050996034,0.0004223205,1,1,1,0,1,1
246472196,246281729,3407898,-0.0046017985,-0.0010499696,0.0009464404,0.15,1.8991155e-07,1.9081013e-07,5.880783e-07,3407898,-0.020138634,-0.01626284,-0.036654502,0.4,0.001757039,0.0018176078,1.2924207e-05,466953,-0.005553543,0.0014396303,-0.015714249,0.5,0.0004499206,0.0004942905,0.00040773972,1,1,1,0,1,1
247482213,247291730,3407898,-0.00463178,-0.0010420907,0.0009836864,0.15,1.9003919e-07,1.904318e-07,5.6530973e-07,3407898,-0.020069148,-0.016412897,-0.036742523,0.4,0.0017560539,0.0018169902,1.291298e-05,466953,-0.0055262498,0.0011391601,-0.01592093,0.5,0.0004432836,0.00045592897,0.00037140033,1,1,1,0,1,1
248492332,248301729,3407898,-0.004675228,-0.0010510002,0.0009915029,0.15,1.899688e-07,1.909268e-07,5.5833715e-07,3407898,-0.019912032,-0.016551355,-0.03688845,0.4,0.0017549947,0.0018156382,1.289489e-05,466953,-0.005579984,0.001286195,-0.01553787,0.5,0.0004420717,0.00044192094,0.00036210896,1,1,1,0,1,1
249502261,249311729,3407898,-0.004706543,-0.00103781,0.0009783535,0.15,1.8979414e-07,1.9026079e-07,5.5660814e-07,3407898,-0.019713456,-0.0168279,-0.036981832,0.4,0.0017547144,0.0018139526,1.2873532e-05,466953,-0.0056194393,0.0013220996,-0.015732365,0.5,0.0004415605,0.00042767377,0.00035262044,1,1,1,0,1,1
250512172,250321729,3407898,-0.0046873204,-0.0010041815,0.000959399,0.15,1.8985502e-07,1.9069807e-07,5.552473e-07,3407898,-0.019792717,-0.01681606,-0.036977485,0.4,0.0017546306,0.0018129251,1.2852109e-05,466953,-0.0057249735,0.0012855779,-0.015772043,0.5,0.00044050984,0.0004244647,0.00035091373,1,1,1,0,1,1
251522205,251331729,3407898,-0.0046561826,-0.0010037618,0.0009603106,0.15,1.9029066e-07,1.9138353e-07,5.5807163e-07,3407898,-0.019682618,-0.016198173,-0.036824465,0.4,0.0017541426,0.0018113826,1.2832785e-05,466953,-0.0057846736,0.0015194725,-0.015678484,0.5,0.00043960352,0.00041915363,0.00034678835,1,1,1,0,1,1
252532216,252341729,3407898,-0.0046395464,-0.00097411935,0.00097697,0.15,1.9064056e-07,1.9133684e-07,5.5590385e-07,3407898,-0.019806584,-0.015883615,-0.036818128,0.4,0.0017537386,0.0018096378,1.2815392e-05,466953,-0.0057302914,0.0016746351,-0.015703047,0.5,0.00043936862,0.00041660175,0.0003448087,1,1,1,0,1,1
253542455,253351728,3407898,-0.004651199,-0.0009724466,0.0009862684,0.15,1.8993728e-07,1.9051315e-07,5.5332794e-07,3407898,-0.01991179,-0.01623534,-0.036933843,0.4,0.0017532426,0.0018077425,1.2788254e-05,466953,-0.005708367,0.0020833327,-0.015503972,0.5,0.00043888894,0.00041115886,0.00034088263,1,1,1,0,1,1
254552176,254361729,3407898,-0.004644692,-0.0009763646,0.0009837152,0.15,1.9029754e-07,1.9102983e-07,5.50764e-07,3407898,-0.019877875,-0.016014185,-0.036934856,0.4,0.0017524644,0.0018051626,1.2769159e-05,466953,-0.0057371263,0.002126072,-0.015594165,0.5,0.00043823392,0.0004069101,0.00033780787,1,1,1,0,1,1
255442443,255251729,3407898,-0.004672601,-0.0009886334,0.0009853637,0.15,1.8992141e-07,1.9051382e-07,5.5089714e-07,3407898,-0.020314468,-0.016982058,-0.0371851,0.4,0.0017520395,0.0018037139,1.2752694e-05,466953,-0.005752387,0.0021332176,-0.015643317,0.5,0.00043748267,0.00040077628,0.00033257148,1,1,1,0,1,1
255932575,255741729,3407898,-0.0047034426,-0.0010503898,0.0010078613,0.15,1.8947667e-07,1.900346e-07,5.507507e-07,3407898,-0.021215508,-0.017545234,-0.037415083,0.4,0.0017516114,0.0018027674,1.2744632e-05,466953,-0.0056669437,0.0021277065,-0.015673498,0.5,0.00043685597,0.00040023142,0.00033213754,1,1,1,0,1,1
256432568,256241729,3407898,-0.004727417,-0.0010294633,0.0010055214,0.15,1.8923272e-07,1.8981488e-07,5.5130954e-07,3407898,-0.021761453,-0.018351056,-0.037677143,0.4,0.0017508443,0.001801673,1.27387975e-05,466953,-0.0056720558,0.002129357,-0.015675437,0.5,0.00043586813,0.0003996965,0.00033187878,1,1,1,0,1,1
257942354,257751729,3407898,-0.00470719,-0.0010468698,0.0010016914,0.15,1.8910556e-07,1.8965098e-07,5.535526e-07,3407898,-0.023339862,-0.019662965,-0.038104307,0.4,0.0017482769,0.0017994454,1.2731569e-05,466953,-0.005667359,0.0021425155,-0.015689814,0.5,0.0004352913,0.00039914862,0.00033167182,1,1,1,0,1,1
258432602,258241729,3407898,-0.0046862764,-0.0010523886,0.0009915046,0.15,1.8876372e-07,1.8921979e-07,5.528848e-07,3407898,-0.024329659,-0.020445343,-0.038333084,0.4,0.0017468273,0.0017985513,1.272692e-05,466953,-0.005654472,0.002068102,-0.015648836,0.5,0.00043423308,0.00039811016,0.0003302512,1,1,1,0,1,1
259442205,259251729,3407898,-0.0046596103,-0.0010697895,0.0009692964,0.15,1.8925687e-07,1.8937956e-07,5.490333e-07,3407898,-0.024772547,-0.020925516,-0.038438097,0.4,0.0017449931,0.0017977186,1.27226895e-05,466953,-0.0057982556,0.0020350283,-0.015662018,0.5,0.00043171024,0.0003972841,0.00032874034,1,1,1,0,1,1
260452174,260261729,3407898,-0.0046474407,-0.0010999457,0.0009632596,0.15,1.9017564e-07,1.8988926e-07,5.470531e-07,3407898,-0.0241034,-0.02059722,-0.038323756,0.4,0.0017433175,0.0017969848,1.2719403e-05,466953,-0.0058306353,0.001921856,-0.015707267,0.5,0.0004313585,0.00039499084,0.0003273034,1,1,1,0,1,1
261462263,261271729,3407898,-0.004642678,-0.0011347866,0.00096280844,0.15,1.9045137e-07,1.9024236e-07,5.476655e-07,3407898,-0.023823675,-0.020548347,-0.038316045,0.4,0.0017417782,0.0017963684,1.2719346e-05,466953,-0.0057739983,0.0019094219,-0.015732503,0.5,0.00043026818,0.00039130074,0.0003253486,1,1,1,0,1,1
262472175,262281729,3407898,-0.004628852,-0.0011622644,0.00096483546,0.15,1.9002847e-07,1.9019836e-07,5.476593e-07,3407898,-0.02420678,-0.02061241,-0.038472425,0.4,0.0017409814,0.0017961692,1.2720003e-05,466953,-0.005703921,0.0019480558,-0.015733479,0.5,0.0004290142,0.00039045434,0.00032402162,1,1,1,0,1,1
263482248,263291729,3407898,-0.0046336376,-0.0011500823,0.00096608314,0.15,1.8970827e-07,1.8997399e-07,5.436331e-07,3407898,-0.024487006,-0.020682806,-0.03856542,0.4,0.0017401656,0.0017961302,1.2723322e-05,466953,-0.005657512,0.0019315631,-0.015776986,0.5,0.00042610482,0.00038897095,0.00032249457,1,1,1,0,1,1
264492176,264301729,3407898,-0.0046312693,-0.0011420946,0.0009671449,0.15,1.8971598e-07,1.8997171e-07,5.402553e-07,3407898,-0.02454151,-0.020673968,-0.0386079,0.4,0.0017388475,0.0017956962,1.2729901e-05,466953,-0.0056824423,0.0019168382,-0.015625786,0.5,0.00042118033,0.00038521635,0.00031989196,1,1,1,0,1,1
265502211,265311771,3407898,-0.004651208,-0.001145697,0.00094556686,0.15,1.902517e-07,1.9029314e-07,5.35081e-07,3407898,-0.024944382,-0.02071922,-0.038677692,0.4,0.0017373706,0.001795448,1.2736648e-05,466953,-0.0054619983,0.0020612748,-0.01586662,0.5,0.00040900332,0.00038277026,0.0003127798,1,1,1,0,1,1
266512367,266321729,3407898,-0.0046542524,-0.0011341093,0.0009369933,0.15,1.9091163e-07,1.9042841e-07,5.33351e-07,3407898,-0.025304865,-0.020785183,-0.03877497,0.4,0.0017361736,0.001795471,1.2743104e-05,466953,-0.005443306,0.0020821267,-0.015828801,0.5,0.00040748002,0.0003821857,0.0003116414,1,1,1,0,1,1
267522224,267331729,3407898,-0.0046466026,-0.0011144676,0.0009366385,0.15,1.9058298e-07,1.9034916e-07,5.2886736e-07,3407898,-0.025724811,-0.02089532,-0.03888223,0.4,0.0017347366,0.0017954377,1.2749964e-05,466953,-0.0053648707,0.0021338388,-0.015734995,0.5,0.00040091446,0.00037975435,0.00030732973,1,1,1,0,1,1
268532353,268341729,3407898,-0.0046354313,-0.0011151431,0.0009319529,0.15,1.8957498e-07,1.8935432e-07,5.176155e-07,3407898,-0.026153183,-0.020969048,-0.03900202,0.4,0.0017334751,0.0017954033,1.2747737e-05,466953,-0.005399491,0.0021119993,-0.015710916,0.5,0.00039663413,0.00037879322,0.0003050834,1,1,1,0,1,1
269542202,269351729,3407898,-0.0046328157,-0.0011238058,0.0009290002,0.15,1.9029837e-07,1.8946396e-07,5.115451e-07,3407898,-0.026264353,-0.020986246,-0.039078865,0.4,0.001732902,0.0017953867,1.2750096e-05,466953,-0.005615128,0.0021063902,-0.015563236,0.5,0.00037957547,0.0003724347,0.00029917902,1,1,1,0,1,1
270142360,269951729,3407898,-0.004611614,-0.0011076798,0.000911838,0.15,1.9114408e-07,1.8964293e-07,5.1054366e-07,3407898,-0.025930297,-0.02056151,-0.039098285,0.4,0.001728119,0.001789836,1.2744665e-05,466953,-0.0048503377,0.0027511697,-0.015654856,0.5,0.0002917922,0.00028984333,0.00029875385,1,1,1,0,1,1
270442564,270251730,3407898,-0.0046036197,-0.0010985853,0.0009107824,0.15,1.915622e-07,1.8984409e-07,5.1234883e-07,3407898,-0.02517464,-0.019847779,-0.03911465,0.4,0.0017144858,0.0017749167,1.2730643e-05,466953,-0.003726043,0.0026923816,-0.015689822,0.5,0.00020265521,0.00020344638,0.0002982128,1,1,1,0,1,1
270742354,270551729,3407898,-0.0045900377,-0.0011007201,0.00091027934,0.15,1.9203428e-07,1.9024009e-07,5.1485534e-07,3407898,-0.023768056,-0.020566288,-0.039182816,0.4,0.0016832636,0.0017416263,1.26998175e-05,466953,-0.002836567,0.0023176656,-0.01571252,0.5,0.00014273454,0.00014481416,0.00029778958,1,1,1,0,1,1
270942573,270751728,3407898,-0.0045912745,-0.0010895464,0.000914139,0.15,1.924142e-07,1.906466e-07,5.164574e-07,3407898,-0.023408357,-0.018845173,-0.039159458,0.4,0.0016482136,0.0017046208,1.2664845e-05,466953,-0.0023804056,0.0018462484,-0.015761035,0.5,0.00010966962,0.000112170856,0.00029761737,1,1,1,0,1,1
271042434,270851729,3407898,-0.004587133,-0.0010794136,0.00091810833,0.15,1.9264927e-07,1.909097e-07,5.1725556e-07,3407898,-0.022053901,-0.017576592,-0.039161116,0.4,0.0016259302,0.0016811352,1.2642329e-05,466953,-0.0021520343,0.0017615659,-0.01577838,0.5,0.00010059846,0.00010316304,0.0002975794,1,1,1,0,1,1
271142433,270951729,3407898,-0.004588366,-0.0010686665,0.00092103565,0.15,1.9292081e-07,1.9121781e-07,5.180192e-07,3407898,-0.021353722,-0.0155581515,-0.039132476,0.4,0.0016003803,0.0016542197,1.26164905e-05,466953,-0.0019922964,0.001736453,-0.015793856,0.5,9.2451824e-05,9.504822e-05,0.00029754033,1,1,1,0,1,1
271242414,271051729,3407898,-0.0045939703,-0.0010657428,0.0009211745,0.15,1.9323174e-07,1.9157467e-07,5.186003e-07,3407898,-0.022127597,-0.014263224,-0.039091777,0.4,0.001571632,0.0016239333,1.2587826e-05,466953,-0.0017487977,0.0015805693,-0.015806748,0.5,7.859048e-05,8.117181e-05,0.00029746178,1,1,1,0,1,1
271742385,271551729,3407898,-0.0045857965,-0.0010414864,0.0009364901,0.15,1.9555799e-07,1.9414276e-07,5.2128786e-07,3407898,-0.017041786,-0.0099615855,-0.03913027,0.4,0.001388904,0.001430825,1.2403401e-05,466953,-0.0009766414,0.00095301965,-0.015864514,0.5,4.794078e-05,5.0096045e-05,0.00029731944,1,1,1,0,1,1
271842415,271651729,3407898,-0.0045921365,-0.0010451109,0.00093189883,0.15,1.9618712e-07,1.9481143e-07,5.218462e-07,3407898,-0.019608865,-0.0091813505,-0.03906492,0.4,0.0013473076,0.0013867483,1.2361653e-05,466953,-0.00087208446,0.0009094667,-0.015864061,0.5,4.5116e-05,4.719247e-05,0.00029731425,1,1,1,0,1,1
271942391,271751729,3407898,-0.0045947544,-0.0010459276,0.00093019905,0.15,1.9689021e-07,1.9554598e-07,5.2242615e-07,3407898,-0.020580541,-0.008541391,-0.039034836,0.4,0.0013081953,0.0013453015,1.2322544e-05,466953,-0.00084069,0.0008294908,-0.015865143,0.5,4.2562275e-05,4.4559278e-05,0.0002973109,1,1,1,0,1,1
272042363,271851729,3407898,-0.0045935186,-0.0010430266,0.00093286484,0.15,1.9762102e-07,1.9630885e-07,5.227542e-07,3407898,-0.019429302,-0.007922644,-0.03905534,0.4,0.0012671102,0.0013018053,1.22817255e-05,466953,-0.0007135926,0.0007606927,-0.015874043,0.5,3.814057e-05,3.997889e-05,0.00029729848,1,1,1,0,1,1
272142359,271951729,3407898,-0.0045940466,-0.0010374052,0.00093426614,0.15,1.9838897e-07,1.9710023e-07,5.2333803e-07,3407898,-0.017723914,-0.005845682,-0.03904274,0.4,0.0012239652,0.0012561411,1.2238162e-05,466953,-0.0005929901,0.0007626129,-0.015885783,0.5,3.6223424e-05,3.7982747e-05,0.00029729158,1,1,1,0,1,1
272242354,272051729,3407898,-0.004595457,-0.0010336862,0.00093482935,0.15,1.9919061e-07,1.9792432e-07,5.236737e-07,3407898,-0.016801182,-0.0038859602,-0.03901893,0.4,0.0011813611,0.0012111256,1.2195648e-05,466953,-0.0004545197,0.00076481176,-0.015896106,0.5,3.2884447e-05,3.4490506e-05,0.00029727884,1,1,1,0,1,1
272342391,272151729,3407898,-0.004594705,-0.0010300019,0.0009369959,0.15,2.0003236e-07,1.9878071e-07,5.2427544e-07,3407898,-0.014964759,-0.0028851624,-0.03904142,0.4,0.0011397228,0.0011671648,1.2153749e-05,466953,-0.00038503122,0.00073077885,-0.01590372,0.5,3.142433e-05,3.2954307e-05,0.0002972752,1,1,1,0,1,1
272442389,272251729,3407898,-0.004596674,-0.001023673,0.0009372242,0.15,2.0090383e-07,1.9966295e-07,5.248926e-07,3407898,-0.012291565,0.00043915788,-0.039022516,0.4,0.0010991985,0.001124462,1.2113029e-05,466953,-0.00030794353,0.0007387361,-0.015910223,0.5,3.0087076e-05,3.154134e-05,0.0002972737,1,1,1,0,1,1
272542356,272351729,3407898,-0.00459515,-0.0010245838,0.00093971356,0.15,2.0179327e-07,2.0056457e-07,5.2520215e-07,3407898,-0.012680289,-0.00051843084,-0.039036885,0.4,0.0010599442,0.0010831843,1.2074073e-05,466953,-0.00016782194,0.0007044617,-0.015907954,0.5,2.7736358e-05,2.9042301e-05,0.00029726993,1,1,1,0,1,1
272642488,272451730,3407898,-0.0045959298,-0.0010211496,0.000940575,0.15,2.0270876e-07,2.014865e-07,5.258096e-07,3407898,-0.01059247,0.001302403,-0.0390392,0.4,0.0010222208,0.0010435778,1.2036264e-05,466953,-9.709291e-05,0.0006987597,-0.0159094,0.5,2.6700647e-05,2.7934024e-05,0.00029726728,1,1,1,0,1,1
272742360,272551729,3407898,-0.0045941244,-0.0010213627,0.0009437159,0.15,2.0363356e-07,2.024203e-07,5.2608516e-07,3407898,-0.010608214,0.00011134827,-0.039064676,0.4,0.0009859792,0.0010056348,1.2000405e-05,466953,-1.9998488e-06,0.0006451986,-0.015908994,0.5,2.4872024e-05,2.5966116e-05,0.00029726207,1,1,1,0,1,1
272842358,272651729,3407898,-0.0045951116,-0.0010191879,0.0009434338,0.15,2.0457733e-07,2.0336827e-07,5.266803e-07,3407898,-0.00888459,0.0017031659,-0.039056994,0.4,0.00095151685,0.0009696395,1.1965934e-05,466953,4.426795e-05,0.0006550666,-0.015912002,0.5,2.4062221e-05,2.5088539e-05,0.00029725835,1,1,1,0,1,1
272932360,272741729,3407898,-0.0045940755,-0.0010172353,0.0009458687,0.15,2.0543074e-07,2.0422503e-07,5.271747e-07,3407898,-0.0070082177,0.0010406972,-0.03910713,0.4,0.0009192152,0.0009359802,1.1933223e-05,466953,0.00010120391,0.00064074516,-0.015919408,0.5,2.331541e-05,2.4275429e-05,0.00029725384,1,1,1,0,1,1
273142420,272951729,3407898,-0.0045943935,-0.0010153612,0.0009476092,0.15,2.0744925e-07,2.0625228e-07,5.280667e-07,3407898,-0.0048431787,0.00192993,-0.03910286,0.4,0.0008587234,0.0008731502,1.1874069e-05,466953,0.0002409889,0.00063960743,-0.015931435,0.5,2.1408037e-05,2.2178827e-05,0.0002972357,1,1,1,0,1,1
273342391,273151729,3407898,-0.00459416,-0.001015852,0.00095007295,0.15,2.0938401e-07,2.0819611e-07,5.2879477e-07,3407898,-0.005186497,0.0031526387,-0.0390618,0.4,0.0008154687,0.0008283723,1.1833722e-05,466953,0.00034163502,0.0005791444,-0.015931785,0.5,1.9908732e-05,2.0504229e-05,0.00029721195,1,1,1,0,1,1
273742440,273551729,3407898,-0.0045952117,-0.0010144262,0.0009558837,0.15,2.1322937e-07,2.1206576e-07,5.299073e-07,3407898,-0.0026834924,0.0029190802,-0.039114114,0.4,0.000729427,0.0007394724,1.17496875e-05,466953,0.000578486,0.00051012676,-0.015964232,0.5,1.7813481e-05,1.809746e-05,0.00029719088,1,1,1,0,1,1
273842387,273651729,3407898,-0.004596748,-0.0010145224,0.00095462706,0.15,2.1418522e-07,2.1302768e-07,5.303747e-07,3407898,-0.0012289999,0.0031667643,-0.0391332,0.4,0.0007089076,0.0007183191,1.1729053e-05,466953,0.00059421983,0.00053662475,-0.015968526,0.5,1.7549284e-05,1.7785982e-05,0.00029718777,1,1,1,0,1,1
274042392,273851729,3407898,-0.004596121,-0.0010125784,0.0009600864,0.15,2.1607826e-07,2.1493953e-07,5.3071284e-07,3407898,-0.0011564502,0.0018266222,-0.039155535,0.4,0.000672691,0.0006809923,1.16919755e-05,466953,0.00070048484,0.00046489245,-0.015968475,0.5,1.6881106e-05,1.6985485e-05,0.0002971719,1,1,1,0,1,1
274142360,273951730,3407898,-0.004597587,-0.0010122624,0.0009599431,0.15,2.1703278e-07,2.1590108e-07,5.311275e-07,3407898,-0.00016087465,0.001408398,-0.039186914,0.4,0.0006603795,0.00066831626,1.1680468e-05,466953,0.0007153299,0.0004678204,-0.015973661,0.5,1.6692939e-05,1.675589e-05,0.00029716312,1,1,1,0,1,1
274242365,274051729,3407898,-0.0045958385,-0.0010135194,0.0009625372,0.15,2.1796482e-07,2.1684629e-07,5.309212e-07,3407898,-0.0007062895,0.002398143,-0.039165217,0.4,0.000645302,0.0006527773,1.1665089e-05,466953,0.00072989234,0.0004240093,-0.015955664,0.5,1.63659e-05,1.6350867e-05,0.0002971397,1,1,1,0,1,1
274742361,274551729,3407898,-0.0045913253,-0.0010151181,0.0009761289,0.15,2.2262604e-07,2.2155919e-07,5.311234e-07,3407898,-0.0013102448,0.0035128568,-0.03912201,0.4,0.00059100235,0.0005968616,1.1609908e-05,466953,0.00078832277,0.00024420698,-0.01592263,0.5,1.5634732e-05,1.5397345e-05,0.0002970824,1,1,1,0,1,1
275542412,275351728,3407898,-0.004588464,-0.001010495,0.0010205767,0.15,2.2997828e-07,2.289849e-07,5.297028e-07,3407898,-0.001536317,0.002481358,-0.039120026,0.4,0.00054110854,0.0005453056,1.1554682e-05,466953,0.0008309043,-2.1608446e-05,-0.015876621,0.5,1.5308642e-05,1.4909691e-05,0.00029694007,1,1,1,0,1,1
275732593,275541729,3407898,-0.0045887018,-0.0010057894,0.0010386653,0.15,2.3171934e-07,2.3074274e-07,5.287757e-07,3407898,-0.0020531463,0.0015739354,-0.039159115,0.4,0.0005340988,0.00053799537,1.1545088e-05,466953,0.00083142455,-7.440838e-05,-0.015865743,0.5,1.5280011e-05,1.488022e-05,0.00029691047,1,1,1,0,1,1
276032415,275841729,3407898,-0.0045933523,-0.0010016763,0.0010618874,0.15,2.3451548e-07,2.33561e-07,5.2810884e-07,3407898,-0.0020776982,0.00011786356,-0.0392073,0.4,0.0005272277,0.00053073367,1.1537791e-05,466953,0.00083326723,-6.472777e-05,-0.015905242,0.5,1.5221989e-05,1.4845704e-05,0.00029689056,1,1,1,0,1,1
276942359,276751729,3407898,-0.004595356,-0.0009935125,0.0011259647,0.15,2.430652e-07,2.4215066e-07,5.2766393e-07,3407898,-0.0029152087,-0.0006876896,-0.039285865,0.4,0.0005142173,0.000516878,1.151658e-05,466953,0.000662847,0.00015953051,-0.016005602,0.5,1.4607932e-05,1.443158e-05,0.00029670328,1,1,1,0,1,1
277842491,277651729,3407898,-0.0045958026,-0.0009871677,0.0011681379,0.15,2.5169885e-07,2.5080493e-07,5.3073893e-07,3407898,-0.0038377084,-3.8516057e-05,-0.03933308,0.4,0.00050205475,0.0005046623,1.1489465e-05,466953,0.00060507044,0.00058941427,-0.016006026,0.5,1.299387e-05,1.3085651e-05,0.0002964378,1,1,1,0,1,1
278852176,278661729,3407898,-0.0045937956,-0.0009905541,0.0011782425,0.15,2.612191e-07,2.6034985e-07,5.369743e-07,3407898,-0.0031686968,0.00034971337,-0.039341386,0.4,0.00047822925,0.00048099575,1.1456548e-05,466953,0.0005610409,0.0008604473,-0.016193382,0.5,1.13651895e-05,1.1672104e-05,0.00029572178,1,1,1,0,1,1
279862206,279671729,3407898,-0.004601289,-0.0010000283,0.0011881106,0.15,2.6925363e-07,2.683905e-07,5.433205e-07,3407898,-0.0024802503,-0.00028476588,-0.039345507,0.4,0.00044553357,0.00044867268,1.1416585e-05,466953,0.00050086045,0.0011267731,-0.016345873,0.5,1.020423e-05,1.0712152e-05,0.00029529157,1,1,1,0,1,1
280342353,280151729,3407898,-0.0046133404,-0.0010124987,0.0011885394,0.15,2.719898e-07,2.7113373e-07,5.4633307e-07,3407898,-0.0015338667,-0.001214928,-0.039424725,0.4,0.0004300349,0.00043333622,1.1396292e-05,466953,0.00047426453,0.0012245518,-0.016358381,0.5,9.736328e-06,1.0333146e-05,0.00029518225,1,1,1,0,1,1
281032575,280841729,3407898,-0.004618805,-0.0010363377,0.0011921809,0.15,2.7449545e-07,2.7368748e-07,5.509499e-07,3407898,-8.88056e-05,-0.0014053126,-0.03954409,0.4,0.0004118135,0.00041519394,1.1372348e-05,466953,0.0004690273,0.0012907446,-0.016311716,0.5,9.172014e-06,9.878154e-06,0.00029486962,1,1,1,0,1,1
281542447,281351729,3407898,-0.0046217483,-0.0010561614,0.0011965239,0.15,2.7562663e-07,2.7487033e-07,5.544977e-07,3407898,0.00093411916,-0.0014264876,-0.03961718,0.4,0.0004024534,0.00040586115,1.1363379e-05,466953,0.00046342795,0.0013236242,-0.016276885,0.5,8.832117e-06,9.603675e-06,0.00029453493,1,1,1,0,1,1
282532560,282341729,3407898,-0.004643402,-0.0010805367,0.0011993991,0.15,2.7442852e-07,2.7379954e-07,5.61283e-07,3407898,0.0018586498,-0.0019989428,-0.039813336,0.4,0.00038810915,0.00039182915,1.1342676e-05,466953,0.00042442727,0.0014094994,-0.016268663,0.5,8.255163e-06,9.151698e-06,0.00029418763,1,1,1,0,1,1
283102350,282911728,3407898,-0.004629793,-0.0011104598,0.0012055553,0.15,2.7370535e-07,2.731194e-07,5.6535754e-07,3407898,0.0027065708,-0.0014650051,-0.039868653,0.4,0.00038370353,0.0003876598,1.1343855e-05,466953,0.00044294528,0.0014254428,-0.016233303,0.5,7.971847e-06,8.932312e-06,0.0002939629,1,1,1,1,1,1
283732386,283541729,3407898,-0.0046089543,-0.0011502105,0.0012111579,0.15,2.696414e-07,2.691789e-07,5.694301e-07,3407898,0.0035190342,-0.0008486418,-0.03992013,0.4,0.00037903409,0.000383444,1.1331061e-05,466953,0.00047142897,0.0014444808,-0.016215874,0.5,7.708769e-06,8.738805e-06,0.00029386734,1,1,1,1,1,1
284742584,284551729,3407898,-0.0046489416,-0.0012070797,0.0011969439,0.15,2.6550154e-07,2.6516443e-07,5.64381e-07,3407898,0.004623907,-0.0005714824,-0.03994093,0.4,0.00037284952,0.00037817875,1.1338098e-05,466953,0.00039978354,0.0013340538,-0.016252095,0.5,7.506618e-06,8.5897755e-06,0.0002934117,1,1,1,1,1,1
285752208,285561729,3407898,-0.004662635,-0.0012120676,0.0012412128,0.15,2.7401833e-07,2.7348673e-07,5.5663577e-07,3407898,0.005095999,-0.00015013602,-0.039932575,0.4,0.00036906294,0.00037514727,1.14129525e-05,466953,0.00029532475,0.0012008933,-0.015729727,0.5,7.4211653e-06,8.384654e-06,0.0002914201,1,1,1,1,1,1
286762173,286571728,3407898,-0.004670746,-0.0012198982,0.0012765747,0.15,2.8243224e-07,2.8185906e-07,5.51093e-07,3407898,0.005386496,0.000218982,-0.039948363,0.4,0.00036561466,0.0003726417,1.147499e-05,466953,0.00022276648,0.001096328,-0.015369313,0.5,7.348331e-06,8.220203e-06,0.00028903026,1,1,1,1,1,1
287772244,287581729,3407898,-0.0046718232,-0.0012298702,0.001304272,0.15,2.9049056e-07,2.900918e-07,5.4795413e-07,3407898,0.005458408,0.00056625577,-0.03999297,0.4,0.0003625869,0.0003705984,1.1521152e-05,466953,0.00018576148,0.0010126829,-0.015644722,0.5,7.293765e-06,8.089051e-06,0.00028617383,1,1,1,1,1,1
288782171,288591729,3407898,-0.0046721725,-0.0012415461,0.0013314234,0.15,2.979613e-07,2.9799122e-07,5.460846e-07,3407898,0.005495261,0.0008929485,-0.039993547,0.4,0.00035974264,0.00036882533,1.1554869e-05,466953,0.0001537361,0.00093121466,-0.015899383,0.5,7.245517e-06,7.9682e-06,0.00028418866,1,1,1,1,1,1
289792200,289601729,3407898,-0.00467365,-0.0012539659,0.0013564378,0.15,3.0472305e-07,3.0545652e-07,5.452047e-07,3407898,0.0055713532,0.001160903,-0.039959453,0.4,0.00035706995,0.00036727678,1.1571205e-05,466953,0.00011857575,0.0008562761,-0.015978346,0.5,7.2009775e-06,7.855963e-06,0.00028306514,1,1,1,1,1,1
290802180,290611730,3407898,-0.004676765,-0.0012672367,0.0013792455,0.15,3.105503e-07,3.1242905e-07,5.451501e-07,3407898,0.0057001277,0.0014036288,-0.03994738,0.4,0.00035448783,0.00036591708,1.15830035e-05,466953,8.620857e-05,0.0007829086,-0.016070405,0.5,7.161524e-06,7.750711e-06,0.00028227604,1,1,1,1,1,1
291812198,291621729,3407898,-0.0046852464,-0.0012797448,0.0013962399,0.15,3.1551258e-07,3.188832e-07,5.4574247e-07,3407898,0.0059690187,0.0016228142,-0.040040992,0.4,0.00035208743,0.00036474076,1.1584189e-05,466953,4.1922063e-05,0.0007292193,-0.016185965,0.5,7.12494e-06,7.652189e-06,0.00028189056,1,1,1,1,1,1
293832265,293641729,3407898,-0.004706208,-0.001308304,0.0014242146,0.15,3.2239907e-07,3.296286e-07,5.485608e-07,3407898,0.006487187,0.0019575339,-0.04015795,0.4,0.00034798737,0.0003629553,1.1587075e-05,466953,-3.6397894e-05,0.0006489936,-0.016378604,0.5,7.068099e-06,7.502546e-06,0.0002808709,1,1,1,1,1,1
294842174,294651729,3407898,-0.00471749,-0.0013195551,0.0014307337,0.15,3.247708e-07,3.3417842e-07,5.51427e-07,3407898,0.0066804327,0.0021196874,-0.040307894,0.4,0.00034640147,0.00036237016,1.1591424e-05,466953,-5.89355e-05,0.0006297507,-0.016530642,0.5,7.049083e-06,7.4504287e-06,0.0002801444,1,1,1,1,1,1
295852209,295661729,3407898,-0.0047292626,-0.0013305801,0.0014358619,0.15,3.2634463e-07,3.37992e-07,5.548325e-07,3407898,0.0068422607,0.0023013018,-0.04051736,0.4,0.0003450582,0.00036192048,1.1590784e-05,466953,-7.49884e-05,0.00061412464,-0.016624402,0.5,7.0341825e-06,7.4105565e-06,0.0002797103,1,1,1,1,1,1
296862198,296671728,3407898,-0.004734326,-0.0013246778,0.0014270082,0.15,3.277649e-07,3.4107603e-07,5.5976227e-07,3407898,0.0068520857,0.002307389,-0.040686723,0.4,0.0003440673,0.00036162316,1.1590665e-05,466953,-5.471806e-05,0.0006615049,-0.016808126,0.5,7.018595e-06,7.364945e-06,0.00025763176,1,1,1,1,1,1
297872188,297681729,3407898,-0.00472256,-0.0013181167,0.0014306712,0.15,3.2954526e-07,3.4285856e-07,5.649926e-07,3407898,0.006678631,0.002180869,-0.040559117,0.4,0.00034330826,0.00036130394,1.1597442e-05,466953,-6.9942325e-05,0.00065438024,-0.017471816,0.5,6.966789e-06,7.3102083e-06,0.00023529174,1,1,1,1,1,1
298882303,298691729,3407898,-0.0047296267,-0.0013153291,0.0014412368,0.15,3.2964178e-07,3.436126e-07,5.696245e-07,3407898,0.00665569,0.0020370118,-0.040392555,0.4,0.0003424998,0.0003608795,1.1600369e-05,466953,-0.00013481556,0.0006036984,-0.017560417,0.5,6.8865493e-06,7.254701e-06,0.00022968808,1,1,1,1,1,1
299892311,299701729,3407898,-0.004736274,-0.0013108555,0.0014445711,0.15,3.2915227e-07,3.442102e-07,5.750754e-07,3407898,0.006620363,0.0019817099,-0.040400583,0.4,0.00034182705,0.00036052658,1.1610299e-05,466953,-0.00020084584,0.0005741734,-0.017604006,0.5,6.8137942e-06,7.209009e-06,0.0002236642,1,1,1,1,1,1
300902377,300711728,3407898,-0.00472304,-0.0013035673,0.0014459401,0.15,3.2677028e-07,3.4359368e-07,5.812599e-07,3407898,0.0063625923,0.0020625663,-0.04054104,0.4,0.0003410826,0.00036020714,1.1616312e-05,466953,-0.0002522333,0.0005449352,-0.017540388,0.5,6.744577e-06,7.1630157e-06,0.00022127772,1,1,1,1,1,1
301912310,301721729,3407898,-0.004712367,-0.0013130925,0.0014575758,0.15,3.2344465e-07,3.4249368e-07,5.8760855e-07,3407898,0.0063273106,0.0019453386,-0.040467866,0.4,0.00034032975,0.00035988478,1.1628944e-05,466953,-0.0003089825,0.0004998696,-0.017457182,0.5,6.6852103e-06,7.122079e-06,0.00021919016,1,1,1,1,1,1
302922288,302731729,3407898,-0.004703755,-0.0013173323,0.0014694112,0.15,3.2040603e-07,3.4124895e-07,5.9409444e-07,3407898,0.006271127,0.0018489151,-0.040458802,0.4,0.00033969115,0.00035959567,1.1637259e-05,466953,-0.00036691624,0.00045935108,-0.017384673,0.5,6.6305756e-06,7.0861283e-06,0.00021756843,1,1,1,1,1,1
303932213,303741729,3407898,-0.0047085905,-0.001323065,0.0014752396,0.15,3.179836e-07,3.4037757e-07,6.0115184e-07,3407898,0.006297901,0.0017810016,-0.04041163,0.4,0.0003391994,0.000359408,1.1650745e-05,466953,-0.00041194275,0.00042560895,-0.01739736,0.5,6.5805575e-06,7.0562746e-06,0.00021586369,1,1,1,1,1,1
304942287,304751729,3407898,-0.0047137355,-0.0013333511,0.0014814809,0.15,3.15455e-07,3.3940037e-07,6.081983e-07,3407898,0.006291559,0.001760936,-0.040405896,0.4,0.00033876594,0.00035922555,1.16584315e-05,466953,-0.00045878117,0.00039263602,-0.017470464,0.5,6.5337904e-06,7.0268893e-06,0.00021208964,1,1,1,1,1,1
305952196,305761729,3407898,-0.0047170557,-0.0013410072,0.0014876667,0.15,3.1325447e-07,3.380182e-07,6.1528607e-07,3407898,0.006259466,0.001747703,-0.04040668,0.4,0.0003384816,0.00035907084,1.167015e-05,466953,-0.000498645,0.0003631746,-0.017471911,0.5,6.491252e-06,7.00408e-06,0.00021099903,1,1,1,1,1,1
306962211,306771729,3407898,-0.0047228993,-0.0013509421,0.0014911777,0.15,3.1115403e-07,3.3647592e-07,6.2248813e-07,3407898,0.0062296414,0.0017539653,-0.04040746,0.4,0.0003382717,0.0003589345,1.1675e-05,466953,-0.00053569966,0.000339334,-0.01748996,0.5,6.451067e-06,6.983527e-06,0.00021031624,1,1,1,1,1,1
307972234,307781728,3407898,-0.004739324,-0.0013292624,0.0015161916,0.15,3.0566488e-07,3.291914e-07,6.2270993e-07,3407898,0.006166917,0.0014775379,-0.04042047,0.4,0.0003380952,0.00035812389,1.1732016e-05,466953,-0.00057839305,0.00030019556,-0.017579628,0.5,6.4287838e-06,6.9607872e-06,0.00020981762,1,1,1,1,1,1
308982350,308791729,3407898,-0.0046752356,-0.0013079302,0.0015119199,0.15,2.7739748e-07,2.8537227e-07,5.6655733e-07,3407898,0.005708539,0.0014282576,-0.040453777,0.4,0.00033735973,0.0003525676,1.18156695e-05,466953,-0.0006491856,0.00031747174,-0.017984482,0.5,6.39353e-06,6.8564436e-06,0.00020138572,1,1,1,1,1,1
309482339,309291729,3407898,-0.0044347546,-0.0012934904,0.001494379,0.15,2.6241318e-07,2.6403688e-07,5.1392476e-07,3407898,0.00473282,0.001510048,-0.040527467,0.4,0.0003370687,0.00034954626,1.1856981e-05,466953,-0.00075570884,0.0005033836,-0.019093692,0.5,6.37494e-06,6.7920273e-06,0.0001926272,1,1,1,1,1,1
309832391,309641729,3407898,-0.004363479,-0.0012138914,0.0016153537,0.15,2.4814508e-07,2.499072e-07,4.7571586e-07,3407898,0.0042279093,0.00055430824,-0.04072846,0.4,0.00033687527,0.00034761993,1.1884782e-05,466953,-0.00085259945,0.0004712435,-0.019791303,0.5,6.3618795e-06,6.747829e-06,0.0001890318,1,1,1,1,1,1
310232384,310041729,3407898,-0.0045329346,-0.0011440101,0.001704464,0.15,2.3408221e-07,2.3882302e-07,4.558525e-07,3407898,0.0044117235,-0.00040519767,-0.041063715,0.4,0.00033673403,0.00034643454,1.1915345e-05,466953,-0.0008714916,0.00028294834,-0.019585121,0.5,6.349807e-06,6.714632e-06,0.00018850138,1,1,1,1,1,1
310832377,310641729,3407898,-0.004803721,-0.0011447184,0.0017851494,0.15,2.2482067e-07,2.3023601e-07,4.5224937e-07,3407898,0.004946518,-0.0013414823,-0.041398734,0.4,0.0003366198,0.000345784,1.196048e-05,466953,-0.00078789226,6.122219e-05,-0.018951148,0.5,6.3333173e-06,6.6888233e-06,0.00018722286,1,1,1,1,1,1
311332370,311141729,3407898,-0.005017647,-0.0012034219,0.0018892186,0.15,2.2226415e-07,2.2656117e-07,4.5031746e-07,3407898,0.0056436625,-0.0021125916,-0.041441835,0.4,0.00033646362,0.00034534856,1.1997175e-05,466953,-0.0006374289,-8.2899554e-05,-0.01854543,0.5,6.3202638e-06,6.6716952e-06,0.00018240475,1,1,1,1,1,1
312342387,312151729,3407898,-0.0050083757,-0.001192809,0.0018789453,0.15,2.3028772e-07,2.3384165e-07,4.5186923e-07,3407898,0.005761713,-0.0020636148,-0.041439135,0.4,0.00033642296,0.00034505822,1.2086436e-05,466953,-0.0006390068,-0.000114364026,-0.018813794,0.5,6.3156454e-06,6.6570633e-06,0.00017556315,1,1,1,1,1,1
313352174,313161729,3407898,-0.005005738,-0.0011924307,0.0018820474,0.15,2.3792789e-07,2.406586e-07,4.5427572e-07,3407898,0.005778978,-0.0020655396,-0.041393477,0.4,0.00033638187,0.00034484407,1.2172763e-05,466953,-0.0006375652,-0.00012046258,-0.018865278,0.5,6.313299e-06,6.65181e-06,0.00017498259,1,1,1,1,1,1
314362208,314171728,3407898,-0.0050061927,-0.0011866423,0.0018804735,0.15,2.4489952e-07,2.469376e-07,4.5723718e-07,3407898,0.005834628,-0.0020210259,-0.041271027,0.4,0.00033632317,0.0003446183,1.2252853e-05,466953,-0.00063174823,-0.00012626615,-0.018939326,0.5,6.311451e-06,6.6477373e-06,0.00017456233,1,1,1,1,1,1
315372248,315181729,3407898,-0.005007033,-0.0011827812,0.0018854607,0.15,2.5116898e-07,2.526793e-07,4.606894e-07,3407898,0.005909821,-0.0020291891,-0.041076332,0.4,0.00033625177,0.0003443903,1.2324622e-05,466953,-0.00062860135,-0.00013803558,-0.018990053,0.5,6.3098755e-06,6.644706e-06,0.00017442842,1,1,1,1,1,1
316382197,316191729,3407898,-0.0050125024,-0.0011796762,0.0018911799,0.15,2.567607e-07,2.579261e-07,4.6467676e-07,3407898,0.005986154,-0.0020610893,-0.040823583,0.4,0.00033618734,0.00034419424,1.2388858e-05,466953,-0.0006234009,-0.00014688593,-0.019020582,0.5,6.3081966e-06,6.640574e-06,0.0001742269,1,1,1,1,1,1
317392194,317201729,3407898,-0.0050195823,-0.0011722189,0.0018961523,0.15,2.6170974e-07,2.6263862e-07,4.69249e-07,3407898,0.006113686,-0.002129878,-0.04046231,0.4,0.00033609872,0.00034397654,1.2441824e-05,466953,-0.0006179922,-0.00015770037,-0.01913011,0.5,6.3069583e-06,6.6358625e-06,0.00017257415,1,1,1,1,1,1
318402249,318211729,3407898,-0.0050188466,-0.0011723938,0.0019111295,0.15,2.658833e-07,2.668566e-07,4.7417907e-07,3407898,0.006215171,-0.0023047,-0.04010776,0.4,0.00033602034,0.000343784,1.248885e-05,466953,-0.0006159485,-0.00017390563,-0.019151894,0.5,6.305854e-06,6.633613e-06,0.00017225143,1,1,1,1,1,1
319412328,319221729,3407898,-0.0050226375,-0.0011757547,0.0019251993,0.15,2.689571e-07,2.7020158e-07,4.7908964e-07,3407898,0.0062658302,-0.0024859125,-0.039753247,0.4,0.0003359366,0.0003435909,1.2524704e-05,466953,-0.00061174453,-0.00018725569,-0.019157741,0.5,6.304137e-06,6.6311272e-06,0.00017193386,1,1,1,1,1,1
320422371,320231728,3407898,-0.0050274604,-0.0011747835,0.0019290798,0.15,2.719991e-07,2.7353744e-07,4.8476215e-07,3407898,0.006286476,-0.0025781426,-0.039531734,0.4,0.00033586117,0.00034342648,1.2556727e-05,466953,-0.0006093918,-0.00019091455,-0.019180257,0.5,6.302534e-06,6.6282173e-06,0.00017149167,1,1,1,1,1,1
321432186,321241729,3407898,-0.005019715,-0.0011757885,0.001939679,0.15,2.7441635e-07,2.7646342e-07,4.9075777e-07,3407898,0.006312106,-0.0027676006,-0.039239787,0.4,0.0003357692,0.00034323215,1.2577678e-05,466953,-0.0006058534,-0.00020269568,-0.019106062,0.5,6.3003986e-06,6.626384e-06,0.00017086709,1,1,1,1,1,1
322442200,322251729,3407898,-0.005013323,-0.0011751691,0.0019466095,0.15,2.7638754e-07,2.7906682e-07,4.96986e-07,3407898,0.0063201855,-0.0029313099,-0.038976677,0.4,0.0003356766,0.00034304755,1.2596556e-05,466953,-0.0006030155,-0.00020802121,-0.019026546,0.5,6.298138e-06,6.625057e-06,0.00017041422,1,1,1,1,1,1
323452193,323261729,3407898,-0.0050079143,-0.0011776272,0.0019537585,0.15,2.7802653e-07,2.8143089e-07,5.0348103e-07,3407898,0.006302516,-0.0030947113,-0.03872657,0.4,0.00033561315,0.0003429085,1.2604002e-05,466953,-0.00060024473,-0.00021131133,-0.019020434,0.5,6.2964796e-06,6.624013e-06,0.00017018842,1,1,1,1,1,1
324462211,324271729,3407898,-0.0050035757,-0.0011781811,0.0019564736,0.15,2.7934462e-07,2.8346642e-07,5.10189e-07,3407898,0.0063014585,-0.0031475096,-0.038660623,0.4,0.00033555678,0.00034278847,1.2610893e-05,466953,-0.0005998073,-0.00021213114,-0.01900759,0.5,6.295417e-06,6.6231496e-06,0.00017008827,1,1,1,1,1,1
325472186,325281729,3407898,-0.005001204,-0.0011752725,0.001955737,0.15,2.8035774e-07,2.8522842e-07,5.1712385e-07,3407898,0.0063164416,-0.0031499963,-0.038656246,0.4,0.00033549758,0.00034266713,1.260653e-05,466953,-0.0006005563,-0.00021188216,-0.018997142,0.5,6.294772e-06,6.6227813e-06,0.00016996055,1,1,1,1,1,1
326482230,326291728,3407898,-0.005003692,-0.0011777225,0.0019566454,0.15,2.8113396e-07,2.8669788e-07,5.2425185e-07,3407898,0.0063002734,-0.0031548082,-0.038636923,0.4,0.00033544432,0.0003425737,1.2596917e-05,466953,-0.0006013292,-0.00021168728,-0.018915288,0.5,6.2937447e-06,6.6226125e-06,0.00016910219,1,1,1,1,1,1
327492338,327301729,3407898,-0.005015206,-0.0011733453,0.0019519104,0.15,2.8100945e-07,2.8728493e-07,5.31357e-07,3407898,0.006291524,-0.0031209725,-0.038595654,0.4,0.000335376,0.00034250258,1.2589366e-05,466953,-0.0006014084,-0.00020996688,-0.019018792,0.5,6.292131e-06,6.6223492e-06,0.00016593252,1,1,1,1,1,1
328502212,328311729,3407898,-0.0050213635,-0.0011646106,0.0019468789,0.15,2.8137362e-07,2.8860612e-07,5.391099e-07,3407898,0.006309984,-0.0031028322,-0.038500052,0.4,0.0003353395,0.00034245473,1.2571449e-05,466953,-0.0006033784,-0.00020839337,-0.019116051,0.5,6.2918616e-06,6.6220773e-06,0.00016485184,1,1,1,1,1,1
330522205,330331729,3407898,-0.005028959,-0.0011569223,0.0019396986,0.15,2.8192616e-07,2.908927e-07,5.552595e-07,3407898,0.0063536875,-0.0030706415,-0.038319726,0.4,0.00033531143,0.00034239524,1.2532561e-05,466953,-0.0006098573,-0.00019709747,-0.01919969,0.5,6.2910617e-06,6.61884e-06,0.00016340202,1,1,1,1,1,1
331532214,331341729,3407898,-0.0050312974,-0.0011564989,0.0019359924,0.15,2.8229988e-07,2.9193353e-07,5.6337643e-07,3407898,0.0063857506,-0.003047306,-0.038211178,0.4,0.00033531044,0.00034237342,1.2513228e-05,466953,-0.000616548,-0.0001844569,-0.0192226,0.5,6.2900585e-06,6.6145653e-06,0.000161573,1,1,1,1,1,1
332542221,332351729,3407898,-0.0050311983,-0.0011509714,0.001931503,0.15,2.824845e-07,2.9290428e-07,5.715138e-07,3407898,0.0064226566,-0.003016385,-0.038156074,0.4,0.00033530706,0.0003423416,1.2484879e-05,466953,-0.0006229997,-0.00017822538,-0.019222885,0.5,6.288684e-06,6.613015e-06,0.00016114289,1,1,1,1,1,1
333552283,333361729,3407898,-0.0050300467,-0.0011508651,0.0019276236,0.15,2.818506e-07,2.929285e-07,5.787671e-07,3407898,0.006435412,-0.0029803219,-0.038069908,0.4,0.00033520514,0.00034222536,1.2462913e-05,466953,-0.0006505405,-0.00018396684,-0.019193625,0.5,6.258464e-06,6.598943e-06,0.00016043804,1,1,1,1,1,1
334562309,334371729,3407898,-0.0050351503,-0.0011506145,0.001914967,0.15,2.81293e-07,2.93169e-07,5.860973e-07,3407898,0.006362221,-0.0029420913,-0.038043562,0.4,0.00033511926,0.00034210694,1.2433268e-05,466953,-0.000668477,-0.0001908383,-0.01925403,0.5,6.228309e-06,6.585017e-06,0.00016009387,1,1,1,1,1,1
335572441,335381729,3407898,-0.0050341813,-0.0011559593,0.0019033849,0.15,2.801799e-07,2.9300372e-07,5.934934e-07,3407898,0.0062740818,-0.0029414776,-0.03802466,0.4,0.00033504324,0.00034197496,1.2403615e-05,466953,-0.0006839695,-0.00019777547,-0.019264469,0.5,6.1975097e-06,6.5705244e-06,0.00015981308,1,1,1,1,1,1
336582187,336391729,3407898,-0.0050292388,-0.0011471589,0.0018987169,0.15,2.8006357e-07,2.9376886e-07,6.014715e-07,3407898,0.006285591,-0.0029633364,-0.038024783,0.4,0.00033500727,0.000341862,1.2381986e-05,466953,-0.00071044546,-0.00020954869,-0.019245358,0.5,6.169197e-06,6.556957e-06,0.00015967482,1,1,1,1,1,1
337592306,337401729,3407898,-0.0050169346,-0.0011446516,0.0018908577,0.15,2.7963932e-07,2.940982e-07,6.089395e-07,3407898,0.0062755933,-0.0030238286,-0.038026642,0.4,0.0003349165,0.0003416747,1.2353836e-05,466953,-0.00073675415,-0.00021751093,-0.019239482,0.5,6.134918e-06,6.5350587e-06,0.00015955359,1,1,1,1,1,1
338602193,338411729,3407898,-0.004990714,-0.0011462715,0.0018976292,0.15,2.8000613e-07,2.9498767e-07,6.167863e-07,3407898,0.0062641874,-0.0030449906,-0.038006503,0.4,0.00033486143,0.0003415347,1.2339295e-05,466953,-0.00077096425,-0.00017419778,-0.018915007,0.5,6.096008e-06,6.5013874e-06,0.00015729897,1,1,1,1,1,1
