timestamp,roll_body,pitch_body,yaw_body,yaw_sp_move_rate,q_d[0],q_d[1],q_d[2],q_d[3],thrust_body[0],thrust_body[1],thrust_body[2],reset_integral,fw_control_yaw_wheel
200062340,0.0,-0.0,-2.1898737,0.0,-0.4581026,0.0,0.0,0.8888993,0.0,0.0,-0.001,0,0
200072419,0.0,-0.0,-2.1898775,0.0,-0.45810091,0.0,0.0,0.8889002,0.0,0.0,-0.001,0,0
200082393,0.0,-0.0,-2.1898816,0.0,-0.4580991,0.0,0.0,0.8889011,0.0,0.0,-0.001,0,0
200222361,0.0,-0.0,-2.189823,0.0,-0.45812526,0.0,0.0,0.8888877,0.0,0.0,-0.001,0,0
200232671,0.0,-0.0,-2.189919,0.0,-0.45808247,0.0,0.0,0.8889097,0.0,0.0,-0.001,0,0
200242542,0.0,-0.0,-2.189947,0.0,-0.45807007,0.0,0.0,0.8889161,0.0,0.0,-0.001,0,0
200252341,0.0,-0.0,-2.1899252,0.0,-0.4580797,0.0,0.0,0.8889111,0.0,0.0,-0.001,0,0
200262342,0.0,-0.0,-2.1898527,0.0,-0.4581119,0.0,0.0,0.8888945,0.0,0.0,-0.001,0,0
200272389,0.0,-0.0,-2.1897912,0.0,-0.45813927,0.0,0.0,0.88888043,0.0,0.0,-0.001,0,0
200282449,0.0,-0.0,-2.1897714,0.0,-0.4581481,0.0,0.0,0.8888759,0.0,0.0,-0.001,0,0
200292330,0.0,-0.0,-2.1898215,0.0,-0.4581258,0.0,0.0,0.88888735,0.0,0.0,-0.001,0,0
200302635,0.0,-0.0,-2.1898937,0.0,-0.45809367,0.0,0.0,0.8889039,0.0,0.0,-0.001,0,0
200312448,0.0,-0.0,-2.1899564,0.0,-0.4580659,0.0,0.0,0.8889183,0.0,0.0,-0.001,0,0
200322333,0.0,-0.0,-2.1899557,0.0,-0.45806617,0.0,0.0,0.8889181,0.0,0.0,-0.001,0,0
200332333,0.0,-0.0,-2.1898956,0.0,-0.45809287,0.0,0.0,0.88890433,0.0,0.0,-0.001,0,0
200342588,0.0,-0.0,-2.1898148,0.0,-0.4581288,0.0,0.0,0.8888858,0.0,0.0,-0.001,0,0
200352426,0.0,-0.0,-2.1897705,0.0,-0.45814854,0.0,0.0,0.88887566,0.0,0.0,-0.001,0,0
200372665,0.0,-0.0,-2.1898482,0.0,-0.458114,0.0,0.0,0.8888935,0.0,0.0,-0.001,0,0
200382303,0.0,-0.0,-2.1899278,0.0,-0.45807856,0.0,0.0,0.8889117,0.0,0.0,-0.001,0,0
200392330,0.0,-0.0,-2.1899548,0.0,-0.45806658,0.0,0.0,0.88891786,0.0,0.0,-0.001,0,0
200402330,0.0,-0.0,-2.1899185,0.0,-0.45808274,0.0,0.0,0.88890964,0.0,0.0,-0.001,0,0
200412388,0.0,-0.0,-2.1898365,0.0,-0.45811915,0.0,0.0,0.8888908,0.0,0.0,-0.001,0,0
200422304,0.0,-0.0,-2.189767,0.0,-0.4581501,0.0,0.0,0.8888749,0.0,0.0,-0.001,0,0
200432325,0.0,-0.0,-2.189747,0.0,-0.45815894,0.0,0.0,0.8888703,0.0,0.0,-0.001,0,0
200442655,0.0,-0.0,-2.1898167,0.0,-0.45812795,0.0,0.0,0.8888863,0.0,0.0,-0.001,0,0
200452676,0.0,-0.0,-2.189902,0.0,-0.45809,0.0,0.0,0.8889058,0.0,0.0,-0.001,0,0
200462304,0.0,-0.0,-2.1899707,0.0,-0.45805946,0.0,0.0,0.88892156,0.0,0.0,-0.001,0,0
200472427,0.0,-0.0,-2.1899436,0.0,-0.4580716,0.0,0.0,0.8889153,0.0,0.0,-0.001,0,0
200482329,0.0,-0.0,-2.1898448,0.0,-0.45811543,0.0,0.0,0.8888927,0.0,0.0,-0.001,0,0
200492533,0.0,-0.0,-2.1897252,0.0,-0.45816866,0.0,0.0,0.8888653,0.0,0.0,-0.001,0,0
200502315,0.0,-0.0,-2.1896985,0.0,-0.4581805,0.0,0.0,0.8888592,0.0,0.0,-0.001,0,0
200512326,0.0,-0.0,-2.189767,0.0,-0.4581501,0.0,0.0,0.8888749,0.0,0.0,-0.001,0,0
200522599,0.0,-0.0,-2.1898863,0.0,-0.45809698,0.0,0.0,0.88890225,0.0,0.0,-0.001,0,0
200532325,0.0,-0.0,-2.1899512,0.0,-0.45806816,0.0,0.0,0.888917,0.0,0.0,-0.001,0,0
200542676,0.0,-0.0,-2.1899083,0.0,-0.4580873,0.0,0.0,0.88890725,0.0,0.0,-0.001,0,0
200552331,0.0,-0.0,-2.189831,0.0,-0.45812163,0.0,0.0,0.88888955,0.0,0.0,-0.001,0,0
200562345,0.0,-0.0,-2.189744,0.0,-0.4581602,0.0,0.0,0.88886964,0.0,0.0,-0.001,0,0
200572464,0.0,-0.0,-2.1897316,0.0,-0.45816582,0.0,0.0,0.8888668,0.0,0.0,-0.001,0,0
200582332,0.0,-0.0,-2.1897323,0.0,-0.45816544,0.0,0.0,0.88886696,0.0,0.0,-0.001,0,0
200592634,0.0,-0.0,-2.1897776,0.0,-0.45814538,0.0,0.0,0.88887733,0.0,0.0,-0.001,0,0
200602303,0.0,-0.0,-2.1898408,0.0,-0.45811728,0.0,0.0,0.88889176,0.0,0.0,-0.001,0,0
200612395,0.0,-0.0,-2.1898887,0.0,-0.4580959,0.0,0.0,0.8889028,0.0,0.0,-0.001,0,0
200622347,0.0,-0.0,-2.1898594,0.0,-0.45810896,0.0,0.0,0.88889605,0.0,0.0,-0.001,0,0
200632326,0.0,-0.0,-2.1897573,0.0,-0.45815435,0.0,0.0,0.8888727,0.0,0.0,-0.001,0,0
200642581,0.0,-0.0,-2.1896725,0.0,-0.45819208,0.0,0.0,0.8888532,0.0,0.0,-0.001,0,0
200652340,0.0,-0.0,-2.1896732,0.0,-0.45819175,0.0,0.0,0.8888534,0.0,0.0,-0.001,0,0
200662605,0.0,-0.0,-2.1897638,0.0,-0.4581515,0.0,0.0,0.8888741,0.0,0.0,-0.001,0,0
200672456,0.0,-0.0,-2.189821,0.0,-0.45812607,0.0,0.0,0.8888872,0.0,0.0,-0.001,0,0
200682301,0.0,-0.0,-2.1898026,0.0,-0.45813423,0.0,0.0,0.88888305,0.0,0.0,-0.001,0,0
200692490,0.0,-0.0,-2.1897664,0.0,-0.45815027,0.0,0.0,0.88887477,0.0,0.0,-0.001,0,0
200702328,0.0,-0.0,-2.1897485,0.0,-0.4581583,0.0,0.0,0.88887066,0.0,0.0,-0.001,0,0
200712435,0.0,-0.0,-2.189715,0.0,-0.4581732,0.0,0.0,0.88886297,0.0,0.0,-0.001,0,0
200722304,0.0,-0.0,-2.1896393,0.0,-0.45820674,0.0,0.0,0.8888456,0.0,0.0,-0.001,0,0
200732881,0.0,-0.0,-2.1896439,0.0,-0.4582048,0.0,0.0,0.8888467,0.0,0.0,-0.001,0,0
200742341,0.0,-0.0,-2.189712,0.0,-0.4581745,0.0,0.0,0.8888623,0.0,0.0,-0.001,0,0
200752499,0.0,-0.0,-2.1897826,0.0,-0.4581431,0.0,0.0,0.88887846,0.0,0.0,-0.001,0,0
200762299,0.0,-0.0,-2.1897647,0.0,-0.45815107,0.0,0.0,0.88887435,0.0,0.0,-0.001,0,0
200772417,0.0,-0.0,-2.189665,0.0,-0.45819536,0.0,0.0,0.8888515,0.0,0.0,-0.001,0,0
200782307,0.0,-0.0,-2.1895921,0.0,-0.45822775,0.0,0.0,0.88883483,0.0,0.0,-0.001,0,0
200792323,0.0,-0.0,-2.189602,0.0,-0.4582235,0.0,0.0,0.88883704,0.0,0.0,-0.001,0,0
200802625,0.0,-0.0,-2.1896095,0.0,-0.4582201,0.0,0.0,0.8888388,0.0,0.0,-0.001,0,0
200812331,0.0,-0.0,-2.1896148,0.0,-0.45821768,0.0,0.0,0.88884,0.0,0.0,-0.001,0,0
200822336,0.0,-0.0,-2.18964,0.0,-0.45820642,0.0,0.0,0.8888458,0.0,0.0,-0.001,0,0
200832633,0.0,-0.0,-2.1896763,0.0,-0.45819035,0.0,0.0,0.8888541,0.0,0.0,-0.001,0,0
200842344,0.0,-0.0,-2.189671,0.0,-0.45819265,0.0,0.0,0.8888529,0.0,0.0,-0.001,0,0
200852335,0.0,-0.0,-2.189582,0.0,-0.45823222,0.0,0.0,0.8888325,0.0,0.0,-0.001,0,0
200862333,0.0,-0.0,-2.1895204,0.0,-0.45825967,0.0,0.0,0.8888184,0.0,0.0,-0.001,0,0
200872697,0.0,-0.0,-2.1895304,0.0,-0.45825523,0.0,0.0,0.8888207,0.0,0.0,-0.001,0,0
200882346,0.0,-0.0,-2.189583,0.0,-0.45823178,0.0,0.0,0.88883275,0.0,0.0,-0.001,0,0
200892333,0.0,-0.0,-2.1896029,0.0,-0.45822304,0.0,0.0,0.8888373,0.0,0.0,-0.001,0,0
200902433,0.0,-0.0,-2.1895897,0.0,-0.45822883,0.0,0.0,0.8888343,0.0,0.0,-0.001,0,0
200912334,0.0,-0.0,-2.1895778,0.0,-0.45823413,0.0,0.0,0.88883156,0.0,0.0,-0.001,0,0
200922343,0.0,-0.0,-2.189548,0.0,-0.4582474,0.0,0.0,0.8888247,0.0,0.0,-0.001,0,0
200932633,0.0,-0.0,-2.1894915,0.0,-0.4582725,0.0,0.0,0.88881177,0.0,0.0,-0.001,0,0
200942310,0.0,-0.0,-2.1894581,0.0,-0.45828736,0.0,0.0,0.88880414,0.0,0.0,-0.001,0,0
200952647,0.0,-0.0,-2.1894705,0.0,-0.4582818,0.0,0.0,0.88880694,0.0,0.0,-0.001,0,0
200962342,0.0,-0.0,-2.1895194,0.0,-0.45826006,0.0,0.0,0.88881814,0.0,0.0,-0.001,0,0
200972440,0.0,-0.0,-2.189557,0.0,-0.4582433,0.0,0.0,0.8888268,0.0,0.0,-0.001,0,0
200982302,0.0,-0.0,-2.1895356,0.0,-0.45825288,0.0,0.0,0.8888219,0.0,0.0,-0.001,0,0
200992335,0.0,-0.0,-2.189497,0.0,-0.45827004,0.0,0.0,0.8888131,0.0,0.0,-0.001,0,0
201002368,0.0,-0.0,-2.18949,0.0,-0.45827308,0.0,0.0,0.88881147,0.0,0.0,-0.001,0,0
201012394,0.0,-0.0,-2.1894677,0.0,-0.45828307,0.0,0.0,0.8888063,0.0,0.0,-0.001,0,0
201022547,0.0,-0.0,-2.1894555,0.0,-0.45828843,0.0,0.0,0.88880354,0.0,0.0,-0.001,0,0
201032311,0.0,-0.0,-2.1894612,0.0,-0.45828596,0.0,0.0,0.88880485,0.0,0.0,-0.001,0,0
201042518,0.0,-0.0,-2.1895094,0.0,-0.4582645,0.0,0.0,0.8888159,0.0,0.0,-0.001,0,0
201052271,0.0,-0.0,-2.1895468,0.0,-0.45824793,0.0,0.0,0.88882446,0.0,0.0,-0.001,0,0
201062315,0.0,-0.0,-2.1895223,0.0,-0.45825878,0.0,0.0,0.8888188,0.0,0.0,-0.001,0,0
201072302,0.0,-0.0,-2.1894634,0.0,-0.458285,0.0,0.0,0.8888053,0.0,0.0,-0.001,0,0
201082271,0.0,-0.0,-2.1894224,0.0,-0.45830324,0.0,0.0,0.888796,0.0,0.0,-0.001,0,0
201092602,0.0,-0.0,-2.189441,0.0,-0.458295,0.0,0.0,0.88880014,0.0,0.0,-0.001,0,0
201102274,0.0,-0.0,-2.1894524,0.0,-0.45828983,0.0,0.0,0.88880277,0.0,0.0,-0.001,0,0
201112391,0.0,-0.0,-2.1894464,0.0,-0.4582925,0.0,0.0,0.88880146,0.0,0.0,-0.001,0,0
201122249,0.0,-0.0,-2.1894531,0.0,-0.4582895,0.0,0.0,0.888803,0.0,0.0,-0.001,0,0
201132303,0.0,-0.0,-2.1894836,0.0,-0.45827594,0.0,0.0,0.88881,0.0,0.0,-0.001,0,0
201142565,0.0,-0.0,-2.1894734,0.0,-0.4582805,0.0,0.0,0.8888076,0.0,0.0,-0.001,0,0
201152253,0.0,-0.0,-2.1894221,0.0,-0.45830333,0.0,0.0,0.88879585,0.0,0.0,-0.001,0,0
201162539,0.0,-0.0,-2.1893747,0.0,-0.45832437,0.0,0.0,0.888785,0.0,0.0,-0.001,0,0
201172309,0.0,-0.0,-2.189394,0.0,-0.4583158,0.0,0.0,0.8887894,0.0,0.0,-0.001,0,0
201182271,0.0,-0.0,-2.1894379,0.0,-0.4582963,0.0,0.0,0.8887995,0.0,0.0,-0.001,0,0
201192303,0.0,-0.0,-2.1894507,0.0,-0.45829058,0.0,0.0,0.8888024,0.0,0.0,-0.001,0,0
201202276,0.0,-0.0,-2.1894286,0.0,-0.45830044,0.0,0.0,0.88879734,0.0,0.0,-0.001,0,0
201212275,0.0,-0.0,-2.1894069,0.0,-0.45831016,0.0,0.0,0.8887924,0.0,0.0,-0.001,0,0
201222301,0.0,-0.0,-2.1894028,0.0,-0.45831192,0.0,0.0,0.88879144,0.0,0.0,-0.001,0,0
201232779,0.0,-0.0,-2.1893992,0.0,-0.4583135,0.0,0.0,0.88879067,0.0,0.0,-0.001,0,0
201242253,0.0,-0.0,-2.189355,0.0,-0.45833316,0.0,0.0,0.8887805,0.0,0.0,-0.001,0,0
201252301,0.0,-0.0,-2.189354,0.0,-0.45833367,0.0,0.0,0.88878024,0.0,0.0,-0.001,0,0
201262316,0.0,-0.0,-2.1894007,0.0,-0.4583129,0.0,0.0,0.88879097,0.0,0.0,-0.001,0,0
201272339,0.0,-0.0,-2.1894007,0.0,-0.4583129,0.0,0.0,0.88879097,0.0,0.0,-0.001,0,0
201282270,0.0,-0.0,-2.1893587,0.0,-0.4583315,0.0,0.0,0.8887813,0.0,0.0,-0.001,0,0
201292265,0.0,-0.0,-2.1893106,0.0,-0.45835286,0.0,0.0,0.8887703,0.0,0.0,-0.001,0,0
201302536,0.0,-0.0,-2.1893044,0.0,-0.45835567,0.0,0.0,0.8887689,0.0,0.0,-0.001,0,0
201312280,0.0,-0.0,-2.189308,0.0,-0.4583541,0.0,0.0,0.8887697,0.0,0.0,-0.001,0,0
201322384,0.0,-0.0,-2.1893158,0.0,-0.4583505,0.0,0.0,0.88877153,0.0,0.0,-0.001,0,0
201332255,0.0,-0.0,-2.189293,0.0,-0.4583607,0.0,0.0,0.8887662,0.0,0.0,-0.001,0,0
201342523,0.0,-0.0,-2.1893024,0.0,-0.45835647,0.0,0.0,0.88876843,0.0,0.0,-0.001,0,0
201352328,0.0,-0.0,-2.1893182,0.0,-0.45834947,0.0,0.0,0.8887721,0.0,0.0,-0.001,0,0
201362306,0.0,-0.0,-2.1892998,0.0,-0.45835763,0.0,0.0,0.88876784,0.0,0.0,-0.001,0,0
201372597,0.0,-0.0,-2.1892464,0.0,-0.4583814,0.0,0.0,0.88875556,0.0,0.0,-0.001,0,0
201382251,0.0,-0.0,-2.189227,0.0,-0.45839,0.0,0.0,0.88875115,0.0,0.0,-0.001,0,0
201392302,0.0,-0.0,-2.1892467,0.0,-0.4583813,0.0,0.0,0.8887556,0.0,0.0,-0.001,0,0
201402318,0.0,-0.0,-2.1892543,0.0,-0.45837793,0.0,0.0,0.8887574,0.0,0.0,-0.001,0,0
201412268,0.0,-0.0,-2.18924,0.0,-0.45838425,0.0,0.0,0.8887541,0.0,0.0,-0.001,0,0
201422265,0.0,-0.0,-2.1892147,0.0,-0.45839542,0.0,0.0,0.88874835,0.0,0.0,-0.001,0,0
201432527,0.0,-0.0,-2.1892128,0.0,-0.45839632,0.0,0.0,0.8887479,0.0,0.0,-0.001,0,0
201442260,0.0,-0.0,-2.189219,0.0,-0.45839357,0.0,0.0,0.8887493,0.0,0.0,-0.001,0,0
201452599,0.0,-0.0,-2.1891887,0.0,-0.458407,0.0,0.0,0.8887424,0.0,0.0,-0.001,0,0
201462247,0.0,-0.0,-2.1891398,0.0,-0.45842877,0.0,0.0,0.8887312,0.0,0.0,-0.001,0,0
201472318,0.0,-0.0,-2.1891503,0.0,-0.4584241,0.0,0.0,0.88873357,0.0,0.0,-0.001,0,0
201482314,0.0,-0.0,-2.1891766,0.0,-0.45841244,0.0,0.0,0.8887396,0.0,0.0,-0.001,0,0
201492301,0.0,-0.0,-2.189176,0.0,-0.45841265,0.0,0.0,0.88873947,0.0,0.0,-0.001,0,0
201502279,0.0,-0.0,-2.1891303,0.0,-0.45843297,0.0,0.0,0.888729,0.0,0.0,-0.001,0,0
201512268,0.0,-0.0,-2.1891246,0.0,-0.45843554,0.0,0.0,0.88872766,0.0,0.0,-0.001,0,0
201522645,0.0,-0.0,-2.1891468,0.0,-0.45842564,0.0,0.0,0.8887328,0.0,0.0,-0.001,0,0
201532572,0.0,-0.0,-2.1891413,0.0,-0.45842808,0.0,0.0,0.8887315,0.0,0.0,-0.001,0,0
201542261,0.0,-0.0,-2.1891067,0.0,-0.45844343,0.0,0.0,0.8887236,0.0,0.0,-0.001,0,0
201552282,0.0,-0.0,-2.1891093,0.0,-0.45844236,0.0,0.0,0.8887242,0.0,0.0,-0.001,0,0
201562277,0.0,-0.0,-2.189135,0.0,-0.45843083,0.0,0.0,0.8887301,0.0,0.0,-0.001,0,0
201572305,0.0,-0.0,-2.189149,0.0,-0.45842472,0.0,0.0,0.88873327,0.0,0.0,-0.001,0,0
201582305,0.0,-0.0,-2.18911,0.0,-0.45844194,0.0,0.0,0.8887243,0.0,0.0,-0.001,0,0
201592576,0.0,-0.0,-2.1890821,0.0,-0.45845437,0.0,0.0,0.88871795,0.0,0.0,-0.001,0,0
201602243,0.0,-0.0,-2.1890736,0.0,-0.45845824,0.0,0.0,0.888716,0.0,0.0,-0.001,0,0
201612284,0.0,-0.0,-2.189096,0.0,-0.45844823,0.0,0.0,0.8887211,0.0,0.0,-0.001,0,0
201622306,0.0,-0.0,-2.1890867,0.0,-0.45845237,0.0,0.0,0.88871896,0.0,0.0,-0.001,0,0
201632530,0.0,-0.0,-2.1890736,0.0,-0.45845824,0.0,0.0,0.888716,0.0,0.0,-0.001,0,0
201642266,0.0,-0.0,-2.1890688,0.0,-0.45846033,0.0,0.0,0.88871485,0.0,0.0,-0.001,0,0
201652299,0.0,-0.0,-2.1890678,0.0,-0.45846075,0.0,0.0,0.8887147,0.0,0.0,-0.001,0,0
201662576,0.0,-0.0,-2.1890385,0.0,-0.4584738,0.0,0.0,0.88870794,0.0,0.0,-0.001,0,0
201672309,0.0,-0.0,-2.1890125,0.0,-0.45848534,0.0,0.0,0.888702,0.0,0.0,-0.001,0,0
201682275,0.0,-0.0,-2.188998,0.0,-0.45849177,0.0,0.0,0.88869864,0.0,0.0,-0.001,0,0
201692269,0.0,-0.0,-2.189014,0.0,-0.45848468,0.0,0.0,0.88870233,0.0,0.0,-0.001,0,0
201702286,0.0,-0.0,-2.1890278,0.0,-0.45847857,0.0,0.0,0.8887055,0.0,0.0,-0.001,0,0
201712299,0.0,-0.0,-2.1890044,0.0,-0.4584889,0.0,0.0,0.8887001,0.0,0.0,-0.001,0,0
201722357,0.0,-0.0,-2.188985,0.0,-0.4584975,0.0,0.0,0.88869566,0.0,0.0,-0.001,0,0
201732754,0.0,-0.0,-2.188986,0.0,-0.45849705,0.0,0.0,0.8886959,0.0,0.0,-0.001,0,0
201742272,0.0,-0.0,-2.1889842,0.0,-0.45849794,0.0,0.0,0.8886955,0.0,0.0,-0.001,0,0
201752297,0.0,-0.0,-2.1889577,0.0,-0.45850965,0.0,0.0,0.8886894,0.0,0.0,-0.001,0,0
201762277,0.0,-0.0,-2.1889389,0.0,-0.45851803,0.0,0.0,0.8886851,0.0,0.0,-0.001,0,0
201772305,0.0,-0.0,-2.1889386,0.0,-0.45851824,0.0,0.0,0.88868505,0.0,0.0,-0.001,0,0
201782301,0.0,-0.0,-2.188954,0.0,-0.4585113,0.0,0.0,0.88868856,0.0,0.0,-0.001,0,0
201792316,0.0,-0.0,-2.1889255,0.0,-0.458524,0.0,0.0,0.888682,0.0,0.0,-0.001,0,0
201802532,0.0,-0.0,-2.1889079,0.0,-0.45853183,0.0,0.0,0.88867795,0.0,0.0,-0.001,0,0
201812272,0.0,-0.0,-2.1889179,0.0,-0.45852736,0.0,0.0,0.8886803,0.0,0.0,-0.001,0,0
201822284,0.0,-0.0,-2.1889205,0.0,-0.4585262,0.0,0.0,0.8886809,0.0,0.0,-0.001,0,0
201832531,0.0,-0.0,-2.1889033,0.0,-0.4585338,0.0,0.0,0.888677,0.0,0.0,-0.001,0,0
201842287,0.0,-0.0,-2.1888833,0.0,-0.4585427,0.0,0.0,0.88867235,0.0,0.0,-0.001,0,0
201852277,0.0,-0.0,-2.1888685,0.0,-0.4585493,0.0,0.0,0.888669,0.0,0.0,-0.001,0,0
201862276,0.0,-0.0,-2.1888769,0.0,-0.4585456,0.0,0.0,0.88867086,0.0,0.0,-0.001,0,0
201872310,0.0,-0.0,-2.1888628,0.0,-0.45855185,0.0,0.0,0.88866764,0.0,0.0,-0.001,0,0
201882575,0.0,-0.0,-2.1888437,0.0,-0.45856032,0.0,0.0,0.8886633,0.0,0.0,-0.001,0,0
201892268,0.0,-0.0,-2.1888282,0.0,-0.45856723,0.0,0.0,0.8886597,0.0,0.0,-0.001,0,0
201902271,0.0,-0.0,-2.1888359,0.0,-0.45856386,0.0,0.0,0.8886615,0.0,0.0,-0.001,0,0
201912304,0.0,-0.0,-2.1888485,0.0,-0.4585582,0.0,0.0,0.88866436,0.0,0.0,-0.001,0,0
201922318,0.0,-0.0,-2.1888404,0.0,-0.4585618,0.0,0.0,0.8886626,0.0,0.0,-0.001,0,0
201932383,0.0,-0.0,-2.1888273,0.0,-0.45856765,0.0,0.0,0.88865954,0.0,0.0,-0.001,0,0
201942495,0.0,-0.0,-2.1888285,0.0,-0.45856717,0.0,0.0,0.8886598,0.0,0.0,-0.001,0,0
201952586,0.0,-0.0,-2.1888385,0.0,-0.4585626,0.0,0.0,0.8886621,0.0,0.0,-0.001,0,0
201962258,0.0,-0.0,-2.188822,0.0,-0.45856994,0.0,0.0,0.88865834,0.0,0.0,-0.001,0,0
201972340,0.0,-0.0,-2.1888206,0.0,-0.4585706,0.0,0.0,0.888658,0.0,0.0,-0.001,0,0
201982272,0.0,-0.0,-2.1888165,0.0,-0.4585724,0.0,0.0,0.88865703,0.0,0.0,-0.001,0,0
201992266,0.0,-0.0,-2.1888359,0.0,-0.45856386,0.0,0.0,0.8886615,0.0,0.0,-0.001,0,0
202002287,0.0,-0.0,-2.1888275,0.0,-0.45856756,0.0,0.0,0.8886596,0.0,0.0,-0.001,0,0
202012295,0.0,-0.0,-2.1888282,0.0,-0.45856723,0.0,0.0,0.8886597,0.0,0.0,-0.001,0,0
202022534,0.0,-0.0,-2.1888318,0.0,-0.45856562,0.0,0.0,0.88866055,0.0,0.0,-0.001,0,0
202032287,0.0,-0.0,-2.1888418,0.0,-0.45856112,0.0,0.0,0.8886629,0.0,0.0,-0.001,0,0
202042547,0.0,-0.0,-2.1888304,0.0,-0.45856628,0.0,0.0,0.8886602,0.0,0.0,-0.001,0,0
202052382,0.0,-0.0,-2.188821,0.0,-0.4585704,0.0,0.0,0.8886581,0.0,0.0,-0.001,0,0
202062286,0.0,-0.0,-2.1888056,0.0,-0.45857728,0.0,0.0,0.88865453,0.0,0.0,-0.001,0,0
202072338,0.0,-0.0,-2.1888094,0.0,-0.45857558,0.0,0.0,0.8886554,0.0,0.0,-0.001,0,0
202082319,0.0,-0.0,-2.188802,0.0,-0.45857888,0.0,0.0,0.88865376,0.0,0.0,-0.001,0,0
202092599,0.0,-0.0,-2.188812,0.0,-0.45857447,0.0,0.0,0.888656,0.0,0.0,-0.001,0,0
202102312,0.0,-0.0,-2.1888092,0.0,-0.45857567,0.0,0.0,0.88865536,0.0,0.0,-0.001,0,0
202112303,0.0,-0.0,-2.1888154,0.0,-0.45857292,0.0,0.0,0.8886568,0.0,0.0,-0.001,0,0
202122311,0.0,-0.0,-2.1887932,0.0,-0.45858276,0.0,0.0,0.88865167,0.0,0.0,-0.001,0,0
202132456,0.0,-0.0,-2.188789,0.0,-0.45858467,0.0,0.0,0.8886507,0.0,0.0,-0.001,0,0
202142543,0.0,-0.0,-2.1887782,0.0,-0.4585894,0.0,0.0,0.8886483,0.0,0.0,-0.001,0,0
202152306,0.0,-0.0,-2.1887712,0.0,-0.4585925,0.0,0.0,0.88864666,0.0,0.0,-0.001,0,0
202162567,0.0,-0.0,-2.188765,0.0,-0.4585953,0.0,0.0,0.88864523,0.0,0.0,-0.001,0,0
202172391,0.0,-0.0,-2.188763,0.0,-0.45859626,0.0,0.0,0.88864475,0.0,0.0,-0.001,0,0
202182332,0.0,-0.0,-2.1887581,0.0,-0.4585984,0.0,0.0,0.8886437,0.0,0.0,-0.001,0,0
202192301,0.0,-0.0,-2.1887577,0.0,-0.45859855,0.0,0.0,0.88864356,0.0,0.0,-0.001,0,0
202202306,0.0,-0.0,-2.1887326,0.0,-0.4586097,0.0,0.0,0.8886378,0.0,0.0,-0.001,0,0
202212309,0.0,-0.0,-2.1887178,0.0,-0.45861626,0.0,0.0,0.88863444,0.0,0.0,-0.001,0,0
202222312,0.0,-0.0,-2.1887207,0.0,-0.45861498,0.0,0.0,0.8886351,0.0,0.0,-0.001,0,0
202232805,0.0,-0.0,-2.1887212,0.0,-0.4586148,0.0,0.0,0.88863516,0.0,0.0,-0.001,0,0
202242290,0.0,-0.0,-2.1887105,0.0,-0.45861962,0.0,0.0,0.8886327,0.0,0.0,-0.001,0,0
202252304,0.0,-0.0,-2.1887043,0.0,-0.45862234,0.0,0.0,0.8886313,0.0,0.0,-0.001,0,0
202262324,0.0,-0.0,-2.1887054,0.0,-0.45862177,0.0,0.0,0.8886316,0.0,0.0,-0.001,0,0
202272392,0.0,-0.0,-2.1887188,0.0,-0.45861587,0.0,0.0,0.8886346,0.0,0.0,-0.001,0,0
202282278,0.0,-0.0,-2.1886969,0.0,-0.45862558,0.0,0.0,0.8886296,0.0,0.0,-0.001,0,0
202292300,0.0,-0.0,-2.1886735,0.0,-0.45863596,0.0,0.0,0.88862425,0.0,0.0,-0.001,0,0
202302598,0.0,-0.0,-2.1886845,0.0,-0.4586311,0.0,0.0,0.88862675,0.0,0.0,-0.001,0,0
202312384,0.0,-0.0,-2.1887007,0.0,-0.45862386,0.0,0.0,0.8886305,0.0,0.0,-0.001,0,0
202322280,0.0,-0.0,-2.18869,0.0,-0.45862868,0.0,0.0,0.888628,0.0,0.0,-0.001,0,0
202332430,0.0,-0.0,-2.1886675,0.0,-0.4586386,0.0,0.0,0.88862294,0.0,0.0,-0.001,0,0
202342519,0.0,-0.0,-2.1886592,0.0,-0.4586423,0.0,0.0,0.888621,0.0,0.0,-0.001,0,0
202352310,0.0,-0.0,-2.188661,0.0,-0.45864147,0.0,0.0,0.8886214,0.0,0.0,-0.001,0,0
202362351,0.0,-0.0,-2.1886692,0.0,-0.45863792,0.0,0.0,0.8886233,0.0,0.0,-0.001,0,0
202372333,0.0,-0.0,-2.1886501,0.0,-0.45864633,0.0,0.0,0.8886189,0.0,0.0,-0.001,0,0
202382570,0.0,-0.0,-2.1886487,0.0,-0.45864698,0.0,0.0,0.8886185,0.0,0.0,-0.001,0,0
202392306,0.0,-0.0,-2.1886764,0.0,-0.45863467,0.0,0.0,0.8886249,0.0,0.0,-0.001,0,0
202402335,0.0,-0.0,-2.1886811,0.0,-0.45863262,0.0,0.0,0.888626,0.0,0.0,-0.001,0,0
202412299,0.0,-0.0,-2.1886547,0.0,-0.45864436,0.0,0.0,0.8886199,0.0,0.0,-0.001,0,0
202422315,0.0,-0.0,-2.1886315,0.0,-0.45865455,0.0,0.0,0.88861465,0.0,0.0,-0.001,0,0
202432627,0.0,-0.0,-2.188632,0.0,-0.4586544,0.0,0.0,0.8886147,0.0,0.0,-0.001,0,0
202442333,0.0,-0.0,-2.188651,0.0,-0.4586459,0.0,0.0,0.8886191,0.0,0.0,-0.001,0,0
202452608,0.0,-0.0,-2.188629,0.0,-0.45865577,0.0,0.0,0.888614,0.0,0.0,-0.001,0,0
202462289,0.0,-0.0,-2.1885953,0.0,-0.45867068,0.0,0.0,0.88860637,0.0,0.0,-0.001,0,0
202472339,0.0,-0.0,-2.1886184,0.0,-0.45866045,0.0,0.0,0.8886116,0.0,0.0,-0.001,0,0
202482311,0.0,-0.0,-2.1886313,0.0,-0.4586547,0.0,0.0,0.8886146,0.0,0.0,-0.001,0,0
202492322,0.0,-0.0,-2.188606,0.0,-0.45866594,0.0,0.0,0.8886088,0.0,0.0,-0.001,0,0
202502307,0.0,-0.0,-2.1885798,0.0,-0.45867753,0.0,0.0,0.8886028,0.0,0.0,-0.001,0,0
202512305,0.0,-0.0,-2.1885843,0.0,-0.4586756,0.0,0.0,0.8886038,0.0,0.0,-0.001,0,0
202522578,0.0,-0.0,-2.1885962,0.0,-0.4586703,0.0,0.0,0.88860655,0.0,0.0,-0.001,0,0
202532461,0.0,-0.0,-2.1885965,0.0,-0.45867017,0.0,0.0,0.8886066,0.0,0.0,-0.001,0,0
202542536,0.0,-0.0,-2.1885567,0.0,-0.45868793,0.0,0.0,0.8885975,0.0,0.0,-0.001,0,0
202552312,0.0,-0.0,-2.188553,0.0,-0.45868948,0.0,0.0,0.8885966,0.0,0.0,-0.001,0,0
202562362,0.0,-0.0,-2.1885686,0.0,-0.45868263,0.0,0.0,0.88860023,0.0,0.0,-0.001,0,0
202572425,0.0,-0.0,-2.1885705,0.0,-0.4586817,0.0,0.0,0.88860065,0.0,0.0,-0.001,0,0
202582278,0.0,-0.0,-2.188535,0.0,-0.4586975,0.0,0.0,0.8885925,0.0,0.0,-0.001,0,0
202592597,0.0,-0.0,-2.1885114,0.0,-0.45870796,0.0,0.0,0.8885871,0.0,0.0,-0.001,0,0
202602283,0.0,-0.0,-2.1885219,0.0,-0.4587034,0.0,0.0,0.8885895,0.0,0.0,-0.001,0,0
202612298,0.0,-0.0,-2.188512,0.0,-0.4587077,0.0,0.0,0.88858724,0.0,0.0,-0.001,0,0
202622335,0.0,-0.0,-2.1884868,0.0,-0.4587189,0.0,0.0,0.88858145,0.0,0.0,-0.001,0,0
202632301,0.0,-0.0,-2.1884563,0.0,-0.45873246,0.0,0.0,0.8885744,0.0,0.0,-0.001,0,0
202642543,0.0,-0.0,-2.188476,0.0,-0.4587237,0.0,0.0,0.88857895,0.0,0.0,-0.001,0,0
202652306,0.0,-0.0,-2.188498,0.0,-0.45871392,0.0,0.0,0.888584,0.0,0.0,-0.001,0,0
202662608,0.0,-0.0,-2.1884634,0.0,-0.45872927,0.0,0.0,0.8885761,0.0,0.0,-0.001,0,0
202672335,0.0,-0.0,-2.1884212,0.0,-0.45874804,0.0,0.0,0.8885664,0.0,0.0,-0.001,0,0
202682314,0.0,-0.0,-2.1884348,0.0,-0.458742,0.0,0.0,0.88856953,0.0,0.0,-0.001,0,0
202692336,0.0,-0.0,-2.1884387,0.0,-0.45874032,0.0,0.0,0.88857037,0.0,0.0,-0.001,0,0
202702358,0.0,-0.0,-2.1884196,0.0,-0.45874876,0.0,0.0,0.888566,0.0,0.0,-0.001,0,0
202712300,0.0,-0.0,-2.1883981,0.0,-0.45875832,0.0,0.0,0.8885611,0.0,0.0,-0.001,0,0
202722309,0.0,-0.0,-2.1883998,0.0,-0.45875755,0.0,0.0,0.8885615,0.0,0.0,-0.001,0,0
202732725,0.0,-0.0,-2.188429,0.0,-0.45874453,0.0,0.0,0.8885682,0.0,0.0,-0.001,0,0
202742514,0.0,-0.0,-2.1883934,0.0,-0.4587604,0.0,0.0,0.88856,0.0,0.0,-0.001,0,0
202752381,0.0,-0.0,-2.188353,0.0,-0.45877838,0.0,0.0,0.88855076,0.0,0.0,-0.001,0,0
202762290,0.0,-0.0,-2.1883512,0.0,-0.45877925,0.0,0.0,0.88855034,0.0,0.0,-0.001,0,0
202772336,0.0,-0.0,-2.1883779,0.0,-0.4587673,0.0,0.0,0.8885564,0.0,0.0,-0.001,0,0
202782319,0.0,-0.0,-2.1883729,0.0,-0.4587696,0.0,0.0,0.8885553,0.0,0.0,-0.001,0,0
202792331,0.0,-0.0,-2.1883368,0.0,-0.45878553,0.0,0.0,0.88854706,0.0,0.0,-0.001,0,0
202802571,0.0,-0.0,-2.1883252,0.0,-0.45879075,0.0,0.0,0.8885444,0.0,0.0,-0.001,0,0
202812309,0.0,-0.0,-2.188332,0.0,-0.45878768,0.0,0.0,0.888546,0.0,0.0,-0.001,0,0
202822340,0.0,-0.0,-2.1883292,0.0,-0.45878896,0.0,0.0,0.8885453,0.0,0.0,-0.001,0,0
202832383,0.0,-0.0,-2.188291,0.0,-0.45880583,0.0,0.0,0.8885366,0.0,0.0,-0.001,0,0
202842515,0.0,-0.0,-2.1882694,0.0,-0.4588155,0.0,0.0,0.88853157,0.0,0.0,-0.001,0,0
202852307,0.0,-0.0,-2.1883042,0.0,-0.45880002,0.0,0.0,0.88853955,0.0,0.0,-0.001,0,0
202862318,0.0,-0.0,-2.1883178,0.0,-0.458794,0.0,0.0,0.8885427,0.0,0.0,-0.001,0,0
202872392,0.0,-0.0,-2.188295,0.0,-0.45880416,0.0,0.0,0.8885374,0.0,0.0,-0.001,0,0
202882570,0.0,-0.0,-2.1882756,0.0,-0.45881274,0.0,0.0,0.888533,0.0,0.0,-0.001,0,0
202892298,0.0,-0.0,-2.1882803,0.0,-0.45881063,0.0,0.0,0.8885341,0.0,0.0,-0.001,0,0
202902317,0.0,-0.0,-2.1882854,0.0,-0.45880845,0.0,0.0,0.88853526,0.0,0.0,-0.001,0,0
202912306,0.0,-0.0,-2.1882603,0.0,-0.4588195,0.0,0.0,0.8885295,0.0,0.0,-0.001,0,0
202922331,0.0,-0.0,-2.1882343,0.0,-0.4588311,0.0,0.0,0.8885235,0.0,0.0,-0.001,0,0
202932433,0.0,-0.0,-2.1882734,0.0,-0.45881373,0.0,0.0,0.88853246,0.0,0.0,-0.001,0,0
202942526,0.0,-0.0,-2.1883104,0.0,-0.45879728,0.0,0.0,0.888541,0.0,0.0,-0.001,0,0
202952661,0.0,-0.0,-2.1882775,0.0,-0.45881197,0.0,0.0,0.8885334,0.0,0.0,-0.001,0,0
202962327,0.0,-0.0,-2.1882322,0.0,-0.4588321,0.0,0.0,0.88852304,0.0,0.0,-0.001,0,0
202972332,0.0,-0.0,-2.1882381,0.0,-0.45882937,0.0,0.0,0.8885244,0.0,0.0,-0.001,0,0
202982307,0.0,-0.0,-2.1882415,0.0,-0.45882794,0.0,0.0,0.8885252,0.0,0.0,-0.001,0,0
202992316,0.0,-0.0,-2.1881998,0.0,-0.45884648,0.0,0.0,0.8885156,0.0,0.0,-0.001,0,0
203002309,0.0,-0.0,-2.1881526,0.0,-0.4588674,0.0,0.0,0.8885048,0.0,0.0,-0.001,0,0
203012320,0.0,-0.0,-2.1881728,0.0,-0.45885843,0.0,0.0,0.8885094,0.0,0.0,-0.001,0,0
203022575,0.0,-0.0,-2.1881976,0.0,-0.45884737,0.0,0.0,0.8885151,0.0,0.0,-0.001,0,0
203032316,0.0,-0.0,-2.1881683,0.0,-0.45886043,0.0,0.0,0.8885084,0.0,0.0,-0.001,0,0
203042564,0.0,-0.0,-2.188129,0.0,-0.45887786,0.0,0.0,0.8884994,0.0,0.0,-0.001,0,0
203052378,0.0,-0.0,-2.188105,0.0,-0.45888847,0.0,0.0,0.8884939,0.0,0.0,-0.001,0,0
203062253,0.0,-0.0,-2.1881359,0.0,-0.45887485,0.0,0.0,0.888501,0.0,0.0,-0.001,0,0
203072300,0.0,-0.0,-2.1881042,0.0,-0.45888892,0.0,0.0,0.88849366,0.0,0.0,-0.001,0,0
203082316,0.0,-0.0,-2.1880646,0.0,-0.45890644,0.0,0.0,0.8884846,0.0,0.0,-0.001,0,0
203092613,0.0,-0.0,-2.1880488,0.0,-0.45891348,0.0,0.0,0.88848096,0.0,0.0,-0.001,0,0
203102240,0.0,-0.0,-2.188081,0.0,-0.4588992,0.0,0.0,0.88848835,0.0,0.0,-0.001,0,0
203112272,0.0,-0.0,-2.188088,0.0,-0.45889607,0.0,0.0,0.88848996,0.0,0.0,-0.001,0,0
203122287,0.0,-0.0,-2.1880333,0.0,-0.4589204,0.0,0.0,0.8884774,0.0,0.0,-0.001,0,0
203132377,0.0,-0.0,-2.188016,0.0,-0.4589281,0.0,0.0,0.88847345,0.0,0.0,-0.001,0,0
203142516,0.0,-0.0,-2.1880653,0.0,-0.45890617,0.0,0.0,0.8884848,0.0,0.0,-0.001,0,0
203152283,0.0,-0.0,-2.1880622,0.0,-0.45890757,0.0,0.0,0.88848406,0.0,0.0,-0.001,0,0
203162551,0.0,-0.0,-2.1880028,0.0,-0.45893392,0.0,0.0,0.8884704,0.0,0.0,-0.001,0,0
203172299,0.0,-0.0,-2.1879635,0.0,-0.45895138,0.0,0.0,0.88846135,0.0,0.0,-0.001,0,0
203182306,0.0,-0.0,-2.1879742,0.0,-0.45894665,0.0,0.0,0.88846385,0.0,0.0,-0.001,0,0
203192269,0.0,-0.0,-2.1880078,0.0,-0.45893165,0.0,0.0,0.8884716,0.0,0.0,-0.001,0,0
203202276,0.0,-0.0,-2.1879528,0.0,-0.45895615,0.0,0.0,0.8884589,0.0,0.0,-0.001,0,0
203212302,0.0,-0.0,-2.1878822,0.0,-0.45898747,0.0,0.0,0.88844275,0.0,0.0,-0.001,0,0
203222315,0.0,-0.0,-2.1879017,0.0,-0.45897877,0.0,0.0,0.8884472,0.0,0.0,-0.001,0,0
203232562,0.0,-0.0,-2.1879277,0.0,-0.45896727,0.0,0.0,0.8884532,0.0,0.0,-0.001,0,0
203242457,0.0,-0.0,-2.1878886,0.0,-0.45898467,0.0,0.0,0.8884442,0.0,0.0,-0.001,0,0
203252274,0.0,-0.0,-2.187841,0.0,-0.45900586,0.0,0.0,0.8884333,0.0,0.0,-0.001,0,0
203262296,0.0,-0.0,-2.1878488,0.0,-0.45900235,0.0,0.0,0.88843507,0.0,0.0,-0.001,0,0
203272328,0.0,-0.0,-2.1878958,0.0,-0.45898145,0.0,0.0,0.88844585,0.0,0.0,-0.001,0,0
203282274,0.0,-0.0,-2.1878767,0.0,-0.45898995,0.0,0.0,0.88844144,0.0,0.0,-0.001,0,0
203292267,0.0,-0.0,-2.1877947,0.0,-0.4590264,0.0,0.0,0.8884226,0.0,0.0,-0.001,0,0
203302275,0.019988086,0.01757218,-2.1877875,1.1946081e-12,-0.45891082,-0.012392565,0.004845605,0.8883827,0.0,0.0,-0.01778007,0,0
203312592,0.020941326,0.016355388,-2.1878273,1.0581234e-12,-0.45889527,-0.012070741,0.005548561,0.8883911,0.0,0.0,-0.019077742,0,0
203322246,0.01914096,0.016124943,-2.1878273,1.0581234e-12,-0.4589074,-0.011555292,0.0048017367,0.888396,0.0,0.0,-0.020252883,0,0
203332389,0.019062484,0.014951415,-2.1878273,8.482376e-13,-0.4589149,-0.011016045,0.0050362274,0.88839763,0.0,0.0,-0.021608027,0,0
203342513,0.018635832,0.015117565,-2.1878273,8.482376e-13,-0.45891628,-0.010991945,0.004808573,0.8883985,0.0,0.0,-0.022864077,0,0
203352324,0.018380698,0.015883747,-2.1878273,8.482376e-13,-0.45891312,-0.011273714,0.004519388,0.8883981,0.0,0.0,-0.024310937,0,0
203362284,0.015667733,0.014286144,-2.1878273,6.174839e-13,-0.4589363,-0.00994158,0.0036809673,0.8884059,0.0,0.0,-0.025633115,0,0
203372298,0.016086718,0.014478505,-2.1878273,6.174839e-13,-0.45893326,-0.010123166,0.0038229318,0.88840485,0.0,0.0,-0.02710078,0,0
203382537,0.011498676,0.0106247235,-2.1878273,4.9273557e-13,-0.4589707,-0.0073585245,0.0026693998,0.8884169,0.0,0.0,-0.028454574,0,0
203392281,0.011076515,0.010443307,-2.1878273,4.9273557e-13,-0.45897296,-0.00718106,0.0025235089,0.88841766,0.0,0.0,-0.030058378,0,0
203402300,0.008168952,0.007350492,-2.1878273,3.951249e-13,-0.45899165,-0.0051399693,0.0019417732,0.8884236,0.0,0.0,-0.031360637,0,0
203412265,0.008033858,0.0073371874,-2.1878273,3.951249e-13,-0.458992,-0.0051030554,0.0018848163,0.8884238,0.0,0.0,-0.03309784,0,0
203422281,0.0025301185,0.002245577,-2.1878273,3.1616948e-13,-0.45900998,-0.0015781948,0.00060854293,0.8884295,0.0,0.0,-0.03438928,0,0
203432269,0.0010433326,0.0015772565,-2.1878273,3.1616948e-13,-0.45901132,-0.00094009185,0.00010147434,0.88842994,0.0,0.0,-0.036170818,0,0
203442534,0.0018661548,0.0017189456,-2.1878273,2.523451e-13,-0.45901078,-0.0011918745,0.0004344657,0.88842976,0.0,0.0,-0.037503704,0,0
203452563,0.0014824352,0.0016760611,-2.1878273,2.241847e-13,-0.45901105,-0.0010847588,0.00027385392,0.8884299,0.0,0.0,-0.039013308,0,0
203462268,0.0014983196,0.0028296735,-2.1878273,2.241847e-13,-0.45901036,-0.0016008557,1.6148977e-05,0.8884295,0.0,0.0,-0.04088612,0,0
203472416,0.0014015071,0.0021149674,-2.1878273,1.7965497e-13,-0.45901087,-0.001261154,0.00013717283,0.88842976,0.0,0.0,-0.042264923,0,0
203482286,0.0020934828,0.002657338,-2.1878273,1.7965497e-13,-0.45901003,-0.0016608947,0.00032008122,0.8884295,0.0,0.0,-0.044192683,0,0
203492256,0.0025172376,0.0035353417,-2.1878273,1.7965497e-13,-0.4590088,-0.0021481698,0.00030681206,0.8884291,0.0,0.0,-0.045973856,0,0
203502273,0.002489974,0.0030491434,-2.1878273,1.3079728e-13,-0.45900932,-0.0019259368,0.00040628674,0.8884293,0.0,0.0,-0.04772916,0,0
203512274,0.0019366078,0.0034962322,-2.1878273,1.3079728e-13,-0.45900953,-0.0019975395,5.7863715e-05,0.88842916,0.0,0.0,-0.049319383,0,0
203522533,0.001656753,0.0028256013,-2.1878273,1.043873e-13,-0.45901024,-0.001635408,8.746197e-05,0.8884295,0.0,0.0,-0.051050663,0,0
203532426,0.0017827495,0.0032451346,-2.1878273,9.2896055e-14,-0.4590098,-0.0018506874,4.714603e-05,0.8884293,0.0,0.0,-0.052754235,0,0
203542455,0.002484682,0.0034563313,-2.1878273,9.2896055e-14,-0.45900896,-0.0021056007,0.00031048377,0.8884291,0.0,0.0,-0.05458379,0,0
203552279,0.0017802849,0.002638824,-2.1878273,9.2896055e-14,-0.45901027,-0.0015807902,0.00018520326,0.8884296,0.0,0.0,-0.056172024,0,0
203562289,0.0021133216,0.0032303354,-2.1878273,6.763455e-14,-0.45900956,-0.0019199814,0.00019738756,0.8884292,0.0,0.0,-0.058200035,0,0
203572323,0.0033101162,0.0037835985,-2.1878273,6.763455e-14,-0.45900768,-0.0024404177,0.00060204364,0.88842875,0.0,0.0,-0.06001471,0,0
203582286,0.0027101717,0.002592624,-2.1878273,5.4109264e-14,-0.45900956,-0.001773681,0.0006088758,0.8884294,0.0,0.0,-0.0615013,0,0
203592580,0.0021992822,0.002327053,-2.1878273,4.794158e-14,-0.45901015,-0.001538459,0.0004428814,0.8884296,0.0,0.0,-0.06363593,0,0
203602290,0.0025459786,0.003463451,-2.1878273,4.794158e-14,-0.4590089,-0.0021228313,0.0003360786,0.8884291,0.0,0.0,-0.06534777,0,0
203612306,0.0032971522,0.002757949,-2.1878273,4.794158e-14,-0.45900878,-0.001981835,0.00083167804,0.88842916,0.0,0.0,-0.067026615,0,0
203622275,0.0026432285,0.0023768798,-2.1878273,3.4962593e-14,-0.45900977,-0.0016624804,0.0006286533,0.8884295,0.0,0.0,-0.06942155,0,0
203632259,0.002089358,0.0027050166,-2.1878273,3.4962593e-14,-0.45900992,-0.0016811277,0.00030730636,0.88842946,0.0,0.0,-0.07118614,0,0
203642503,0.0031664695,0.002438762,-2.1878273,2.791313e-14,-0.45900926,-0.0018100557,0.00084688223,0.8884293,0.0,0.0,-0.07312308,0,0
203652279,0.0032225393,0.0036521198,-2.1878273,2.791313e-14,-0.45900792,-0.002361914,0.0005933159,0.88842887,0.0,0.0,-0.07499157,0,0
203662583,0.0024023838,0.0041228146,-2.1878273,2.2307973e-14,-0.4590084,-0.0023827737,0.00012096352,0.88842875,0.0,0.0,-0.07726356,0,0
203672308,0.0017619099,0.0018256453,-2.1878273,2.2307973e-14,-0.45901084,-0.0012153473,0.00036367032,0.88842976,0.0,0.0,-0.07901193,0,0
203682287,0.003043252,0.004661886,-2.1878273,1.7898823e-14,-0.45900694,-0.002769318,0.0002819258,0.88842833,0.0,0.0,-0.0809096,0,0
203692281,0.0040287017,0.001650421,-2.1878273,1.7898823e-14,-0.45900935,-0.0016577503,0.0014108277,0.88842875,0.0,0.0,-0.08321984,0,0
203702300,0.0034417838,0.005163229,-2.1878273,1.4317196e-14,-0.45900574,-0.0030834852,0.00034389767,0.8884279,0.0,0.0,-0.085320815,0,0
203712267,0.0009892961,0.00046193748,-2.1878273,1.4317196e-14,-0.45901173,-0.00043224887,0.00033344285,0.88843006,0.0,0.0,-0.08725226,0,0
203722279,0.002494839,0.0022050538,-2.1878273,1.1456277e-14,-0.45901,-0.001552097,0.0006021717,0.8884295,0.0,0.0,-0.08970986,0,0
203732672,0.0029267634,0.0035571596,-2.1878273,1.0138859e-14,-0.45900834,-0.0022518495,0.00048372193,0.888429,0.0,0.0,-0.09154603,0,0
203742526,0.001393955,0.0015324584,-2.1878273,1.0138859e-14,-0.45901117,-0.0010006615,0.00026750736,0.88842994,0.0,0.0,-0.09387082,0,0
203752274,0.002868008,0.0026520474,-2.1878273,1.0138859e-14,-0.45900932,-0.0018363019,0.0006653511,0.8884293,0.0,0.0,-0.09627452,0,0
203762283,0.0035126593,0.003426602,-2.1878273,7.400154e-15,-0.45900783,-0.0023283197,0.0007739492,0.88842887,0.0,0.0,-0.098353446,0,0
203772300,0.0018455139,0.006014295,-2.1878273,7.400154e-15,-0.4590071,-0.0030951896,-0.0005605123,0.888427,0.0,0.0,-0.10067698,0,0
203782270,0.0035949647,0.0019405067,-2.1878273,5.920834e-15,-0.4590094,-0.0016870656,0.0011515789,0.8884291,0.0,0.0,-0.10277118,0,0
203792299,0.001685331,0.0031298352,-2.1878273,5.920834e-15,-0.45901,-0.0017771119,3.0333289e-05,0.8884293,0.0,0.0,-0.10483312,0,0
203802280,0.0019947814,0.0027968897,-2.1878273,4.736146e-15,-0.45900992,-0.001700233,0.00024420873,0.88842946,0.0,0.0,-0.106995344,0,0
203812580,0.0033582568,0.0046501663,-2.1878273,4.195968e-15,-0.45900652,-0.0028364067,0.0004245453,0.8884283,0.0,0.0,-0.10932508,0,0
203822243,0.0011460152,0.004695927,-2.1878273,4.195968e-15,-0.45900932,-0.0023490156,-0.00056866603,0.88842815,0.0,0.0,-0.11147765,0,0
203832303,0.00015678213,0.0041546114,-2.1878273,4.195968e-15,-0.45901075,-0.0018815218,-0.0008838623,0.88842833,0.0,0.0,-0.11388618,0,0
203842502,0.0021480082,0.0053298376,-2.1878273,3.0543896e-15,-0.45900747,-0.002860569,-0.00026905315,0.8884278,0.0,0.0,-0.11591682,0,0
203852278,0.0052132434,0.0031268485,-2.1878273,3.0543896e-15,-0.45900616,-0.0025854555,0.0015981684,0.8884279,0.0,0.0,-0.117848955,0,0
203862331,0.002764566,0.0025811482,-2.1878273,2.4471824e-15,-0.4590095,-0.001781067,0.0006356724,0.8884294,0.0,0.0,-0.12100729,0,0
203872339,0.0036758336,0.0038548922,-2.1878273,2.4471824e-15,-0.45900714,-0.0025560209,0.00074813823,0.88842857,0.0,0.0,-0.12291688,0,0
203882537,0.0032955278,0.0018235783,-2.1878273,1.9540917e-15,-0.4590098,-0.0015664021,0.0010454004,0.8884292,0.0,0.0,-0.12503481,0,0
203892269,0.0042724693,0.0023889658,-2.1878273,1.9540917e-15,-0.45900822,-0.0020417674,0.0013496118,0.8884287,0.0,0.0,-0.12794049,0,0
203902279,0.0054453057,0.002135851,-2.1878273,1.566987e-15,-0.45900735,-0.002198501,0.001928694,0.8884277,0.0,0.0,-0.12989978,0,0
203912268,0.0017548508,0.0051463097,-2.1878273,1.566987e-15,-0.45900822,-0.0026888123,-0.00040157835,0.8884279,0.0,0.0,-0.13254228,0,0
203922308,0.0041510137,0.0063987304,-2.1878273,1.2532387e-15,-0.45900267,-0.0037950776,0.00037539116,0.8884268,0.0,0.0,-0.135055,0,0
203932271,-4.2748576e-05,0.0040410236,-2.1878273,1.2532387e-15,-0.45901096,-0.0017852711,-0.0009464277,0.88842833,0.0,0.0,-0.13746604,0,0
203942577,0.0050887954,0.0027571968,-2.1878273,9.998913e-16,-0.45900688,-0.0023926902,0.0016277243,0.88842803,0.0,0.0,-0.13998654,0,0
203952581,0.0031904778,0.0010703973,-2.1878273,8.887922e-16,-0.45901048,-0.0012077191,0.0011715952,0.8884293,0.0,0.0,-0.14212419,0,0
203962282,0.00375005,0.0032942325,-2.1878273,8.887922e-16,-0.45900774,-0.0023240016,0.00090978126,0.88842875,0.0,0.0,-0.14471678,0,0
203972296,0.0021682878,0.007164303,-2.1878273,8.887922e-16,-0.4590052,-0.0036801142,-0.0006810658,0.8884257,0.0,0.0,-0.14753416,0,0
203982302,0.0029967902,0.0038704532,-2.1878273,6.4801435e-16,-0.45900798,-0.0024070903,0.0004429261,0.8884288,0.0,0.0,-0.1498015,0,0
203992282,0.0031798559,0.0038783748,-2.1878273,6.4801435e-16,-0.45900774,-0.0024526233,0.0005224283,0.88842875,0.0,0.0,-0.1523384,0,0
204002322,0.0051858565,0.001740267,-2.1878273,5.183078e-16,-0.45900813,-0.001963233,0.0019042317,0.88842785,0.0,0.0,-0.15502632,0,0
204012280,0.0021289876,0.002696137,-2.1878273,5.183078e-16,-0.45900992,-0.0016862781,0.00032694842,0.88842946,0.0,0.0,-0.15737644,0,0
204022536,0.003383008,0.0040411823,-2.1878273,4.1376493e-16,-0.4590072,-0.0025715686,0.00057530607,0.8884287,0.0,0.0,-0.160431,0,0
204032287,0.0027782256,0.004544601,-2.1878273,4.1376493e-16,-0.45900744,-0.0026563937,0.00019111518,0.88842845,0.0,0.0,-0.16276386,0,0
204042517,0.002313004,0.0049449424,-2.1878273,3.3115102e-16,-0.45900765,-0.0027274606,-0.0001074238,0.88842815,0.0,0.0,-0.16540013,0,0
204052304,0.002329809,0.003154366,-2.1878273,3.3115102e-16,-0.45900938,-0.0019359195,0.0003109897,0.8884293,0.0,0.0,-0.16771373,0,0
204062276,0.003247968,0.0068141893,-2.1878273,2.6549695e-16,-0.45900366,-0.003772379,-0.00012110451,0.88842636,0.0,0.0,-0.17053947,0,0
204072337,0.0043260218,0.0032938707,-2.1878273,2.6549695e-16,-0.459007,-0.0024560282,0.0011657191,0.8884285,0.0,0.0,-0.17369553,0,0
204082311,0.0023750055,0.004138647,-2.1878273,2.1232112e-16,-0.45900843,-0.0023835232,0.000105167965,0.88842875,0.0,0.0,-0.17601387,0,0
204092623,0.005590152,0.0033627648,-2.1878273,1.8807579e-16,-0.4590052,-0.0027767536,0.0017114518,0.88842756,0.0,0.0,-0.17903146,0,0
204102287,0.0036349462,0.0038005062,-2.1878273,1.8807579e-16,-0.4590072,-0.0025224779,0.0007424573,0.8884287,0.0,0.0,-0.18166806,0,0
204112338,0.005313987,0.0031666928,-2.1878273,1.8807579e-16,-0.4590059,-0.002626275,0.0016337752,0.88842785,0.0,0.0,-0.18469362,0,0
204122321,0.0016821575,0.00405984,-2.1878273,1.3716646e-16,-0.45900926,-0.0021895047,-0.00018451818,0.88842875,0.0,0.0,-0.18745321,0,0
204132378,0.0010933693,0.006587032,-2.1878273,1.2184046e-16,-0.45900768,-0.003176987,-0.0010260716,0.888426,0.0,0.0,-0.19005059,0,0
204142586,0.0044592363,0.005029499,-2.1878273,1.2184046e-16,-0.4590043,-0.0032575883,0.00082655624,0.8884277,0.0,0.0,-0.19320671,0,0
204152309,0.00691852,0.007205132,-2.1878273,1.2184046e-16,-0.4589951,-0.00478843,0.001419678,0.88842475,0.0,0.0,-0.19655336,0,0
204162573,0.0069560786,0.004847369,-2.1878273,8.845605e-17,-0.4590003,-0.0037497126,0.0019774875,0.888426,0.0,0.0,-0.19946119,0,0
204172335,0.0065222536,0.0028503486,-2.1878273,8.845605e-17,-0.45900482,-0.0027630522,0.0022431072,0.88842666,0.0,0.0,-0.20208746,0,0
204182334,0.00709617,0.005895845,-2.1878273,7.093366e-17,-0.4589978,-0.004247606,0.0017990844,0.88842547,0.0,0.0,-0.2048658,0,0
204192297,0.0026104166,0.0014167656,-2.1878276,7.093366e-17,-0.4590105,-0.0012284537,0.00083442987,0.88842964,0.0,0.0,-0.2079243,0,0
204202314,0.0042403806,0.0046982723,-2.1878273,5.675828e-17,-0.45900515,-0.0030602256,0.0008053564,0.88842803,0.0,0.0,-0.21055919,0,0
204212303,0.00010031925,0.0010872118,-2.1878273,5.675828e-17,-0.45901182,-0.00050597964,-0.00020495818,0.88843006,0.0,0.0,-0.2136312,0,0
204222336,0.005406214,0.0038420553,-2.1878273,4.5396638e-17,-0.45900476,-0.0029474455,0.0015197435,0.8884277,0.0,0.0,-0.21696301,0,0
204232606,0.0058199726,0.005413827,-2.1878273,4.023098e-17,-0.45900124,-0.0037406015,0.0013428077,0.8884268,0.0,0.0,-0.21975568,0,0
204242529,0.0024458661,0.002259253,-2.1878276,4.023098e-17,-0.45900998,-0.0015649338,0.00056797813,0.8884295,0.0,0.0,-0.2225754,0,0
204252331,0.0044740355,0.004529287,-2.1878273,4.023098e-17,-0.4590051,-0.003038785,0.00094793236,0.888428,0.0,0.0,-0.22558986,0,0
204262360,0.006571901,0.005401022,-2.1878273,2.9325277e-17,-0.45899987,-0.003907481,0.0016797632,0.8884262,0.0,0.0,-0.2292569,0,0
204272324,0.0025766233,0.0017022842,-2.1878273,2.9325277e-17,-0.45901036,-0.0013475295,0.0007538901,0.8884296,0.0,0.0,-0.23242596,0,0
204282307,0.003422356,0.0023353093,-2.1878273,2.3472661e-17,-0.45900914,-0.0018228276,0.0009842938,0.88842916,0.0,0.0,-0.23508073,0,0
204292302,0.0057218275,0.0038503967,-2.1878273,2.3472661e-17,-0.45900425,-0.003023585,0.001658029,0.8884274,0.0,0.0,-0.23843992,0,0
204302311,0.0031049103,0.0022674925,-2.1878273,1.8778128e-17,-0.45900947,-0.0017198474,0.00085884426,0.8884293,0.0,0.0,-0.24164435,0,0
204312641,0.006357046,0.0030297474,-2.1878273,1.6629586e-17,-0.45900476,-0.0028048276,0.0021285461,0.88842684,0.0,0.0,-0.24458246,0,0
204322274,0.008531912,0.00406144,-2.1878273,1.6629586e-17,-0.45899907,-0.0037622491,0.0028578688,0.8884242,0.0,0.0,-0.24783039,0,0
204332293,0.0058679394,0.0039390824,-2.1878273,1.6629586e-17,-0.4590039,-0.0030965135,0.0017025801,0.88842726,0.0,0.0,-0.25147104,0,0
204342558,0.010517842,0.006020302,-2.1878273,1.2103597e-17,-0.45898944,-0.005088153,0.0032904674,0.8884211,0.0,0.0,-0.25432712,0,0
204352340,0.0016336127,0.0005581611,-2.1878273,1.2103597e-17,-0.45901147,-0.00062286714,0.0005975739,0.88842994,0.0,0.0,-0.25759715,0,0
204362318,0.0067884624,0.0030184565,-2.1878273,9.706172e-18,-0.45900413,-0.0028988228,0.0023227783,0.88842636,0.0,0.0,-0.26174256,0,0
204372392,0.0033947062,0.0007184182,-2.1878273,8.620429e-18,-0.45901063,-0.0010982364,0.0013430978,0.8884291,0.0,0.0,-0.26414323,0,0
204382613,0.008842185,0.0010998809,-2.1878273,8.620429e-18,-0.45900518,-0.0025179053,0.0036753912,0.8884225,0.0,0.0,-0.26707023,0,0
204392384,0.006102498,0.0028178194,-2.1878273,6.8971705e-18,-0.45900553,-0.0026522677,0.0020641119,0.8884271,0.0,0.0,-0.27301493,0,0
204402287,0.0048610833,0.0016477887,-2.1878276,6.8971705e-18,-0.4590086,-0.0018476163,0.0017811875,0.8884281,0.0,0.0,-0.27337652,0,0
204412302,0.006851751,0.0016262943,-2.1878273,6.8971705e-18,-0.45900658,-0.002294934,0.0026704022,0.8884259,0.0,0.0,-0.2751794,0,0
204422304,0.0043512355,0.0047237114,-2.1878276,5.0196376e-18,-0.4590049,-0.0030969672,0.00084876124,0.888428,0.0,0.0,-0.28329447,0,0
204432309,0.0024120968,0.0020771602,-2.1878273,5.0196376e-18,-0.45901015,-0.001476295,0.00059476873,0.88842964,0.0,0.0,-0.28263038,0,0
204442558,0.0039669042,0.0028260227,-2.1878273,4.005536e-18,-0.45900804,-0.0021657858,0.0011135683,0.88842875,0.0,0.0,-0.28760985,0,0
204452631,0.010772268,0.0041516726,-2.1878276,3.55763e-18,-0.45899427,-0.004316489,0.0038323514,0.8884205,0.0,0.0,-0.29216215,0,0
204462284,0.001451557,-0.00039744013,-2.1878273,3.55763e-18,-0.45901185,-0.00015659208,0.0007360183,0.8884298,0.0,0.0,-0.29254308,0,0
204472347,0.0004960763,0.0010320904,-2.1878273,3.55763e-18,-0.45901173,-0.00057232246,-1.6506316e-05,0.88843006,0.0,0.0,-0.29768217,0,0
204482334,0.007247469,0.002522693,-2.1878273,2.5943722e-18,-0.4590044,-0.0027839427,0.0026404564,0.8884257,0.0,0.0,-0.3024836,0,0
204492295,0.0065499255,0.0010982245,-2.1878273,2.5943722e-18,-0.45900777,-0.0019910892,0.0026575222,0.88842607,0.0,0.0,-0.30357558,0,0
204502346,0.0033482977,0.0019209636,-2.1878276,2.075228e-18,-0.45900962,-0.001621773,0.0010464911,0.8884292,0.0,0.0,-0.30867723,0,0
204512379,0.0056296755,0.0025638118,-2.1878273,1.8439301e-18,-0.4590065,-0.0024309198,0.0019123737,0.88842756,0.0,0.0,-0.31048384,0,0
204522588,0.0022685095,0.0052114986,-2.1878273,1.8439301e-18,-0.4590074,-0.0028356567,-0.00018836519,0.88842785,0.0,0.0,-0.31487232,0,0
204532555,0.0050809355,0.0045470977,-2.1878273,1.4726553e-18,-0.4590041,-0.0031859814,0.0012134382,0.8884276,0.0,0.0,-0.3211693,0,0
204542276,0.006223573,0.00010144703,-2.1878273,1.4726553e-18,-0.45900953,-0.0014734087,0.002741318,0.88842595,0.0,0.0,-0.32173902,0,0
204552307,0.006819476,0.003519178,-2.1878273,1.4726553e-18,-0.45900315,-0.0031283668,0.0022216362,0.88842636,0.0,0.0,-0.32521972,0,0
204562321,0.004377063,0.0031698158,-2.1878273,1.0732857e-18,-0.45900714,-0.0024126358,0.001216864,0.88842845,0.0,0.0,-0.32915634,0,0
204572382,0.005457578,0.0026100345,-2.1878273,9.533431e-19,-0.45900667,-0.002411956,0.0018253174,0.8884277,0.0,0.0,-0.3359378,0,0
204582277,0.007547421,-0.002973295,-2.1878273,9.533431e-19,-0.45901313,-0.00041139926,0.0040350505,0.8884203,0.0,0.0,-0.33544657,0,0
204592600,0.007245271,0.0023833967,-2.1878276,7.6102307e-19,-0.45900467,-0.0027215611,0.0026714487,0.8884257,0.0,0.0,-0.34015337,0,0
204602288,0.0022939339,0.004668884,-2.1878273,7.6102307e-19,-0.45900798,-0.0026004554,-5.253801e-05,0.8884284,0.0,0.0,-0.34587532,0,0
204612345,0.0046571633,0.0028483842,-2.1878273,7.6102307e-19,-0.4590072,-0.0023341356,0.0014150589,0.88842833,0.0,0.0,-0.34703386,0,0
204622303,0.0054524387,0.0035817467,-2.1878273,5.5496974e-19,-0.45900506,-0.0028424223,0.0016000199,0.8884277,0.0,0.0,-0.35145524,0,0
204632326,0.0043019913,0.0037146674,-2.1878273,5.5496974e-19,-0.45900646,-0.0026374368,0.001058469,0.8884284,0.0,0.0,-0.35788313,0,0
204642594,0.007715487,0.0010719782,-2.1878273,4.4269197e-19,-0.4590066,-0.0022469307,0.0031813032,0.88842434,0.0,0.0,-0.35761613,0,0
204652375,0.005685728,0.0037635695,-2.1878273,3.9445945e-19,-0.45900446,-0.0029767307,0.0016619207,0.88842744,0.0,0.0,-0.36429727,0,0
204662554,0.003970855,-0.0012319462,-2.1878273,3.9445945e-19,-0.45901197,-0.000364086,0.0020466503,0.8884277,0.0,0.0,-0.36641517,0,0
204672336,0.004511849,-0.00038373028,-2.1878273,3.9445945e-19,-0.4590111,-0.0008650369,0.002092298,0.8884277,0.0,0.0,-0.36795905,0,0
204682301,0.0058440217,0.005519016,-2.1878273,2.8707272e-19,-0.45900097,-0.0037928468,0.001329349,0.8884267,0.0,0.0,-0.37809753,0,0
204692295,0.008124966,0.001898325,-2.1878273,2.8707272e-19,-0.45900452,-0.0027079794,0.0031735478,0.8884242,0.0,0.0,-0.3746428,0,0
204702341,0.0028802068,0.0025233286,-2.1878273,2.2956635e-19,-0.4590094,-0.0017819229,0.0007003117,0.8884294,0.0,0.0,-0.3834222,0,0
204712308,0.006525842,0.0008976339,-2.1878273,2.2956635e-19,-0.4590081,-0.0018964568,0.0026928606,0.888426,0.0,0.0,-0.38789913,0,0
204722306,0.0053354157,-0.0009889988,-2.1878273,1.8371922e-19,-0.4590114,-0.0007851813,0.002597049,0.88842624,0.0,0.0,-0.3864147,0,0
204732305,0.0024465816,0.00250855,-2.1878273,1.8371922e-19,-0.45900983,-0.0016758388,0.00051108067,0.88842946,0.0,0.0,-0.39706647,0,0
204742786,0.003995683,-9.266797e-05,-2.1878273,1.4627326e-19,-0.4590111,-0.0008758677,0.0017962091,0.88842833,0.0,0.0,-0.39430517,0,0
204752309,0.0032792457,0.0042678504,-2.1878273,1.4627326e-19,-0.4590071,-0.0026484437,0.00047719138,0.8884285,0.0,0.0,-0.4030428,0,0
204762350,0.0041467324,0.001682802,-2.1878273,1.1753222e-19,-0.45900914,-0.001699223,0.0014558269,0.8884287,0.0,0.0,-0.4035305,0,0
204772427,0.004991546,0.0037345607,-2.1878273,1.0440116e-19,-0.45900548,-0.0028045282,0.001360213,0.888428,0.0,0.0,-0.4107528,0,0
204782318,0.004457391,0.0001991287,-2.1878273,1.0440116e-19,-0.4590105,-0.0011114525,0.0019343373,0.88842803,0.0,0.0,-0.41112792,0,0
204792297,0.0039563975,0.001570598,-2.1878273,1.0440116e-19,-0.45900944,-0.0016056976,0.0013970289,0.88842887,0.0,0.0,-0.4175497,0,0
204802307,0.006312577,0.0014120949,-2.1878273,7.599928e-20,-0.45900756,-0.0020760417,0.0024800538,0.8884265,0.0,0.0,-0.4206379,0,0
204812593,0.004436092,-0.00059016346,-2.1878273,6.734017e-20,-0.45901132,-0.00075594964,0.0021060228,0.8884276,0.0,0.0,-0.42517087,0,0
204822277,0.003693921,0.001008818,-2.1878273,6.734017e-20,-0.45901027,-0.0012959075,0.0014093649,0.8884289,0.0,0.0,-0.4285932,0,0
204832328,0.00787583,0.0026893218,-2.1878273,6.734017e-20,-0.45900318,-0.0030021707,0.0028813395,0.88842493,0.0,0.0,-0.4340554,0,0
204842550,0.0109079825,0.0022614857,-2.1878273,4.900452e-20,-0.4589993,-0.0035080032,0.004326446,0.8884192,0.0,0.0,-0.43559712,0,0
204852305,0.0033339506,0.0014134414,-2.1878273,4.900452e-20,-0.4590101,-0.0013930319,0.0011565974,0.8884292,0.0,0.0,-0.4422596,0,0
204862321,0.0051949774,0.0008877251,-2.1878273,3.9284933e-20,-0.4590092,-0.0015866159,0.0021039466,0.88842756,0.0,0.0,-0.4436697,0,0
204892327,0.004990496,0.0025155349,-2.1878273,3.4894352e-20,-0.4590073,-0.0022627814,0.0016395214,0.8884281,0.0,0.0,-0.45620906,0,0
204902343,-0.0006532338,0.0039430135,-2.1878273,2.5387404e-20,-0.45901158,-0.0016016238,-0.00119512,0.88842803,0.0,0.0,-0.45963222,0,0
204912343,0.0052237115,0.0026542922,-2.1878273,2.5387404e-20,-0.45900685,-0.002377943,0.0017112733,0.8884279,0.0,0.0,-0.46510932,0,0
204922316,0.0064065894,0.0027119883,-2.1878273,2.0315409e-20,-0.45900527,-0.002675046,0.0022234821,0.8884268,0.0,0.0,-0.46883687,0,0
204932302,0.008074261,0.0049810205,-2.1878273,2.0315409e-20,-0.45899782,-0.0040657036,0.002443524,0.8884248,0.0,0.0,-0.47279823,0,0
204942531,0.0033190977,0.005773191,-2.1878273,1.6220858e-20,-0.45900515,-0.0033262805,0.0001494085,0.88842744,0.0,0.0,-0.4775616,0,0
204952634,0.005092531,0.005342778,-2.1878273,1.4398702e-20,-0.45900264,-0.0035420924,0.0010359747,0.88842726,0.0,0.0,-0.48209685,0,0
204962318,0.0056966455,0.0011333927,-2.1878273,1.4398702e-20,-0.4590085,-0.00181088,0.0022704126,0.88842714,0.0,0.0,-0.48531005,0,0
204972337,0.0055902023,0.0018865027,-2.1878273,1.4398702e-20,-0.45900753,-0.0021209917,0.0020502857,0.8884275,0.0,0.0,-0.49165034,0,0
204982309,0.007812912,0.0021822876,-2.1878273,1.0503006e-20,-0.4590043,-0.0027625016,0.0029697584,0.88842475,0.0,0.0,-0.4941505,0,0
204992298,0.0054321494,0.0050563766,-2.1878273,1.0503006e-20,-0.4590026,-0.0034928133,0.0012525691,0.88842714,0.0,0.0,-0.4988837,0,0
205002342,0.009932917,0.004559252,-2.1878273,8.399549e-21,-0.45899495,-0.004304909,0.00336596,0.888422,0.0,0.0,-0.50378114,0,0
205012320,0.007142376,9.0884154e-05,-2.1878273,8.399549e-21,-0.4590088,-0.0016795859,0.003151886,0.8884246,0.0,0.0,-0.5086322,0,0
205022596,0.007224585,-0.0017319359,-2.1878273,6.702481e-21,-0.45901152,-0.00088873366,0.0036067478,0.8884226,0.0,0.0,-0.5132706,0,0
205032367,0.006441105,-0.0010344309,-2.1878276,5.973025e-21,-0.45901084,-0.0010187615,0.003098637,0.88842463,0.0,0.0,-0.5169858,0,0
205042548,0.006285113,-0.00065773015,-2.1878273,5.973025e-21,-0.45901054,-0.0011502958,0.0029428895,0.8884253,0.0,0.0,-0.52048963,0,0
205052303,0.008663675,0.00040281788,-2.1878276,5.973025e-21,-0.45900673,-0.0021672945,0.0037560745,0.8884222,0.0,0.0,-0.5267245,0,0
205062317,0.007173753,0.0030159636,-2.1878273,4.346033e-21,-0.45900357,-0.0029861408,0.0024945019,0.8884259,0.0,0.0,-0.53015816,0,0
205072309,0.0065831775,0.00461236,-2.1878273,4.346033e-21,-0.45900145,-0.0035597382,0.0018657761,0.8884265,0.0,0.0,-0.5357765,0,0
205082315,0.006015981,0.0063326857,-2.1878273,3.4768267e-21,-0.45899898,-0.004193751,0.001218992,0.88842607,0.0,0.0,-0.5393166,0,0
205092589,0.0043382905,0.007284449,-2.1878276,3.0811323e-21,-0.45900068,-0.0042315032,0.00025530314,0.88842577,0.0,0.0,-0.5428948,0,0
205102264,0.004788934,0.007748344,-2.1878273,3.0811323e-21,-0.45899886,-0.0045409924,0.00034901718,0.8884252,0.0,0.0,-0.54854864,0,0
205112264,0.00047220508,0.0061582574,-2.1878273,3.0811323e-21,-0.45900905,-0.0028439595,-0.0012035945,0.88842624,0.0,0.0,-0.5525864,0,0
205122280,0.006822854,0.0010642356,-2.1878273,2.2471973e-21,-0.45900753,-0.0020386288,0.0027865611,0.8884257,0.0,0.0,-0.55899143,0,0
205132285,0.010002451,-0.0036169179,-2.1878273,2.2471973e-21,-0.45901343,-0.00068893994,0.005273307,0.8884134,0.0,0.0,-0.56285375,0,0
205142499,0.007976943,-0.0047870073,-2.1878273,1.7942052e-21,-0.4590154,0.00029569637,0.0046420954,0.8884161,0.0,0.0,-0.56548476,0,0
205152305,0.0062480755,0.0007342869,-2.1878273,1.7942052e-21,-0.45900857,-0.0017601476,0.0026069619,0.8884263,0.0,0.0,-0.57189596,0,0
205162571,0.0046761553,0.0035307289,-2.1878273,1.4340306e-21,-0.45900625,-0.0026416003,0.001266893,0.8884282,0.0,0.0,-0.5755707,0,0
205172335,0.006719136,0.005912946,-2.1878273,1.4340306e-21,-0.45899844,-0.0041686734,0.0016276765,0.8884258,0.0,0.0,-0.5812348,0,0
205182274,0.0072161118,0.0065890728,-2.1878273,1.1506188e-21,-0.45899588,-0.004583069,0.0016932624,0.888425,0.0,0.0,-0.585871,0,0
205192263,0.0071468004,0.0046005305,-2.1878273,1.1506188e-21,-0.45900044,-0.0036838353,0.00211886,0.8884259,0.0,0.0,-0.5887862,0,0
205202271,0.0070843957,0.0020129285,-2.1878273,9.205227e-22,-0.45900556,-0.0025200737,0.0026850107,0.88842577,0.0,0.0,-0.5944785,0,0
205212277,0.0053202766,0.0012235497,-2.1878273,9.205227e-22,-0.45900872,-0.0017645506,0.0020825327,0.8884276,0.0,0.0,-0.60031146,0,0
205222302,0.0054294723,0.0024097592,-2.1878273,7.3619726e-22,-0.45900694,-0.0023165408,0.0018587969,0.8884277,0.0,0.0,-0.6041706,0,0
205232520,0.0013700987,0.0050301715,-2.1878273,6.5297554e-22,-0.45900878,-0.0025489198,-0.0005458362,0.8884279,0.0,0.0,-0.6079688,0,0
205242512,0.0014759186,0.0065757595,-2.1878276,6.5297554e-22,-0.45900705,-0.0032597752,-0.0008535508,0.88842624,0.0,0.0,-0.6129741,0,0
205252279,-0.0032466108,0.00095059193,-2.1878273,6.5297554e-22,-0.4590119,0.00032284926,-0.0016603587,0.8884285,0.0,0.0,-0.61720383,0,0
205262304,-0.00010475787,0.0031056379,-2.1878273,4.757346e-22,-0.45901144,-0.0013555281,-0.00075929705,0.88842905,0.0,0.0,-0.6226467,0,0
205272302,-0.006319588,0.0055991793,-2.1878273,4.757346e-22,-0.4590156,-0.0010368492,-0.004092277,0.8884182,0.0,0.0,-0.6268462,0,0
205282297,-0.0047555543,-0.0018364144,-2.1878273,3.8061052e-22,-0.45900843,0.0019071868,-0.0016910193,0.8884282,0.0,0.0,-0.6309783,0,0
205292302,-0.0055495906,0.0023070818,-2.1878273,3.8061052e-22,-0.45901266,0.00024882506,-0.0029946934,0.88842463,0.0,0.0,-0.6371385,0,0
205302322,-0.0018869237,0.00012569454,-2.1878273,3.0440623e-22,-0.45901176,0.00037722473,-0.00086704746,0.8884297,0.0,0.0,-0.640697,0,0
205312577,-0.004822963,-0.00032265292,-2.1878273,2.698308e-22,-0.45901018,0.0012502244,-0.0020683801,0.88842773,0.0,0.0,-0.64672214,0,0
205322249,-0.007575838,-0.0025734282,-2.1878273,2.698308e-22,-0.45900384,0.0028818413,-0.002774678,0.88842523,0.0,0.0,-0.6478863,0,0
205332268,-0.007551869,0.0020599128,-2.1878276,2.698308e-22,-0.45901182,0.00081815576,-0.0038274028,0.8884216,0.0,0.0,-0.65257645,0,0
205342498,-0.0102228895,0.0024738663,-2.1878273,1.9641913e-22,-0.45901117,0.0012472874,-0.005108897,0.888415,0.0,0.0,-0.65614915,0,0
205352303,-0.008630386,-0.0017329348,-2.1878273,1.9641913e-22,-0.45900413,0.0027505062,-0.0034360187,0.88842326,0.0,0.0,-0.66111904,0,0
205362275,-0.006680457,0.005845498,-2.1878273,1.574502e-22,-0.45901603,-0.0010634449,-0.0043091085,0.88841695,0.0,0.0,-0.6661518,0,0
205372300,-0.013561921,0.0031672649,-2.1878273,1.574502e-22,-0.45901027,0.0017055997,-0.006751245,0.88840365,0.0,0.0,-0.6693423,0,0
205382533,-0.012499552,0.008825923,-2.1878273,1.2563727e-22,-0.45902297,-0.0010518442,-0.0075779543,0.8883915,0.0,0.0,-0.6740258,0,0
205392294,-0.016111275,0.004389236,-2.1878273,1.2563727e-22,-0.45901158,0.0017478843,-0.008164099,0.888391,0.0,0.0,-0.67904305,0,0
205402270,-0.017167164,0.006421341,-2.1878273,1.00773844e-22,-0.45901704,0.0010875514,-0.009099458,0.8883802,0.0,0.0,-0.6845212,0,0
205412299,-0.01777909,0.0016365596,-2.1878273,1.00773844e-22,-0.45900005,0.0033533962,-0.008273219,0.8883914,0.0,0.0,-0.6874481,0,0
205422303,-0.021054639,0.008005484,-2.1878273,8.059409e-23,-0.4590202,0.0012760867,-0.01118974,0.8883544,0.0,0.0,-0.6933358,0,0
205432560,-0.022105496,0.0007759897,-2.1878273,7.14352e-23,-0.45898765,0.0047285524,-0.009997476,0.88837385,0.0,0.0,-0.6988367,0,0
205442250,-0.02383482,-0.0007461604,-2.1878273,7.14352e-23,-0.45897532,0.005801535,-0.010416299,0.888369,0.0,0.0,-0.70435774,0,0
205452573,-0.025589513,0.002767831,-2.1878273,5.7143014e-23,-0.45898953,0.004643368,-0.012002108,0.88834846,0.0,0.0,-0.7072742,0,0
205462252,-0.025018863,0.0010054683,-2.1878273,5.7143014e-23,-0.45898148,0.0052952184,-0.011344209,0.88835764,0.0,0.0,-0.7121582,0,0
205472309,-0.01800899,0.0041499916,-2.1878273,5.7143014e-23,-0.4590088,0.0022896924,-0.008952147,0.8883836,0.0,0.0,-0.71484184,0,0
205482302,-0.024583284,0.0071831676,-2.1878273,4.1658915e-23,-0.45901343,0.0024512075,-0.01256837,0.8883371,0.0,0.0,-0.71627873,0,0
205492266,-0.02891081,-0.00059763365,-2.1878276,4.1658915e-23,-0.45896,0.006900422,-0.012705023,0.8883393,0.0,0.0,-0.7163198,0,0
205502271,-0.027616473,0.0011281003,-2.1878273,3.33378e-23,-0.458975,0.0058368705,-0.012526144,0.8883417,0.0,0.0,-0.7175693,0,0
205512274,-0.032226585,-0.003025441,-2.1878273,3.33378e-23,-0.45893013,0.008739635,-0.013620632,0.888325,0.0,0.0,-0.7183654,0,0
205522567,-0.03404868,0.0003313028,-2.1878273,2.6591794e-23,-0.45894784,0.007666849,-0.015200232,0.88830006,0.0,0.0,-0.7203833,0,0
205532257,-0.03147936,0.0050164755,-2.1878273,2.6591794e-23,-0.45898867,0.0049962616,-0.015134149,0.88829917,0.0,0.0,-0.7185526,0,0
205542525,-0.031847432,0.006584415,-2.1878273,2.1286847e-23,-0.45899767,0.004384305,-0.0156574,0.8882886,0.0,0.0,-0.7188822,0,0
205552305,-0.03750392,-0.0020268178,-2.1878273,2.1286847e-23,-0.45891404,0.009507049,-0.016193738,0.8882822,0.0,0.0,-0.7193102,0,0
205562326,-0.03513126,-0.0039800317,-2.1878273,1.7059502e-23,-0.4589091,0.009830118,-0.014691703,0.8883074,0.0,0.0,-0.7207417,0,0
205572301,-0.03687572,0.0038508002,-2.1878273,1.7059502e-23,-0.4589645,0.006752408,-0.01726342,0.88826126,0.0,0.0,-0.72066396,0,0
205582271,-0.039747655,-0.0058390982,-2.1878276,1.3655111e-23,-0.45886773,0.011714982,-0.016315427,0.88827753,0.0,0.0,-0.72017753,0,0
205592562,-0.036625683,0.00041366456,-2.1878273,1.209916e-23,-0.4589382,0.008221617,-0.016363695,0.88827944,0.0,0.0,-0.72167563,0,0
205602242,-0.032639842,-0.006854418,-2.1878273,1.209916e-23,-0.45889837,0.010535085,-0.012925464,0.88833225,0.0,0.0,-0.72096646,0,0
205612293,-0.034381993,-0.0042104227,-2.1878273,1.209916e-23,-0.45891088,0.009760521,-0.0143060405,0.8883135,0.0,0.0,-0.7208353,0,0
205622274,-0.03458629,-0.0049503623,-2.1878273,8.822327e-24,-0.4589038,0.010136033,-0.014226974,0.88831425,0.0,0.0,-0.7196313,0,0
205632266,-0.04011065,-0.001017421,-2.1878273,8.822327e-24,-0.4589104,0.009656877,-0.017583102,0.8882561,0.0,0.0,-0.7198804,0,0
205642500,-0.042567305,-0.0071906555,-2.1878273,7.043493e-24,-0.45883694,0.012962117,-0.01725757,0.8882583,0.0,0.0,-0.71922076,0,0
205652297,-0.03667806,-0.006770211,-2.1878273,7.043493e-24,-0.4588769,0.01142423,-0.0147384005,0.8883042,0.0,0.0,-0.7201302,0,0
205662552,-0.040637366,0.0008456388,-2.1878273,5.6306276e-24,-0.4589247,0.008950307,-0.018244525,0.8882427,0.0,0.0,-0.720743,0,0
205672324,-0.042224746,0.002489153,-2.1878273,5.6306276e-24,-0.45893252,0.008584631,-0.01932661,0.8882194,0.0,0.0,-0.7168711,0,0
205682303,-0.044434197,-0.0094556585,-2.1878273,4.5162894e-24,-0.45880014,0.014396251,-0.01756691,0.8882492,0.0,0.0,-0.71757364,0,0
205692305,-0.047943983,-0.0029399048,-2.1878273,4.5162894e-24,-0.45884818,0.012307938,-0.020620847,0.8881901,0.0,0.0,-0.7193189,0,0
205702271,-0.05570498,-0.011156599,-2.1878273,3.613754e-24,-0.45868868,0.017736753,-0.022181908,0.88814306,0.0,0.0,-0.72190416,0,0
205712270,-0.051710956,-0.009079953,-2.1878273,3.613754e-24,-0.4587495,0.015898615,-0.02088479,0.88817793,0.0,0.0,-0.719418,0,0
205722278,-0.0505054,-0.001580394,-2.1878273,2.890801e-24,-0.45884764,0.012291865,-0.022070274,0.88815576,0.0,0.0,-0.71947,0,0
205732260,-0.0536355,-0.0074403877,-2.1878273,2.890801e-24,-0.45875502,0.015612042,-0.022115681,0.88815033,0.0,0.0,-0.71831,0,0
205742750,-0.047688626,-0.0055079237,-2.1878273,2.3017764e-24,-0.4588213,0.01338975,-0.019918181,0.88820434,0.0,0.0,-0.7217786,0,0
205752273,-0.047103256,-0.0017442255,-2.1878273,2.3017764e-24,-0.45886615,0.011584072,-0.02052184,0.88819283,0.0,0.0,-0.7195832,0,0
205762282,-0.051450208,-0.011803781,-2.1878273,1.8500981e-24,-0.45871717,0.017048271,-0.020143915,0.8881904,0.0,0.0,-0.71829003,0,0
205772302,-0.047353853,-0.0041167983,-2.1878273,1.8500981e-24,-0.45883894,0.01269518,-0.02008872,0.88820165,0.0,0.0,-0.7200717,0,0
205782302,-0.04661383,-0.0067617386,-2.1878273,1.4797382e-24,-0.4588146,0.013699965,-0.019153139,0.88821995,0.0,0.0,-0.7190655,0,0
205792260,-0.049108766,-0.0064770803,-2.1878273,1.4797382e-24,-0.45880044,0.014145907,-0.020326471,0.8881942,0.0,0.0,-0.7187867,0,0
205802299,-0.047748975,-0.009861828,-2.1878273,1.1838379e-24,-0.45877087,0.015337005,-0.018945849,0.8882202,0.0,0.0,-0.71875536,0,0
205812592,-0.054742906,0.0021965357,-2.1878273,1.0488741e-24,-0.45886633,0.011586877,-0.0248185,0.88808304,0.0,0.0,-0.71823263,0,0
205822285,-0.052916598,-0.010007786,-2.1878273,1.0488741e-24,-0.4587278,0.016587138,-0.021207279,0.8881688,0.0,0.0,-0.7189077,0,0
205832261,-0.059360705,-0.007055053,-2.1878273,1.0488741e-24,-0.45871383,0.016754124,-0.024746427,0.8880814,0.0,0.0,-0.7187349,0,0
205842495,-0.05468422,-0.013722555,-2.1878273,7.636576e-25,-0.45866287,0.018641934,-0.02113975,0.88816327,0.0,0.0,-0.71950364,0,0
205852272,-0.052696686,-0.004514431,-2.1878273,7.636576e-25,-0.45879856,0.014097451,-0.022370163,0.8881468,0.0,0.0,-0.71744275,0,0
205862291,-0.052465335,-0.010171744,-2.1878273,6.120461e-25,-0.45872945,0.016556436,-0.020969255,0.8881742,0.0,0.0,-0.7195964,0,0
205872332,-0.056664523,-0.012052057,-2.1878273,6.120461e-25,-0.45866767,0.018354394,-0.022402521,0.8881358,0.0,0.0,-0.718597,0,0
205882537,-0.052929275,-0.001573158,-2.1878273,4.884305e-25,-0.45883247,0.012844737,-0.023148308,0.8881283,0.0,0.0,-0.7194515,0,0
205892262,-0.052049004,-0.0134016285,-2.1878273,4.884305e-25,-0.4586912,0.017895082,-0.020043135,0.8881894,0.0,0.0,-0.71927804,0,0
