timestamp,accel_device_id_primary,accel_device_ids[0],accel_device_ids[1],accel_device_ids[2],accel_device_ids[3],accel_inconsistency_m_s_s[0],accel_inconsistency_m_s_s[1],accel_inconsistency_m_s_s[2],accel_inconsistency_m_s_s[3],gyro_device_id_primary,gyro_device_ids[0],gyro_device_ids[1],gyro_device_ids[2],gyro_device_ids[3],gyro_inconsistency_rad_s[0],gyro_inconsistency_rad_s[1],gyro_inconsistency_rad_s[2],gyro_inconsistency_rad_s[3],accel_healthy[0],accel_healthy[1],accel_healthy[2],accel_healthy[3],accel_priority[0],accel_priority[1],accel_priority[2],accel_priority[3],gyro_healthy[0],gyro_healthy[1],gyro_healthy[2],gyro_healthy[3],gyro_priority[0],gyro_priority[1],gyro_priority[2],gyro_priority[3]
200066997,3407898,3407898,3407890,3407882,0,0.06548527,0.034719534,0.038409196,0.0,3407898,3407898,3407890,3407882,0,0.0016469453,0.0018975466,0.0011088849,0.0,1,1,1,0,50,50,50,0,1,1,1,0,50,50,50,0
200072044,3407898,3407898,3407890,3407882,0,0.06581488,0.03517687,0.03860839,0.0,3407898,3407898,3407890,3407882,0,0.0016543224,0.001914506,0.0011099572,0.0,1,1,1,0,50,50,50,0,1,1,1,0,50,50,50,0
200266962,3407898,3407898,3407890,3407882,0,0.0666009,0.0366129,0.040251076,0.0,3407898,3407898,3407890,3407882,0,0.0015752354,0.0019244937,0.001196389,0.0,1,1,1,0,50,50,50,0,1,1,1,0,50,50,50,0
200466989,3407898,3407898,3407890,3407882,0,0.07572475,0.03858495,0.040276453,0.0,3407898,3407898,3407890,3407882,0,0.0016914095,0.001965269,0.0013954752,0.0,1,1,1,0,50,50,50,0,1,1,1,0,50,50,50,0
200666964,3407898,3407898,3407890,3407882,0,0.06003621,0.036286347,0.034267657,0.0,3407898,3407898,3407890,3407882,0,0.0017355026,0.001998852,0.0011830542,0.0,1,1,1,0,50,50,50,0,1,1,1,0,50,50,50,0
200866963,3407898,3407898,3407890,3407882,0,0.069847964,0.04114508,0.038115997,0.0,3407898,3407898,3407890,3407882,0,0.0016159285,0.0019013021,0.001253353,0.0,1,1,1,0,50,50,50,0,1,1,1,0,50,50,50,0
201066969,3407898,3407898,3407890,3407882,0,0.06687465,0.037413307,0.041918486,0.0,3407898,3407898,3407890,3407882,0,0.0018269499,0.0018946066,0.0012155372,0.0,1,1,1,0,50,50,50,0,1,1,1,0,50,50,50,0
201266938,3407898,3407898,3407890,3407882,0,0.06741611,0.041193727,0.047353398,0.0,3407898,3407898,3407890,3407882,0,0.0017026872,0.001805301,0.0012514762,0.0,1,1,1,0,50,50,50,0,1,1,1,0,50,50,50,0
201466955,3407898,3407898,3407890,3407882,0,0.05618977,0.038935717,0.03167585,0.0,3407898,3407898,3407890,3407882,0,0.0017239494,0.0017376245,0.0014860414,0.0,1,1,1,0,50,50,50,0,1,1,1,0,50,50,50,0
201666961,3407898,3407898,3407890,3407882,0,0.048645064,0.03416989,0.040608432,0.0,3407898,3407898,3407890,3407882,0,0.0018892967,0.0019323083,0.0011582266,0.0,1,1,1,0,50,50,50,0,1,1,1,0,50,50,50,0
201866938,3407898,3407898,3407890,3407882,0,0.06276859,0.03560229,0.039235897,0.0,3407898,3407898,3407890,3407882,0,0.001554717,0.0017025792,0.0012125088,0.0,1,1,1,0,50,50,50,0,1,1,1,0,50,50,50,0
202066985,3407898,3407898,3407890,3407882,0,0.067587964,0.031892367,0.042522896,0.0,3407898,3407898,3407890,3407882,0,0.0015714102,0.0017921224,0.001055403,0.0,1,1,1,0,50,50,50,0,1,1,1,0,50,50,50,0
202266957,3407898,3407898,3407890,3407882,0,0.061985306,0.034887165,0.036996245,0.0,3407898,3407898,3407890,3407882,0,0.0015299862,0.0018787313,0.0011472395,0.0,1,1,1,0,50,50,50,0,1,1,1,0,50,50,50,0
202466954,3407898,3407898,3407890,3407882,0,0.062439684,0.038174268,0.042319365,0.0,3407898,3407898,3407890,3407882,0,0.001814988,0.0020288683,0.001258873,0.0,1,1,1,0,50,50,50,0,1,1,1,0,50,50,50,0
202666956,3407898,3407898,3407890,3407882,0,0.064846806,0.039937362,0.040259857,0.0,3407898,3407898,3407890,3407882,0,0.0016460716,0.001717062,0.0012707493,0.0,1,1,1,0,50,50,50,0,1,1,1,0,50,50,50,0
202866983,3407898,3407898,3407890,3407882,0,0.061246533,0.033694495,0.036852356,0.0,3407898,3407898,3407890,3407882,0,0.0015245962,0.0017113334,0.0010525926,0.0,1,1,1,0,50,50,50,0,1,1,1,0,50,50,50,0
203066957,3407898,3407898,3407890,3407882,0,0.06059974,0.039420366,0.050078224,0.0,3407898,3407898,3407890,3407882,0,0.0014595524,0.0016709231,0.0010527091,0.0,1,1,1,0,50,50,50,0,1,1,1,0,50,50,50,0
203266957,3407898,3407898,3407890,3407882,0,0.06398604,0.040304407,0.033374112,0.0,3407898,3407898,3407890,3407882,0,0.0016338566,0.0021064363,0.0013657432,0.0,1,1,1,0,50,50,50,0,1,1,1,0,50,50,50,0
203466948,3407898,3407898,3407890,3407882,0,0.056580614,0.03376172,0.031587683,0.0,3407898,3407898,3407890,3407882,0,0.0017495911,0.0019622438,0.0010076509,0.0,1,1,1,0,50,50,50,0,1,1,1,0,50,50,50,0
203666940,3407898,3407898,3407890,3407882,0,0.07453207,0.044419028,0.055084925,0.0,3407898,3407898,3407890,3407882,0,0.0017736356,0.0019076681,0.0012207456,0.0,1,1,1,0,50,50,50,0,1,1,1,0,50,50,50,0
203866955,3407898,3407898,3407890,3407882,0,0.058080573,0.042580433,0.040388256,0.0,3407898,3407898,3407890,3407882,0,0.0020114835,0.0022603336,0.0012467849,0.0,1,1,1,0,50,50,50,0,1,1,1,0,50,50,50,0
204066986,3407898,3407898,3407890,3407882,0,0.053202927,0.049042962,0.06876258,0.0,3407898,3407898,3407890,3407882,0,0.0015167976,0.0017901846,0.001019308,0.0,1,1,1,0,50,50,50,0,1,1,1,0,50,50,50,0
204266955,3407898,3407898,3407890,3407882,0,0.06725404,0.06196133,0.061099373,0.0,3407898,3407898,3407890,3407882,0,0.0020178773,0.0022125067,0.0010753126,0.0,1,1,1,0,50,50,50,0,1,1,1,0,50,50,50,0
204466961,3407898,3407898,3407890,3407882,0,0.068540655,0.025118323,0.06308729,0.0,3407898,3407898,3407890,3407882,0,0.0014489348,0.0014831942,0.0013342702,0.0,1,1,1,0,50,50,50,0,1,1,1,0,50,50,50,0
204666956,3407898,3407898,3407890,3407882,0,0.0931252,0.10659237,0.06531839,0.0,3407898,3407898,3407890,3407882,0,0.0012030225,0.0026601688,0.0019127135,0.0,1,1,1,0,50,50,50,0,1,1,1,0,50,50,50,0
205066958,3407898,3407898,3407890,3407882,0,0.04291099,0.06950123,0.061474677,0.0,3407898,3407898,3407890,3407882,0,0.00218665,0.0026784628,0.0010500001,0.0,1,1,1,0,50,50,50,0,1,1,1,0,50,50,50,0
205266937,3407898,3407898,3407890,3407882,0,0.11239453,0.11457888,0.08302919,0.0,3407898,3407898,3407890,3407882,0,0.0026992713,0.0037128935,0.0012765907,0.0,1,1,1,0,50,50,50,0,1,1,1,0,50,50,50,0
205466957,3407898,3407898,3407890,3407882,0,0.04539217,0.06249212,0.08453943,0.0,3407898,3407898,3407890,3407882,0,0.00090237317,0.0012647768,0.0010575115,0.0,1,1,1,0,50,50,50,0,1,1,1,0,50,50,50,0
205666961,3407898,3407898,3407890,3407882,0,0.040388446,0.04643411,0.050743476,0.0,3407898,3407898,3407890,3407882,0,0.0052387444,0.0067606377,0.0022134623,0.0,1,1,1,0,50,50,50,0,1,1,1,0,50,50,50,0
205866937,3407898,3407898,3407890,3407882,0,0.10301536,0.0625224,0.06374371,0.0,3407898,3407898,3407890,3407882,0,0.0016890712,0.0021850446,0.0007478671,0.0,1,1,1,0,50,50,50,0,1,1,1,0,50,50,50,0
206066946,3407898,3407898,3407890,3407882,0,0.07216638,0.050750185,0.08634439,0.0,3407898,3407898,3407890,3407882,0,0.0022977188,0.0025110173,0.0015215204,0.0,1,1,1,0,50,50,50,0,1,1,1,0,50,50,50,0
206266956,3407898,3407898,3407890,3407882,0,0.0918045,0.089265734,0.053130094,0.0,3407898,3407898,3407890,3407882,0,0.0026828398,0.0028252506,0.00083559455,0.0,1,1,1,0,50,50,50,0,1,1,1,0,50,50,50,0
206666956,3407898,3407898,3407890,3407882,0,0.09812213,0.1284535,0.07906594,0.0,3407898,3407898,3407890,3407882,0,0.0011156562,0.00078562705,0.0016842047,0.0,1,1,1,0,50,50,50,0,1,1,1,0,50,50,50,0
206866960,3407898,3407898,3407890,3407882,0,0.14142558,0.17869094,0.116744764,0.0,3407898,3407898,3407890,3407882,0,0.00229565,0.0032034693,0.0017919533,0.0,1,1,1,0,50,50,50,0,1,1,1,0,50,50,50,0
207066999,3407898,3407898,3407890,3407882,0,0.046741366,0.071087696,0.08414797,0.0,3407898,3407898,3407890,3407882,0,0.0018769925,0.0022538884,0.001017279,0.0,1,1,1,0,50,50,50,0,1,1,1,0,50,50,50,0
207266938,3407898,3407898,3407890,3407882,0,0.051916707,0.0943815,0.11944326,0.0,3407898,3407898,3407890,3407882,0,0.0011401996,0.0016408153,0.0015725088,0.0,1,1,1,0,50,50,50,0,1,1,1,0,50,50,50,0
207466937,3407898,3407898,3407890,3407882,0,0.10422363,0.085899904,0.06615671,0.0,3407898,3407898,3407890,3407882,0,0.00097129977,0.0015848166,0.0018077849,0.0,1,1,1,0,50,50,50,0,1,1,1,0,50,50,50,0
207666941,3407898,3407898,3407890,3407882,0,0.026094576,0.07946219,0.057795823,0.0,3407898,3407898,3407890,3407882,0,0.0008720705,0.0018957723,0.0018841893,0.0,1,1,1,0,50,50,50,0,1,1,1,0,50,50,50,0
207866938,3407898,3407898,3407890,3407882,0,0.11075938,0.1102454,0.073116824,0.0,3407898,3407898,3407890,3407882,0,0.0031333673,0.0030920834,0.0015978252,0.0,1,1,1,0,50,50,50,0,1,1,1,0,50,50,50,0
208066940,3407898,3407898,3407890,3407882,0,0.10153683,0.11257434,0.03377326,0.0,3407898,3407898,3407890,3407882,0,0.0029497196,0.0032341524,0.0017301103,0.0,1,1,1,0,50,50,50,0,1,1,1,0,50,50,50,0
208266955,3407898,3407898,3407890,3407882,0,0.028685383,0.09637829,0.11211896,0.0,3407898,3407898,3407890,3407882,0,0.0024114074,0.0020910208,0.001157047,0.0,1,1,1,0,50,50,50,0,1,1,1,0,50,50,50,0
208466953,3407898,3407898,3407890,3407882,0,0.071680896,0.105503835,0.04219563,0.0,3407898,3407898,3407890,3407882,0,0.0020835537,0.003266387,0.0018647405,0.0,1,1,1,0,50,50,50,0,1,1,1,0,50,50,50,0
208666987,3407898,3407898,3407890,3407882,0,0.06687255,0.09677358,0.06143959,0.0,3407898,3407898,3407890,3407882,0,0.0033018664,0.0034021258,0.0020544706,0.0,1,1,1,0,50,50,50,0,1,1,1,0,50,50,50,0
208866960,3407898,3407898,3407890,3407882,0,0.14628592,0.11777993,0.04402927,0.0,3407898,3407898,3407890,3407882,0,0.0021188513,0.0020641256,0.0013770524,0.0,1,1,1,0,50,50,50,0,1,1,1,0,50,50,50,0
209066959,3407898,3407898,3407890,3407882,0,0.06262469,0.055327587,0.012001138,0.0,3407898,3407898,3407890,3407882,0,0.0019661058,0.00226212,0.0014258338,0.0,1,1,1,0,50,50,50,0,1,1,1,0,50,50,50,0
209266939,3407898,3407898,3407890,3407882,0,0.049519833,0.053918358,0.078546405,0.0,3407898,3407898,3407890,3407882,0,0.0021602893,0.0037756427,0.001937709,0.0,1,1,1,0,50,50,50,0,1,1,1,0,50,50,50,0
209466959,3407898,3407898,3407890,3407882,0,0.04162777,0.05166224,0.043595113,0.0,3407898,3407898,3407890,3407882,0,0.0023344215,0.002058904,0.0022346876,0.0,1,1,1,0,50,50,50,0,1,1,1,0,50,50,50,0
209666940,3407898,3407898,3407890,3407882,0,0.13355488,0.11960657,0.024461465,0.0,3407898,3407898,3407890,3407882,0,0.0013083126,0.0031433986,0.0020603517,0.0,1,1,1,0,50,50,50,0,1,1,1,0,50,50,50,0
209866940,3407898,3407898,3407890,3407882,0,0.09337706,0.09984343,0.060858004,0.0,3407898,3407898,3407890,3407882,0,0.004233041,0.006207943,0.0025520367,0.0,1,1,1,0,50,50,50,0,1,1,1,0,50,50,50,0
210066942,3407898,3407898,3407890,3407882,0,0.09359155,0.03995221,0.054893423,0.0,3407898,3407898,3407890,3407882,0,0.0012245763,0.0022780565,0.0013193507,0.0,1,1,1,0,50,50,50,0,1,1,1,0,50,50,50,0
210266988,3407898,3407898,3407890,3407882,0,0.07858197,0.09546779,0.10596787,0.0,3407898,3407898,3407890,3407882,0,0.0021687017,0.002380091,0.0015621168,0.0,1,1,1,0,50,50,50,0,1,1,1,0,50,50,50,0
210466982,3407898,3407898,3407890,3407882,0,0.066967666,0.10212638,0.107546575,0.0,3407898,3407898,3407890,3407882,0,0.00089411496,0.003357688,0.002645903,0.0,1,1,1,0,50,50,50,0,1,1,1,0,50,50,50,0
210666958,3407898,3407898,3407890,3407882,0,0.07419169,0.10794762,0.05347925,0.0,3407898,3407898,3407890,3407882,0,0.0014551551,0.0013953812,0.0011920326,0.0,1,1,1,0,50,50,50,0,1,1,1,0,50,50,50,0
210866987,3407898,3407898,3407890,3407882,0,0.11272466,0.0745762,0.1776562,0.0,3407898,3407898,3407890,3407882,0,0.003687295,0.0042860443,0.0011038686,0.0,1,1,1,0,50,50,50,0,1,1,1,0,50,50,50,0
211266996,3407898,3407898,3407890,3407882,0,0.1368208,0.10578288,0.0867077,0.0,3407898,3407898,3407890,3407882,0,0.003273628,0.003363194,0.0011843875,0.0,1,1,1,0,50,50,50,0,1,1,1,0,50,50,50,0
211466938,3407898,3407898,3407890,3407882,0,0.14032108,0.08672926,0.15968274,0.0,3407898,3407898,3407890,3407882,0,0.0038497024,0.002227974,0.0026475838,0.0,1,1,1,0,50,50,50,0,1,1,1,0,50,50,50,0
211666938,3407898,3407898,3407890,3407882,0,0.036112152,0.05382413,0.076543435,0.0,3407898,3407898,3407890,3407882,0,0.0006387634,0.002302059,0.0018063667,0.0,1,1,1,0,50,50,50,0,1,1,1,0,50,50,50,0
211866962,3407898,3407898,3407890,3407882,0,0.04918532,0.07059172,0.06954585,0.0,3407898,3407898,3407890,3407882,0,0.0019407116,0.003497745,0.0017293622,0.0,1,1,1,0,50,50,50,0,1,1,1,0,50,50,50,0
212066940,3407898,3407898,3407890,3407882,0,0.106831,0.14861742,0.06972982,0.0,3407898,3407898,3407890,3407882,0,0.0036263363,0.0017956764,0.0018894415,0.0,1,1,1,0,50,50,50,0,1,1,1,0,50,50,50,0
212266955,3407898,3407898,3407890,3407882,0,0.12048781,0.092127085,0.033055384,0.0,3407898,3407898,3407890,3407882,0,0.002257647,0.001666307,0.0013170717,0.0,1,1,1,0,50,50,50,0,1,1,1,0,50,50,50,0
212466956,3407898,3407898,3407890,3407882,0,0.14285691,0.12641758,0.09020696,0.0,3407898,3407898,3407890,3407882,0,0.004062195,0.0043266527,0.0009360287,0.0,1,1,1,0,50,50,50,0,1,1,1,0,50,50,50,0
212666954,3407898,3407898,3407890,3407882,0,0.097213395,0.08855965,0.09185169,0.0,3407898,3407898,3407890,3407882,0,0.0025551151,0.003208159,0.0008726161,0.0,1,1,1,0,50,50,50,0,1,1,1,0,50,50,50,0
213066958,3407898,3407898,3407890,3407882,0,0.083120756,0.06148655,0.08736909,0.0,3407898,3407898,3407890,3407882,0,0.0022213394,0.0011652483,0.0024798193,0.0,1,1,1,0,50,50,50,0,1,1,1,0,50,50,50,0
213266940,3407898,3407898,3407890,3407882,0,0.085581176,0.1552171,0.14895585,0.0,3407898,3407898,3407890,3407882,0,0.0016445215,0.004521612,0.0041021635,0.0,1,1,1,0,50,50,50,0,1,1,1,0,50,50,50,0
213466938,3407898,3407898,3407890,3407882,0,0.09173091,0.1382133,0.061843317,0.0,3407898,3407898,3407890,3407882,0,0.001960997,0.004220277,0.003457663,0.0,1,1,1,0,50,50,50,0,1,1,1,0,50,50,50,0
213666939,3407898,3407898,3407890,3407882,0,0.1156179,0.0967661,0.107309476,0.0,3407898,3407898,3407890,3407882,0,0.0034779396,0.0018645634,0.0018247898,0.0,1,1,1,0,50,50,50,0,1,1,1,0,50,50,50,0
213866946,3407898,3407898,3407890,3407882,0,0.12046417,0.069370694,0.08845382,0.0,3407898,3407898,3407890,3407882,0,0.002496052,0.0026784947,0.0024738137,0.0,1,1,1,0,50,50,50,0,1,1,1,0,50,50,50,0
214066958,3407898,3407898,3407890,3407882,0,0.08237702,0.09069807,0.053202268,0.0,3407898,3407898,3407890,3407882,0,0.002123386,0.00258311,0.0026637895,0.0,1,1,1,0,50,50,50,0,1,1,1,0,50,50,50,0
214266955,3407898,3407898,3407890,3407882,0,0.062281623,0.12598507,0.09793985,0.0,3407898,3407898,3407890,3407882,0,0.0021555717,0.0014293697,0.0024002767,0.0,1,1,1,0,50,50,50,0,1,1,1,0,50,50,50,0
214466957,3407898,3407898,3407890,3407882,0,0.09926506,0.12719448,0.114642695,0.0,3407898,3407898,3407890,3407882,0,0.0024545898,0.0017575094,0.0029072042,0.0,1,1,1,0,50,50,50,0,1,1,1,0,50,50,50,0
214666960,3407898,3407898,3407890,3407882,0,0.14092436,0.15178521,0.07269349,0.0,3407898,3407898,3407890,3407882,0,0.0018511829,0.0028301282,0.0027200794,0.0,1,1,1,0,50,50,50,0,1,1,1,0,50,50,50,0
214866980,3407898,3407898,3407890,3407882,0,0.15591273,0.13255884,0.06631869,0.0,3407898,3407898,3407890,3407882,0,0.0036851787,0.003950761,0.002923093,0.0,1,1,1,0,50,50,50,0,1,1,1,0,50,50,50,0
215066957,3407898,3407898,3407890,3407882,0,0.10841323,0.09177106,0.06682823,0.0,3407898,3407898,3407890,3407882,0,0.0025715267,0.0010821022,0.0020065103,0.0,1,1,1,0,50,50,50,0,1,1,1,0,50,50,50,0
215266958,3407898,3407898,3407890,3407882,0,0.015609537,0.077673145,0.0633067,0.0,3407898,3407898,3407890,3407882,0,0.0012337229,0.0011369528,0.002295536,0.0,1,1,1,0,50,50,50,0,1,1,1,0,50,50,50,0
215466945,3407898,3407898,3407890,3407882,0,0.08050381,0.09743775,0.14879529,0.0,3407898,3407898,3407890,3407882,0,0.0033417998,0.0028780387,0.0015101604,0.0,1,1,1,0,50,50,50,0,1,1,1,0,50,50,50,0
215666939,3407898,3407898,3407890,3407882,0,0.15456598,0.13665453,0.14137474,0.0,3407898,3407898,3407890,3407882,0,0.0044549378,0.006288027,0.0025553496,0.0,1,1,1,0,50,50,50,0,1,1,1,0,50,50,50,0
215866939,3407898,3407898,3407890,3407882,0,0.04420439,0.20732741,0.18460225,0.0,3407898,3407898,3407890,3407882,0,0.0009837707,0.0032549899,0.0030259574,0.0,1,1,1,0,50,50,50,0,1,1,1,0,50,50,50,0
216066959,3407898,3407898,3407890,3407882,0,0.07027343,0.02943429,0.0511753,0.0,3407898,3407898,3407890,3407882,0,0.0018636365,0.0022514034,0.0014504942,0.0,1,1,1,0,50,50,50,0,1,1,1,0,50,50,50,0
216266955,3407898,3407898,3407890,3407882,0,0.115443684,0.2753209,0.17775235,0.0,3407898,3407898,3407890,3407882,0,0.003472986,0.0048123505,0.0027706209,0.0,1,1,1,0,50,50,50,0,1,1,1,0,50,50,50,0
216466957,3407898,3407898,3407890,3407882,0,0.16635962,0.18260606,0.10593784,0.0,3407898,3407898,3407890,3407882,0,0.004174273,0.002838006,0.0026030964,0.0,1,1,1,0,50,50,50,0,1,1,1,0,50,50,50,0
216666955,3407898,3407898,3407890,3407882,0,0.029952211,0.11174548,0.111857206,0.0,3407898,3407898,3407890,3407882,0,0.002620876,0.0028393648,0.00067533494,0.0,1,1,1,0,50,50,50,0,1,1,1,0,50,50,50,0
216866955,3407898,3407898,3407890,3407882,0,0.1951578,0.33393168,0.23956038,0.0,3407898,3407898,3407890,3407882,0,0.0020593994,0.0042813346,0.004653969,0.0,1,1,1,0,50,50,50,0,1,1,1,0,50,50,50,0
217066985,3407898,3407898,3407890,3407882,0,0.09742824,0.19839229,0.14495741,0.0,3407898,3407898,3407890,3407882,0,0.0023371761,0.004060497,0.0024831167,0.0,1,1,1,0,50,50,50,0,1,1,1,0,50,50,50,0
217266939,3407898,3407898,3407890,3407882,0,0.28450722,0.29412946,0.26003617,0.0,3407898,3407898,3407890,3407882,0,0.0011736095,0.0023227953,0.0018070674,0.0,1,1,1,0,50,50,50,0,1,1,1,0,50,50,50,0
217466953,3407898,3407898,3407890,3407882,0,0.10505075,0.17195573,0.14736928,0.0,3407898,3407898,3407890,3407882,0,0.002893962,0.002593922,0.002432485,0.0,1,1,1,0,50,50,50,0,1,1,1,0,50,50,50,0
217666959,3407898,3407898,3407890,3407882,0,0.13477997,0.22028184,0.190225,0.0,3407898,3407898,3407890,3407882,0,0.0034996243,0.0018250579,0.002598467,0.0,1,1,1,0,50,50,50,0,1,1,1,0,50,50,50,0
217866940,3407898,3407898,3407890,3407882,0,0.13027358,0.10076944,0.09301278,0.0,3407898,3407898,3407890,3407882,0,0.0026239809,0.0022599683,0.0034286806,0.0,1,1,1,0,50,50,50,0,1,1,1,0,50,50,50,0
218066941,3407898,3407898,3407890,3407882,0,0.16179651,0.3393953,0.26833153,0.0,3407898,3407898,3407890,3407882,0,0.006004349,0.012997018,0.0076105143,0.0,1,1,1,0,50,50,50,0,1,1,1,0,50,50,50,0
218266956,3407898,3407898,3407890,3407882,0,0.093671896,0.23538136,0.19813702,0.0,3407898,3407898,3407890,3407882,0,0.0068018064,0.009263153,0.0033624626,0.0,1,1,1,0,50,50,50,0,1,1,1,0,50,50,50,0
218466961,3407898,3407898,3407890,3407882,0,0.16458565,0.12461528,0.08637987,0.0,3407898,3407898,3407890,3407882,0,0.0029424003,0.0035691417,0.0033920351,0.0,1,1,1,0,50,50,50,0,1,1,1,0,50,50,50,0
218666962,3407898,3407898,3407890,3407882,0,0.044754766,0.119355746,0.10438431,0.0,3407898,3407898,3407890,3407882,0,0.0029486662,0.0040828013,0.0025515335,0.0,1,1,1,0,50,50,50,0,1,1,1,0,50,50,50,0
218866954,3407898,3407898,3407890,3407882,0,0.13431434,0.278763,0.19230077,0.0,3407898,3407898,3407890,3407882,0,0.0039614644,0.0049866675,0.0025883454,0.0,1,1,1,0,50,50,50,0,1,1,1,0,50,50,50,0
219066960,3407898,3407898,3407890,3407882,0,0.1464863,0.20644116,0.06698254,0.0,3407898,3407898,3407890,3407882,0,0.0027381296,0.0045214584,0.003869579,0.0,1,1,1,0,50,50,50,0,1,1,1,0,50,50,50,0
219266954,3407898,3407898,3407890,3407882,0,0.19156575,0.08825589,0.14183684,0.0,3407898,3407898,3407890,3407882,0,0.0021822497,0.0031704027,0.002654258,0.0,1,1,1,0,50,50,50,0,1,1,1,0,50,50,50,0
219466961,3407898,3407898,3407890,3407882,0,0.16448605,0.25032654,0.123395525,0.0,3407898,3407898,3407890,3407882,0,0.004057124,0.006393862,0.004480077,0.0,1,1,1,0,50,50,50,0,1,1,1,0,50,50,50,0
219666939,3407898,3407898,3407890,3407882,0,0.20993967,0.23581599,0.19017726,0.0,3407898,3407898,3407890,3407882,0,0.0041766204,0.005175979,0.004568038,0.0,1,1,1,0,50,50,50,0,1,1,1,0,50,50,50,0
219866958,3407898,3407898,3407890,3407882,0,0.07810368,0.0772319,0.058634274,0.0,3407898,3407898,3407890,3407882,0,0.0023383196,0.0012157158,0.0014494413,0.0,1,1,1,0,50,50,50,0,1,1,1,0,50,50,50,0
220066939,3407898,3407898,3407890,3407882,0,0.13152827,0.16462125,0.08529992,0.0,3407898,3407898,3407890,3407882,0,0.002763164,0.0053598913,0.0043089157,0.0,1,1,1,0,50,50,50,0,1,1,1,0,50,50,50,0
220266940,3407898,3407898,3407890,3407882,0,0.14727513,0.066162184,0.087345295,0.0,3407898,3407898,3407890,3407882,0,0.0038052532,0.005139239,0.0024124256,0.0,1,1,1,0,50,50,50,0,1,1,1,0,50,50,50,0
220466957,3407898,3407898,3407890,3407882,0,0.23086807,0.33698192,0.54356575,0.0,3407898,3407898,3407890,3407882,0,0.0037198619,0.0023589898,0.0050776983,0.0,1,1,1,0,50,50,50,0,1,1,1,0,50,50,50,0
220666958,3407898,3407898,3407890,3407882,0,0.029256511,0.13864882,0.164342,0.0,3407898,3407898,3407890,3407882,0,0.004571054,0.0047425465,0.0013739038,0.0,1,1,1,0,50,50,50,0,1,1,1,0,50,50,50,0
221066958,3407898,3407898,3407890,3407882,0,0.09933799,0.1833463,0.11841979,0.0,3407898,3407898,3407890,3407882,0,0.002168764,0.0027080334,0.002033915,0.0,1,1,1,0,50,50,50,0,1,1,1,0,50,50,50,0
221266955,3407898,3407898,3407890,3407882,0,0.09023702,0.01780857,0.104040764,0.0,3407898,3407898,3407890,3407882,0,0.0026251061,0.0035855311,0.0012456041,0.0,1,1,1,0,50,50,50,0,1,1,1,0,50,50,50,0
221466959,3407898,3407898,3407890,3407882,0,0.08281534,0.15240595,0.09351199,0.0,3407898,3407898,3407890,3407882,0,0.0035013068,0.0072803358,0.00462365,0.0,1,1,1,0,50,50,50,0,1,1,1,0,50,50,50,0
221666940,3407898,3407898,3407890,3407882,0,0.30815318,0.3447329,0.13416772,0.0,3407898,3407898,3407890,3407882,0,0.0027935908,0.0047881464,0.0020510664,0.0,1,1,1,0,50,50,50,0,1,1,1,0,50,50,50,0
221866939,3407898,3407898,3407890,3407882,0,0.116462514,0.22142395,0.15291464,0.0,3407898,3407898,3407890,3407882,0,0.0027427538,0.0007220755,0.0028383113,0.0,1,1,1,0,50,50,50,0,1,1,1,0,50,50,50,0
222066963,3407898,3407898,3407890,3407882,0,0.07868574,0.101801775,0.068924874,0.0,3407898,3407898,3407890,3407882,0,0.002246272,0.0027796037,0.0022120285,0.0,1,1,1,0,50,50,50,0,1,1,1,0,50,50,50,0
222266941,3407898,3407898,3407890,3407882,0,0.16728988,0.1753471,0.058328096,0.0,3407898,3407898,3407890,3407882,0,0.0023747168,0.001667991,0.0017283434,0.0,1,1,1,0,50,50,50,0,1,1,1,0,50,50,50,0
222466980,3407898,3407898,3407890,3407882,0,0.105434,0.12552094,0.022315573,0.0,3407898,3407898,3407890,3407882,0,0.0038162079,0.00523254,0.002253529,0.0,1,1,1,0,50,50,50,0,1,1,1,0,50,50,50,0
222666956,3407898,3407898,3407890,3407882,0,0.08094142,0.09810316,0.062360737,0.0,3407898,3407898,3407890,3407882,0,0.0027274897,0.0016625241,0.0014614912,0.0,1,1,1,0,50,50,50,0,1,1,1,0,50,50,50,0
222866954,3407898,3407898,3407890,3407882,0,0.10912946,0.09623822,0.018487385,0.0,3407898,3407898,3407890,3407882,0,0.0025894204,0.0020496673,0.0010889403,0.0,1,1,1,0,50,50,50,0,1,1,1,0,50,50,50,0
223066990,3407898,3407898,3407890,3407882,0,0.10875667,0.18950677,0.12952176,0.0,3407898,3407898,3407890,3407882,0,0.0034893304,0.005376009,0.0021544124,0.0,1,1,1,0,50,50,50,0,1,1,1,0,50,50,50,0
223266955,3407898,3407898,3407890,3407882,0,0.115589276,0.063039936,0.056446694,0.0,3407898,3407898,3407890,3407882,0,0.0016815679,0.0012069306,0.0009938662,0.0,1,1,1,0,50,50,50,0,1,1,1,0,50,50,50,0
223466941,3407898,3407898,3407890,3407882,0,0.102424555,0.107026555,0.12295266,0.0,3407898,3407898,3407890,3407882,0,0.0021161002,0.0019231248,0.0010123844,0.0,1,1,1,0,50,50,50,0,1,1,1,0,50,50,50,0
223666953,3407898,3407898,3407890,3407882,0,0.040430073,0.12865144,0.14346674,0.0,3407898,3407898,3407890,3407882,0,0.0025082934,0.0025591166,0.0012304911,0.0,1,1,1,0,50,50,50,0,1,1,1,0,50,50,50,0
223866941,3407898,3407898,3407890,3407882,0,0.083383285,0.041232403,0.111171745,0.0,3407898,3407898,3407890,3407882,0,0.0021104044,0.004860323,0.002885061,0.0,1,1,1,0,50,50,50,0,1,1,1,0,50,50,50,0
224066943,3407898,3407898,3407890,3407882,0,0.110839784,0.14682709,0.07695521,0.0,3407898,3407898,3407890,3407882,0,0.0010776647,0.0010920693,0.00064421864,0.0,1,1,1,0,50,50,50,0,1,1,1,0,50,50,50,0
224266939,3407898,3407898,3407890,3407882,0,0.08421849,0.111118175,0.0591742,0.0,3407898,3407898,3407890,3407882,0,0.0014698928,0.0029212718,0.002688358,0.0,1,1,1,0,50,50,50,0,1,1,1,0,50,50,50,0
224466955,3407898,3407898,3407890,3407882,0,0.108931564,0.093257666,0.09040502,0.0,3407898,3407898,3407890,3407882,0,0.0034612205,0.0057684556,0.0028158315,0.0,1,1,1,0,50,50,50,0,1,1,1,0,50,50,50,0
224666957,3407898,3407898,3407890,3407882,0,0.09429441,0.06864396,0.1522991,0.0,3407898,3407898,3407890,3407882,0,0.0016489858,0.0008552296,0.0012342719,0.0,1,1,1,0,50,50,50,0,1,1,1,0,50,50,50,0
224866955,3407898,3407898,3407890,3407882,0,0.07861452,0.062238052,0.017518533,0.0,3407898,3407898,3407890,3407882,0,0.0015920402,0.0020766193,0.001621458,0.0,1,1,1,0,50,50,50,0,1,1,1,0,50,50,50,0
225066965,3407898,3407898,3407890,3407882,0,0.04568353,0.05979813,0.020521432,0.0,3407898,3407898,3407890,3407882,0,0.0020184042,0.0018232018,0.000938522,0.0,1,1,1,0,50,50,50,0,1,1,1,0,50,50,50,0
225266958,3407898,3407898,3407890,3407882,0,0.09859174,0.08777294,0.030866457,0.0,3407898,3407898,3407890,3407882,0,0.002731237,0.0039651985,0.0020726356,0.0,1,1,1,0,50,50,50,0,1,1,1,0,50,50,50,0
225466938,3407898,3407898,3407890,3407882,0,0.0934209,0.16478,0.09994361,0.0,3407898,3407898,3407890,3407882,0,0.004075803,0.0037139254,0.0016210818,0.0,1,1,1,0,50,50,50,0,1,1,1,0,50,50,50,0
225666940,3407898,3407898,3407890,3407882,0,0.111001864,0.07835429,0.086111076,0.0,3407898,3407898,3407890,3407882,0,0.003823123,0.0035640942,0.0011933211,0.0,1,1,1,0,50,50,50,0,1,1,1,0,50,50,50,0
225866938,3407898,3407898,3407890,3407882,0,0.088502385,0.115680926,0.077722505,0.0,3407898,3407898,3407890,3407882,0,0.0025419143,0.0036647057,0.0017416949,0.0,1,1,1,0,50,50,50,0,1,1,1,0,50,50,50,0
226066940,3407898,3407898,3407890,3407882,0,0.06596886,0.07153219,0.05793994,0.0,3407898,3407898,3407890,3407882,0,0.0048501906,0.0060585407,0.0013369716,0.0,1,1,1,0,50,50,50,0,1,1,1,0,50,50,50,0
226266938,3407898,3407898,3407890,3407882,0,0.09752407,0.026269713,0.11571277,0.0,3407898,3407898,3407890,3407882,0,0.0023703,0.003760074,0.0019711463,0.0,1,1,1,0,50,50,50,0,1,1,1,0,50,50,50,0
226466963,3407898,3407898,3407890,3407882,0,0.080201246,0.02825286,0.062907,0.0,3407898,3407898,3407890,3407882,0,0.0031393026,0.0045927973,0.0016486185,0.0,1,1,1,0,50,50,50,0,1,1,1,0,50,50,50,0
226666955,3407898,3407898,3407890,3407882,0,0.108746566,0.26415828,0.18554068,0.0,3407898,3407898,3407890,3407882,0,0.0073798853,0.009271527,0.0026034445,0.0,1,1,1,0,50,50,50,0,1,1,1,0,50,50,50,0
226866956,3407898,3407898,3407890,3407882,0,0.09233985,0.054867215,0.038365312,0.0,3407898,3407898,3407890,3407882,0,0.0025899317,0.0044638324,0.0026033039,0.0,1,1,1,0,50,50,50,0,1,1,1,0,50,50,50,0
227067010,3407898,3407898,3407890,3407882,0,0.10595931,0.08242171,0.027457047,0.0,3407898,3407898,3407890,3407882,0,0.006522154,0.006257311,0.0016746788,0.0,1,1,1,0,50,50,50,0,1,1,1,0,50,50,50,0
227466940,3407898,3407898,3407890,3407882,0,0.0954528,0.08867637,0.12921369,0.0,3407898,3407898,3407890,3407882,0,0.0030160006,0.0040853648,0.0019490545,0.0,1,1,1,0,50,50,50,0,1,1,1,0,50,50,50,0
227666938,3407898,3407898,3407890,3407882,0,0.07661364,0.088743664,0.057109635,0.0,3407898,3407898,3407890,3407882,0,0.0074106026,0.0068046995,0.0019349854,0.0,1,1,1,0,50,50,50,0,1,1,1,0,50,50,50,0
227866938,3407898,3407898,3407890,3407882,0,0.064336136,0.02644896,0.08291233,0.0,3407898,3407898,3407890,3407882,0,0.0038123298,0.00426767,0.0010721026,0.0,1,1,1,0,50,50,50,0,1,1,1,0,50,50,50,0
228066951,3407898,3407898,3407890,3407882,0,0.13876274,0.10307125,0.11181335,0.0,3407898,3407898,3407890,3407882,0,0.0059202043,0.006124786,0.0035374453,0.0,1,1,1,0,50,50,50,0,1,1,1,0,50,50,50,0
228266941,3407898,3407898,3407890,3407882,0,0.1056882,0.10934911,0.068849064,0.0,3407898,3407898,3407890,3407882,0,0.0029852907,0.0028102193,0.0033614766,0.0,1,1,1,0,50,50,50,0,1,1,1,0,50,50,50,0
228466960,3407898,3407898,3407890,3407882,0,0.10638085,0.15722936,0.073788956,0.0,3407898,3407898,3407890,3407882,0,0.0031377815,0.0048083216,0.0023063647,0.0,1,1,1,0,50,50,50,0,1,1,1,0,50,50,50,0
228666961,3407898,3407898,3407890,3407882,0,0.12541023,0.16781884,0.110468574,0.0,3407898,3407898,3407890,3407882,0,0.00508881,0.005356718,0.0014193598,0.0,1,1,1,0,50,50,50,0,1,1,1,0,50,50,50,0
228866960,3407898,3407898,3407890,3407882,0,0.12779757,0.13643835,0.166357,0.0,3407898,3407898,3407890,3407882,0,0.004020272,0.005924656,0.003157018,0.0,1,1,1,0,50,50,50,0,1,1,1,0,50,50,50,0
229066963,3407898,3407898,3407890,3407882,0,0.13377133,0.1070672,0.05411665,0.0,3407898,3407898,3407890,3407882,0,0.0060643954,0.0068667727,0.0014788565,0.0,1,1,1,0,50,50,50,0,1,1,1,0,50,50,50,0
229266955,3407898,3407898,3407890,3407882,0,0.07417512,0.098972805,0.028058795,0.0,3407898,3407898,3407890,3407882,0,0.0016654566,0.002741161,0.002745244,0.0,1,1,1,0,50,50,50,0,1,1,1,0,50,50,50,0
229466939,3407898,3407898,3407890,3407882,0,0.16613239,0.20540287,0.044003848,0.0,3407898,3407898,3407890,3407882,0,0.0024360446,0.003643248,0.0020795057,0.0,1,1,1,0,50,50,50,0,1,1,1,0,50,50,50,0
229666939,3407898,3407898,3407890,3407882,0,0.11654927,0.038769033,0.12634715,0.0,3407898,3407898,3407890,3407882,0,0.005446401,0.0065640905,0.0021038582,0.0,1,1,1,0,50,50,50,0,1,1,1,0,50,50,50,0
229866940,3407898,3407898,3407890,3407882,0,0.12838553,0.08432394,0.071198456,0.0,3407898,3407898,3407890,3407882,0,0.0021427847,0.004408832,0.002877918,0.0,1,1,1,0,50,50,50,0,1,1,1,0,50,50,50,0
230066969,3407898,3407898,3407890,3407882,0,0.10198905,0.097001985,0.09114865,0.0,3407898,3407898,3407890,3407882,0,0.0047064,0.0036501253,0.0012756189,0.0,1,1,1,0,50,50,50,0,1,1,1,0,50,50,50,0
230266958,3407898,3407898,3407890,3407882,0,0.16523138,0.048705943,0.13637862,0.0,3407898,3407898,3407890,3407882,0,0.0011071111,0.0020198352,0.0028547652,0.0,1,1,1,0,50,50,50,0,1,1,1,0,50,50,50,0
230466958,3407898,3407898,3407890,3407882,0,0.0860376,0.115877405,0.14600627,0.0,3407898,3407898,3407890,3407882,0,0.004213589,0.004461833,0.0022280305,0.0,1,1,1,0,50,50,50,0,1,1,1,0,50,50,50,0
230666964,3407898,3407898,3407890,3407882,0,0.17626761,0.13553306,0.081081994,0.0,3407898,3407898,3407890,3407882,0,0.0021766443,0.0027330937,0.002051483,0.0,1,1,1,0,50,50,50,0,1,1,1,0,50,50,50,0
230866954,3407898,3407898,3407890,3407882,0,0.11331062,0.12748528,0.16347067,0.0,3407898,3407898,3407890,3407882,0,0.0026119591,0.002227459,0.0012885662,0.0,1,1,1,0,50,50,50,0,1,1,1,0,50,50,50,0
231066959,3407898,3407898,3407890,3407882,0,0.059918948,0.26040736,0.27159387,0.0,3407898,3407898,3407890,3407882,0,0.00461924,0.007756388,0.003578496,0.0,1,1,1,0,50,50,50,0,1,1,1,0,50,50,50,0
231266957,3407898,3407898,3407890,3407882,0,0.07043039,0.10722257,0.06960761,0.0,3407898,3407898,3407890,3407882,0,0.0015822316,0.002450466,0.0019781282,0.0,1,1,1,0,50,50,50,0,1,1,1,0,50,50,50,0
231466958,3407898,3407898,3407890,3407882,0,0.14170568,0.12524517,0.0773906,0.0,3407898,3407898,3407890,3407882,0,0.0066364855,0.006494727,0.001816311,0.0,1,1,1,0,50,50,50,0,1,1,1,0,50,50,50,0
231666937,3407898,3407898,3407890,3407882,0,0.15717888,0.14346798,0.08367372,0.0,3407898,3407898,3407890,3407882,0,0.0011937798,0.0029437467,0.0021810362,0.0,1,1,1,0,50,50,50,0,1,1,1,0,50,50,50,0
231866941,3407898,3407898,3407890,3407882,0,0.08069474,0.08303729,0.050410762,0.0,3407898,3407898,3407890,3407882,0,0.002226393,0.0024430403,0.0010496264,0.0,1,1,1,0,50,50,50,0,1,1,1,0,50,50,50,0
232066962,3407898,3407898,3407890,3407882,0,0.045734454,0.055149354,0.020814506,0.0,3407898,3407898,3407890,3407882,0,0.0018780197,0.0019163499,0.0014502307,0.0,1,1,1,0,50,50,50,0,1,1,1,0,50,50,50,0
232266949,3407898,3407898,3407890,3407882,0,0.14486848,0.2053787,0.16472515,0.0,3407898,3407898,3407890,3407882,0,0.0015507669,0.0019657766,0.002461212,0.0,1,1,1,0,50,50,50,0,1,1,1,0,50,50,50,0
232466959,3407898,3407898,3407890,3407882,0,0.10647756,0.031207638,0.093373105,0.0,3407898,3407898,3407890,3407882,0,0.0035979769,0.0036729518,0.001752857,0.0,1,1,1,0,50,50,50,0,1,1,1,0,50,50,50,0
232666955,3407898,3407898,3407890,3407882,0,0.09350852,0.1077383,0.08359511,0.0,3407898,3407898,3407890,3407882,0,0.003119723,0.0034033437,0.0021560458,0.0,1,1,1,0,50,50,50,0,1,1,1,0,50,50,50,0
232866957,3407898,3407898,3407890,3407882,0,0.06787517,0.07228577,0.058636542,0.0,3407898,3407898,3407890,3407882,0,0.00037122722,0.0014663063,0.0012199458,0.0,1,1,1,0,50,50,50,0,1,1,1,0,50,50,50,0
233066959,3407898,3407898,3407890,3407882,0,0.0885038,0.07941577,0.042527527,0.0,3407898,3407898,3407890,3407882,0,0.0031269193,0.002602688,0.002621265,0.0,1,1,1,0,50,50,50,0,1,1,1,0,50,50,50,0
233266956,3407898,3407898,3407890,3407882,0,0.061689638,0.051721837,0.02947585,0.0,3407898,3407898,3407890,3407882,0,0.002323662,0.00277883,0.00087988534,0.0,1,1,1,0,50,50,50,0,1,1,1,0,50,50,50,0
233466960,3407898,3407898,3407890,3407882,0,0.08103965,0.045730274,0.088655226,0.0,3407898,3407898,3407890,3407882,0,0.002131525,0.0010132235,0.002274162,0.0,1,1,1,0,50,50,50,0,1,1,1,0,50,50,50,0
233666938,3407898,3407898,3407890,3407882,0,0.113092914,0.08181211,0.0646257,0.0,3407898,3407898,3407890,3407882,0,0.004765732,0.005741814,0.0024007082,0.0,1,1,1,0,50,50,50,0,1,1,1,0,50,50,50,0
233866937,3407898,3407898,3407890,3407882,0,0.101465024,0.18033585,0.1405052,0.0,3407898,3407898,3407890,3407882,0,0.005038073,0.008410827,0.0038936136,0.0,1,1,1,0,50,50,50,0,1,1,1,0,50,50,50,0
234266957,3407898,3407898,3407890,3407882,0,0.08005212,0.022993889,0.058641274,0.0,3407898,3407898,3407890,3407882,0,0.0042393515,0.0036420191,0.0015983116,0.0,1,1,1,0,50,50,50,0,1,1,1,0,50,50,50,0
234866954,3407898,3407898,3407890,3407882,0,0.086405,0.11112815,0.055855896,0.0,3407898,3407898,3407890,3407882,0,0.004348921,0.004773016,0.00084486976,0.0,1,1,1,0,50,50,50,0,1,1,1,0,50,50,50,0
235066959,3407898,3407898,3407890,3407882,0,0.04435287,0.13871211,0.1803993,0.0,3407898,3407898,3407890,3407882,0,0.0036014847,0.002505449,0.0015412035,0.0,1,1,1,0,50,50,50,0,1,1,1,0,50,50,50,0
235266956,3407898,3407898,3407890,3407882,0,0.08563279,0.06854847,0.0977179,0.0,3407898,3407898,3407890,3407882,0,0.0033544803,0.004743841,0.0030304622,0.0,1,1,1,0,50,50,50,0,1,1,1,0,50,50,50,0
235466955,3407898,3407898,3407890,3407882,0,0.09931075,0.08043876,0.07839818,0.0,3407898,3407898,3407890,3407882,0,0.0044087437,0.0034078904,0.0013141354,0.0,1,1,1,0,50,50,50,0,1,1,1,0,50,50,50,0
235666939,3407898,3407898,3407890,3407882,0,0.05005596,0.033565704,0.079459436,0.0,3407898,3407898,3407890,3407882,0,0.004220095,0.003730842,0.0014906428,0.0,1,1,1,0,50,50,50,0,1,1,1,0,50,50,50,0
235866939,3407898,3407898,3407890,3407882,0,0.15537824,0.090191655,0.082046926,0.0,3407898,3407898,3407890,3407882,0,0.005698193,0.0043999394,0.0014968466,0.0,1,1,1,0,50,50,50,0,1,1,1,0,50,50,50,0
236066940,3407898,3407898,3407890,3407882,0,0.07994147,0.12404217,0.13844736,0.0,3407898,3407898,3407890,3407882,0,0.0011372245,0.0020390786,0.0011044893,0.0,1,1,1,0,50,50,50,0,1,1,1,0,50,50,50,0
236266941,3407898,3407898,3407890,3407882,0,0.12015454,0.06557442,0.07379668,0.0,3407898,3407898,3407890,3407882,0,0.001117575,0.0023205858,0.0021613298,0.0,1,1,1,0,50,50,50,0,1,1,1,0,50,50,50,0
236466958,3407898,3407898,3407890,3407882,0,0.08490922,0.059620183,0.109050006,0.0,3407898,3407898,3407890,3407882,0,0.0048031993,0.005203506,0.0017444453,0.0,1,1,1,0,50,50,50,0,1,1,1,0,50,50,50,0
236666954,3407898,3407898,3407890,3407882,0,0.115577005,0.10696078,0.15515116,0.0,3407898,3407898,3407890,3407882,0,0.0025728715,0.004068905,0.0028678814,0.0,1,1,1,0,50,50,50,0,1,1,1,0,50,50,50,0
236866989,3407898,3407898,3407890,3407882,0,0.09707948,0.11663255,0.044023447,0.0,3407898,3407898,3407890,3407882,0,0.0035488692,0.0048069647,0.0015149907,0.0,1,1,1,0,50,50,50,0,1,1,1,0,50,50,50,0
237066959,3407898,3407898,3407890,3407882,0,0.084880896,0.08343282,0.120663024,0.0,3407898,3407898,3407890,3407882,0,0.001554185,0.0020577456,0.0021657194,0.0,1,1,1,0,50,50,50,0,1,1,1,0,50,50,50,0
237266954,3407898,3407898,3407890,3407882,0,0.099112265,0.07456977,0.07708083,0.0,3407898,3407898,3407890,3407882,0,0.0011677705,0.0013090986,0.001670536,0.0,1,1,1,0,50,50,50,0,1,1,1,0,50,50,50,0
237466960,3407898,3407898,3407890,3407882,0,0.11530137,0.13290462,0.14621367,0.0,3407898,3407898,3407890,3407882,0,0.0031216547,0.0015991022,0.0017333033,0.0,1,1,1,0,50,50,50,0,1,1,1,0,50,50,50,0
237866939,3407898,3407898,3407890,3407882,0,0.15972558,0.14461339,0.049790993,0.0,3407898,3407898,3407890,3407882,0,0.0014793086,0.0023698604,0.0013938907,0.0,1,1,1,0,50,50,50,0,1,1,1,0,50,50,50,0
238066959,3407898,3407898,3407890,3407882,0,0.112290256,0.12614797,0.06651149,0.0,3407898,3407898,3407890,3407882,0,0.0020491797,0.0024732267,0.0016620655,0.0,1,1,1,0,50,50,50,0,1,1,1,0,50,50,50,0
238266957,3407898,3407898,3407890,3407882,0,0.046436116,0.17216653,0.13373291,0.0,3407898,3407898,3407890,3407882,0,0.00095397636,0.0017873744,0.002029504,0.0,1,1,1,0,50,50,50,0,1,1,1,0,50,50,50,0
238466957,3407898,3407898,3407890,3407882,0,0.06711255,0.14981386,0.17953765,0.0,3407898,3407898,3407890,3407882,0,0.0023473885,0.0018589242,0.0011843495,0.0,1,1,1,0,50,50,50,0,1,1,1,0,50,50,50,0
238666957,3407898,3407898,3407890,3407882,0,0.10163751,0.10540608,0.13225691,0.0,3407898,3407898,3407890,3407882,0,0.0049698018,0.0066401362,0.002774375,0.0,1,1,1,0,50,50,50,0,1,1,1,0,50,50,50,0
238866957,3407898,3407898,3407890,3407882,0,0.034171347,0.12373771,0.10550432,0.0,3407898,3407898,3407890,3407882,0,0.0025008568,0.0033081758,0.0009795738,0.0,1,1,1,0,50,50,50,0,1,1,1,0,50,50,50,0
239066958,3407898,3407898,3407890,3407882,0,0.04235855,0.0438302,0.07307968,0.0,3407898,3407898,3407890,3407882,0,0.0012270698,0.0033909795,0.0033051807,0.0,1,1,1,0,50,50,50,0,1,1,1,0,50,50,50,0
239266959,3407898,3407898,3407890,3407882,0,0.14208247,0.16922978,0.22250512,0.0,3407898,3407898,3407890,3407882,0,0.019214189,0.022122739,0.0029827377,0.0,1,1,1,0,50,50,50,0,1,1,1,0,50,50,50,0
239466961,3407898,3407898,3407890,3407882,0,0.051724046,0.09103403,0.0910567,0.0,3407898,3407898,3407890,3407882,0,0.009155753,0.012027484,0.0032534648,0.0,1,1,1,0,50,50,50,0,1,1,1,0,50,50,50,0
239666939,3407898,3407898,3407890,3407882,0,0.06151183,0.07907982,0.10984443,0.0,3407898,3407898,3407890,3407882,0,0.0061299745,0.007816866,0.0019510018,0.0,1,1,1,0,50,50,50,0,1,1,1,0,50,50,50,0
239866938,3407898,3407898,3407890,3407882,0,0.11055885,0.13100336,0.085924394,0.0,3407898,3407898,3407890,3407882,0,0.0023132411,0.0034799387,0.0023398404,0.0,1,1,1,0,50,50,50,0,1,1,1,0,50,50,50,0
240066954,3407898,3407898,3407890,3407882,0,0.04354618,0.14090064,0.15793759,0.0,3407898,3407898,3407890,3407882,0,0.0013727001,0.0016099691,0.0017942312,0.0,1,1,1,0,50,50,50,0,1,1,1,0,50,50,50,0
240266938,3407898,3407898,3407890,3407882,0,0.0725,0.030134086,0.06940362,0.0,3407898,3407898,3407890,3407882,0,0.002285879,0.002188529,0.003898828,0.0,1,1,1,0,50,50,50,0,1,1,1,0,50,50,50,0
240466940,3407898,3407898,3407890,3407882,0,0.12312485,0.05946143,0.13817775,0.0,3407898,3407898,3407890,3407882,0,0.0032260378,0.0015831272,0.00312696,0.0,1,1,1,0,50,50,50,0,1,1,1,0,50,50,50,0
240666985,3407898,3407898,3407890,3407882,0,0.09976699,0.07349085,0.07692635,0.0,3407898,3407898,3407890,3407882,0,0.0014688676,0.0024735688,0.0018804158,0.0,1,1,1,0,50,50,50,0,1,1,1,0,50,50,50,0
240866955,3407898,3407898,3407890,3407882,0,0.14239104,0.09915336,0.07247234,0.0,3407898,3407898,3407890,3407882,0,0.0031063962,0.0034524598,0.00157889,0.0,1,1,1,0,50,50,50,0,1,1,1,0,50,50,50,0
241066958,3407898,3407898,3407890,3407882,0,0.091598645,0.09820346,0.07842947,0.0,3407898,3407898,3407890,3407882,0,0.002124901,0.0027389028,0.00230042,0.0,1,1,1,0,50,50,50,0,1,1,1,0,50,50,50,0
241266960,3407898,3407898,3407890,3407882,0,0.10438116,0.13401467,0.1626204,0.0,3407898,3407898,3407890,3407882,0,0.0035709268,0.002874538,0.0013799084,0.0,1,1,1,0,50,50,50,0,1,1,1,0,50,50,50,0
241466955,3407898,3407898,3407890,3407882,0,0.123319305,0.08388791,0.09076275,0.0,3407898,3407898,3407890,3407882,0,0.0032055331,0.0028570567,0.0010494156,0.0,1,1,1,0,50,50,50,0,1,1,1,0,50,50,50,0
241666937,3407898,3407898,3407890,3407882,0,0.055310912,0.12950446,0.10430916,0.0,3407898,3407898,3407890,3407882,0,0.0005417594,0.0017469327,0.0012599018,0.0,1,1,1,0,50,50,50,0,1,1,1,0,50,50,50,0
241866960,3407898,3407898,3407890,3407882,0,0.12450435,0.10604208,0.031840988,0.0,3407898,3407898,3407890,3407882,0,0.0034559637,0.0036029173,0.0010073647,0.0,1,1,1,0,50,50,50,0,1,1,1,0,50,50,50,0
242066962,3407898,3407898,3407890,3407882,0,0.091484606,0.07059894,0.108952634,0.0,3407898,3407898,3407890,3407882,0,0.0005566793,0.00086352235,0.0006888952,0.0,1,1,1,0,50,50,50,0,1,1,1,0,50,50,50,0
242266939,3407898,3407898,3407890,3407882,0,0.05533595,0.12149695,0.08863429,0.0,3407898,3407898,3407890,3407882,0,0.0018448884,0.00052298215,0.0014274339,0.0,1,1,1,0,50,50,50,0,1,1,1,0,50,50,50,0
242666960,3407898,3407898,3407890,3407882,0,0.0912317,0.033257164,0.06111307,0.0,3407898,3407898,3407890,3407882,0,0.0029065243,0.0024884655,0.0011093083,0.0,1,1,1,0,50,50,50,0,1,1,1,0,50,50,50,0
242866956,3407898,3407898,3407890,3407882,0,0.053561438,0.16397002,0.14169866,0.0,3407898,3407898,3407890,3407882,0,0.0012104666,0.0028689697,0.0022444907,0.0,1,1,1,0,50,50,50,0,1,1,1,0,50,50,50,0
243066994,3407898,3407898,3407890,3407882,0,0.06458507,0.04870546,0.06956684,0.0,3407898,3407898,3407890,3407882,0,0.0019134396,0.0018964035,0.0013361543,0.0,1,1,1,0,50,50,50,0,1,1,1,0,50,50,50,0
243266956,3407898,3407898,3407890,3407882,0,0.08827428,0.076124474,0.11349626,0.0,3407898,3407898,3407890,3407882,0,0.0055701775,0.0074970555,0.007221052,0.0,1,1,1,0,50,50,50,0,1,1,1,0,50,50,50,0
243466976,3407898,3407898,3407890,3407882,0,0.10696914,0.1360892,0.16477847,0.0,3407898,3407898,3407890,3407882,0,0.008162804,0.011183828,0.0039042218,0.0,1,1,1,0,50,50,50,0,1,1,1,0,50,50,50,0
243666960,3407898,3407898,3407890,3407882,0,0.07462166,0.07964806,0.059487388,0.0,3407898,3407898,3407890,3407882,0,0.0017274166,0.0021845864,0.0010895899,0.0,1,1,1,0,50,50,50,0,1,1,1,0,50,50,50,0
243866938,3407898,3407898,3407890,3407882,0,0.11315905,0.18407026,0.13394809,0.0,3407898,3407898,3407890,3407882,0,0.0042030844,0.0037448155,0.003542687,0.0,1,1,1,0,50,50,50,0,1,1,1,0,50,50,50,0
244066940,3407898,3407898,3407890,3407882,0,0.085746355,0.116119385,0.2017305,0.0,3407898,3407898,3407890,3407882,0,0.0021417588,0.004191161,0.0027513865,0.0,1,1,1,0,50,50,50,0,1,1,1,0,50,50,50,0
244266960,3407898,3407898,3407890,3407882,0,0.16347648,0.08060773,0.08873591,0.0,3407898,3407898,3407890,3407882,0,0.004099682,0.0027379186,0.0021448112,0.0,1,1,1,0,50,50,50,0,1,1,1,0,50,50,50,0
244466939,3407898,3407898,3407890,3407882,0,0.11421438,0.09995403,0.08757091,0.0,3407898,3407898,3407890,3407882,0,0.0027961794,0.0020211309,0.0023861695,0.0,1,1,1,0,50,50,50,0,1,1,1,0,50,50,50,0
244666955,3407898,3407898,3407890,3407882,0,0.05230789,0.123482116,0.14233583,0.0,3407898,3407898,3407890,3407882,0,0.0010275343,0.0066395374,0.0059052426,0.0,1,1,1,0,50,50,50,0,1,1,1,0,50,50,50,0
244866985,3407898,3407898,3407890,3407882,0,0.07791913,0.0616304,0.06029346,0.0,3407898,3407898,3407890,3407882,0,0.0006547099,0.0016777519,0.002298511,0.0,1,1,1,0,50,50,50,0,1,1,1,0,50,50,50,0
245066960,3407898,3407898,3407890,3407882,0,0.06996481,0.04471275,0.05781314,0.0,3407898,3407898,3407890,3407882,0,0.0031182112,0.0018259487,0.0015720347,0.0,1,1,1,0,50,50,50,0,1,1,1,0,50,50,50,0
245266953,3407898,3407898,3407890,3407882,0,0.10443278,0.07801232,0.16237642,0.0,3407898,3407898,3407890,3407882,0,0.0022223657,0.0015904572,0.003671569,0.0,1,1,1,0,50,50,50,0,1,1,1,0,50,50,50,0
245666956,3407898,3407898,3407890,3407882,0,0.07154514,0.18031453,0.1158779,0.0,3407898,3407898,3407890,3407882,0,0.0020091895,0.0027563572,0.0024694644,0.0,1,1,1,0,50,50,50,0,1,1,1,0,50,50,50,0
245866937,3407898,3407898,3407890,3407882,0,0.1128493,0.11929681,0.06344118,0.0,3407898,3407898,3407890,3407882,0,0.0027981496,0.004798675,0.0039635007,0.0,1,1,1,0,50,50,50,0,1,1,1,0,50,50,50,0
246066959,3407898,3407898,3407890,3407882,0,0.11368454,0.19121918,0.17846027,0.0,3407898,3407898,3407890,3407882,0,0.0017874195,0.0014219597,0.0015035154,0.0,1,1,1,0,50,50,50,0,1,1,1,0,50,50,50,0
246266938,3407898,3407898,3407890,3407882,0,0.073261045,0.034011744,0.050793923,0.0,3407898,3407898,3407890,3407882,0,0.00196318,0.0008947008,0.0015401567,0.0,1,1,1,0,50,50,50,0,1,1,1,0,50,50,50,0
246466941,3407898,3407898,3407890,3407882,0,0.05514806,0.040606063,0.03720426,0.0,3407898,3407898,3407890,3407882,0,0.0012262309,0.0019377144,0.0013396665,0.0,1,1,1,0,50,50,50,0,1,1,1,0,50,50,50,0
246666959,3407898,3407898,3407890,3407882,0,0.047852,0.06253266,0.027156686,0.0,3407898,3407898,3407890,3407882,0,0.003963301,0.0058236644,0.0026158313,0.0,1,1,1,0,50,50,50,0,1,1,1,0,50,50,50,0
246866953,3407898,3407898,3407890,3407882,0,0.1119044,0.13990663,0.059528515,0.0,3407898,3407898,3407890,3407882,0,0.011059296,0.014467797,0.003968058,0.0,1,1,1,0,50,50,50,0,1,1,1,0,50,50,50,0
247066961,3407898,3407898,3407890,3407882,0,0.06800239,0.04252077,0.051066577,0.0,3407898,3407898,3407890,3407882,0,0.0025452047,0.003387127,0.0026575383,0.0,1,1,1,0,50,50,50,0,1,1,1,0,50,50,50,0
247466952,3407898,3407898,3407890,3407882,0,0.07931634,0.06394064,0.072380126,0.0,3407898,3407898,3407890,3407882,0,0.0017342714,0.002283034,0.0015679877,0.0,1,1,1,0,50,50,50,0,1,1,1,0,50,50,50,0
247666955,3407898,3407898,3407890,3407882,0,0.049383994,0.054429017,0.07478976,0.0,3407898,3407898,3407890,3407882,0,0.0017781609,0.0017142569,0.0007431658,0.0,1,1,1,0,50,50,50,0,1,1,1,0,50,50,50,0
247866940,3407898,3407898,3407890,3407882,0,0.068293296,0.07264326,0.090176135,0.0,3407898,3407898,3407890,3407882,0,0.0011510786,0.0010624714,0.001291144,0.0,1,1,1,0,50,50,50,0,1,1,1,0,50,50,50,0
248066950,3407898,3407898,3407890,3407882,0,0.086283416,0.054231986,0.0803266,0.0,3407898,3407898,3407890,3407882,0,0.00185177,0.0014760989,0.0009432274,0.0,1,1,1,0,50,50,50,0,1,1,1,0,50,50,50,0
248266967,3407898,3407898,3407890,3407882,0,0.09054276,0.07680272,0.09594046,0.0,3407898,3407898,3407890,3407882,0,0.0017029712,0.0020769627,0.0018607985,0.0,1,1,1,0,50,50,50,0,1,1,1,0,50,50,50,0
248466937,3407898,3407898,3407890,3407882,0,0.018260099,0.07737416,0.08630588,0.0,3407898,3407898,3407890,3407882,0,0.0010908553,0.0010246366,0.0015064378,0.0,1,1,1,0,50,50,50,0,1,1,1,0,50,50,50,0
248666939,3407898,3407898,3407890,3407882,0,0.063996986,0.068588994,0.017532527,0.0,3407898,3407898,3407890,3407882,0,0.0020306867,0.0030842975,0.0025471495,0.0,1,1,1,0,50,50,50,0,1,1,1,0,50,50,50,0
248866979,3407898,3407898,3407890,3407882,0,0.10739914,0.07527837,0.05564133,0.0,3407898,3407898,3407890,3407882,0,0.0016357013,0.0016796668,0.0008825181,0.0,1,1,1,0,50,50,50,0,1,1,1,0,50,50,50,0
249266955,3407898,3407898,3407890,3407882,0,0.11415213,0.1254187,0.077654645,0.0,3407898,3407898,3407890,3407882,0,0.0018513001,0.0021515912,0.0013968981,0.0,1,1,1,0,50,50,50,0,1,1,1,0,50,50,50,0
249466955,3407898,3407898,3407890,3407882,0,0.04714301,0.05313922,0.037439417,0.0,3407898,3407898,3407890,3407882,0,0.0022577106,0.0029353844,0.0016731251,0.0,1,1,1,0,50,50,50,0,1,1,1,0,50,50,50,0
249666962,3407898,3407898,3407890,3407882,0,0.06842291,0.10881375,0.091861084,0.0,3407898,3407898,3407890,3407882,0,0.0018486717,0.0010425751,0.0013122904,0.0,1,1,1,0,50,50,50,0,1,1,1,0,50,50,50,0
249866939,3407898,3407898,3407890,3407882,0,0.0984529,0.058675162,0.061232552,0.0,3407898,3407898,3407890,3407882,0,0.004161778,0.0038203758,0.002121622,0.0,1,1,1,0,50,50,50,0,1,1,1,0,50,50,50,0
250066961,3407898,3407898,3407890,3407882,0,0.08715134,0.13811381,0.061846714,0.0,3407898,3407898,3407890,3407882,0,0.0025630526,0.003282234,0.0020484936,0.0,1,1,1,0,50,50,50,0,1,1,1,0,50,50,50,0
250266939,3407898,3407898,3407890,3407882,0,0.099183105,0.081386596,0.038379822,0.0,3407898,3407898,3407890,3407882,0,0.001075532,0.0020433764,0.0017607127,0.0,1,1,1,0,50,50,50,0,1,1,1,0,50,50,50,0
250466938,3407898,3407898,3407890,3407882,0,0.07301458,0.17375904,0.10863446,0.0,3407898,3407898,3407890,3407882,0,0.0024022933,0.0032520308,0.001486766,0.0,1,1,1,0,50,50,50,0,1,1,1,0,50,50,50,0
250666938,3407898,3407898,3407890,3407882,0,0.13814858,0.12941954,0.029959705,0.0,3407898,3407898,3407890,3407882,0,0.0014207229,0.0019862612,0.0016733103,0.0,1,1,1,0,50,50,50,0,1,1,1,0,50,50,50,0
250866961,3407898,3407898,3407890,3407882,0,0.08346532,0.058821946,0.08386263,0.0,3407898,3407898,3407890,3407882,0,0.001740061,0.003124815,0.0019272548,0.0,1,1,1,0,50,50,50,0,1,1,1,0,50,50,50,0
251066959,3407898,3407898,3407890,3407882,0,0.030497614,0.19197792,0.18146268,0.0,3407898,3407898,3407890,3407882,0,0.0010418348,0.002449963,0.0015352332,0.0,1,1,1,0,50,50,50,0,1,1,1,0,50,50,50,0
251267013,3407898,3407898,3407890,3407882,0,0.08672901,0.06467634,0.0633686,0.0,3407898,3407898,3407890,3407882,0,0.0020611512,0.0022125745,0.0012343237,0.0,1,1,1,0,50,50,50,0,1,1,1,0,50,50,50,0
251466956,3407898,3407898,3407890,3407882,0,0.14090228,0.10004516,0.092655584,0.0,3407898,3407898,3407890,3407882,0,0.0020399445,0.0023175492,0.004015869,0.0,1,1,1,0,50,50,50,0,1,1,1,0,50,50,50,0
251666964,3407898,3407898,3407890,3407882,0,0.1443615,0.2657084,0.16721667,0.0,3407898,3407898,3407890,3407882,0,0.0020140652,0.0016064515,0.002086176,0.0,1,1,1,0,50,50,50,0,1,1,1,0,50,50,50,0
251866958,3407898,3407898,3407890,3407882,0,0.077827334,0.081602216,0.12723267,0.0,3407898,3407898,3407890,3407882,0,0.0029713546,0.0020391627,0.0011729463,0.0,1,1,1,0,50,50,50,0,1,1,1,0,50,50,50,0
252066947,3407898,3407898,3407890,3407882,0,0.15804699,0.060042173,0.114130564,0.0,3407898,3407898,3407890,3407882,0,0.0030052203,0.0022179682,0.003208929,0.0,1,1,1,0,50,50,50,0,1,1,1,0,50,50,50,0
252266958,3407898,3407898,3407890,3407882,0,0.09491139,0.1002138,0.14194353,0.0,3407898,3407898,3407890,3407882,0,0.0010466751,0.005355734,0.004808736,0.0,1,1,1,0,50,50,50,0,1,1,1,0,50,50,50,0
252466960,3407898,3407898,3407890,3407882,0,0.05506278,0.18256335,0.19501053,0.0,3407898,3407898,3407890,3407882,0,0.0019960178,0.0011497961,0.0011092784,0.0,1,1,1,0,50,50,50,0,1,1,1,0,50,50,50,0
252666939,3407898,3407898,3407890,3407882,0,0.12851673,0.11623877,0.20174253,0.0,3407898,3407898,3407890,3407882,0,0.002699985,0.0017051147,0.00326312,0.0,1,1,1,0,50,50,50,0,1,1,1,0,50,50,50,0
252866953,3407898,3407898,3407890,3407882,0,0.06893531,0.15458012,0.09712624,0.0,3407898,3407898,3407890,3407882,0,0.002834137,0.005112213,0.0026968413,0.0,1,1,1,0,50,50,50,0,1,1,1,0,50,50,50,0
253066957,3407898,3407898,3407890,3407882,0,0.061179742,0.08670291,0.044744365,0.0,3407898,3407898,3407890,3407882,0,0.007105161,0.009424094,0.0025258213,0.0,1,1,1,0,50,50,50,0,1,1,1,0,50,50,50,0
253266956,3407898,3407898,3407890,3407882,0,0.0813272,0.10276731,0.13042407,0.0,3407898,3407898,3407890,3407882,0,0.007463898,0.009369931,0.0019581872,0.0,1,1,1,0,50,50,50,0,1,1,1,0,50,50,50,0
253466954,3407898,3407898,3407890,3407882,0,0.13409226,0.08678448,0.054099802,0.0,3407898,3407898,3407890,3407882,0,0.0038269695,0.003756013,0.0010838136,0.0,1,1,1,0,50,50,50,0,1,1,1,0,50,50,50,0
253666961,3407898,3407898,3407890,3407882,0,0.0677693,0.07623432,0.10712296,0.0,3407898,3407898,3407890,3407882,0,0.0022715535,0.0042137415,0.0024970556,0.0,1,1,1,0,50,50,50,0,1,1,1,0,50,50,50,0
253866939,3407898,3407898,3407890,3407882,0,0.10445889,0.09071993,0.023005683,0.0,3407898,3407898,3407890,3407882,0,0.00203086,0.003269484,0.0025391316,0.0,1,1,1,0,50,50,50,0,1,1,1,0,50,50,50,0
254066945,3407898,3407898,3407890,3407882,0,0.04527479,0.08235666,0.090276055,0.0,3407898,3407898,3407890,3407882,0,0.0014711475,0.0036369883,0.0026454173,0.0,1,1,1,0,50,50,50,0,1,1,1,0,50,50,50,0
254266938,3407898,3407898,3407890,3407882,0,0.11914112,0.073983125,0.115689844,0.0,3407898,3407898,3407890,3407882,0,0.0011744845,0.0020611896,0.000984515,0.0,1,1,1,0,50,50,50,0,1,1,1,0,50,50,50,0
254466939,3407898,3407898,3407890,3407882,0,0.1635313,0.24854252,0.38161972,0.0,3407898,3407898,3407890,3407882,0,0.0024328043,0.0031251332,0.0046562557,0.0,1,1,1,0,50,50,50,0,1,1,1,0,50,50,50,0
254666956,3407898,3407898,3407890,3407882,0,0.07316328,0.15990752,0.16278352,0.0,3407898,3407898,3407890,3407882,0,0.00063013064,0.0029550008,0.0035552727,0.0,1,1,1,0,50,50,50,0,1,1,1,0,50,50,50,0
254866959,3407898,3407898,3407890,3407882,0,0.05270582,0.27226004,0.28476328,0.0,3407898,3407898,3407890,3407882,0,0.0028527514,0.0015708344,0.0013956721,0.0,1,1,1,0,50,50,50,0,1,1,1,0,50,50,50,0
255066978,3407898,3407898,3407890,3407882,0,0.08956134,0.125684,0.11620178,0.0,3407898,3407898,3407890,3407882,0,0.001955747,0.0005836638,0.0017986837,0.0,1,1,1,0,50,50,50,0,1,1,1,0,50,50,50,0
255266954,3407898,3407898,3407890,3407882,0,0.10412868,0.07046763,0.13073775,0.0,3407898,3407898,3407890,3407882,0,0.0016758782,0.0018863855,0.0022091593,0.0,1,1,1,0,50,50,50,0,1,1,1,0,50,50,50,0
255466992,3407898,3407898,3407890,3407882,0,0.16690378,0.073782705,0.11671126,0.0,3407898,3407898,3407890,3407882,0,0.0025647024,0.0029208465,0.0023236552,0.0,1,1,1,0,50,50,50,0,1,1,1,0,50,50,50,0
255666956,3407898,3407898,3407890,3407882,0,0.19072628,0.056604445,0.156514,0.0,3407898,3407898,3407890,3407882,0,0.0024182317,0.0014451129,0.0031928325,0.0,1,1,1,0,50,50,50,0,1,1,1,0,50,50,50,0
255866940,3407898,3407898,3407890,3407882,0,0.081585966,0.09546624,0.111220464,0.0,3407898,3407898,3407890,3407882,0,0.0019660378,0.0020150428,0.0038471627,0.0,1,1,1,0,50,50,50,0,1,1,1,0,50,50,50,0
256066937,3407898,3407898,3407890,3407882,0,0.118794166,0.19574447,0.1294521,0.0,3407898,3407898,3407890,3407882,0,0.0021809554,0.0028953522,0.0011013494,0.0,1,1,1,0,50,50,50,0,1,1,1,0,50,50,50,0
256266938,3407898,3407898,3407890,3407882,0,0.050942313,0.064867646,0.11101421,0.0,3407898,3407898,3407890,3407882,0,0.0012458394,0.0018009973,0.002923676,0.0,1,1,1,0,50,50,50,0,1,1,1,0,50,50,50,0
256466938,3407898,3407898,3407890,3407882,0,0.13283612,0.19559972,0.10296093,0.0,3407898,3407898,3407890,3407882,0,0.003660973,0.003643396,0.0018192476,0.0,1,1,1,0,50,50,50,0,1,1,1,0,50,50,50,0
257266953,3407898,3407898,3407890,3407882,0,0.038606457,0.043208778,0.067978986,0.0,3407898,3407898,3407890,3407882,0,0.0017269173,0.0056811795,0.004878254,0.0,1,1,1,0,50,50,50,0,1,1,1,0,50,50,50,0
257466961,3407898,3407898,3407890,3407882,0,0.11123619,0.06967371,0.04332299,0.0,3407898,3407898,3407890,3407882,0,0.0028290183,0.0047663185,0.0031559314,0.0,1,1,1,0,50,50,50,0,1,1,1,0,50,50,50,0
257666954,3407898,3407898,3407890,3407882,0,0.026509948,0.22689404,0.21615934,0.0,3407898,3407898,3407890,3407882,0,0.0016086176,0.002206145,0.0021680412,0.0,1,1,1,0,50,50,50,0,1,1,1,0,50,50,50,0
257866960,3407898,3407898,3407890,3407882,0,0.15653239,0.1523437,0.11734153,0.0,3407898,3407898,3407890,3407882,0,0.005175516,0.005608706,0.0010359376,0.0,1,1,1,0,50,50,50,0,1,1,1,0,50,50,50,0
258066942,3407898,3407898,3407890,3407882,0,0.088120714,0.24839376,0.19815867,0.0,3407898,3407898,3407890,3407882,0,0.002166644,0.002875205,0.0024298243,0.0,1,1,1,0,50,50,50,0,1,1,1,0,50,50,50,0
258266957,3407898,3407898,3407890,3407882,0,0.15376174,0.07146129,0.21105914,0.0,3407898,3407898,3407890,3407882,0,0.0027401338,0.0031474973,0.0018525582,0.0,1,1,1,0,50,50,50,0,1,1,1,0,50,50,50,0
258466958,3407898,3407898,3407890,3407882,0,0.14160602,0.15864155,0.11798337,0.0,3407898,3407898,3407890,3407882,0,0.0021672011,0.0033789591,0.0039344504,0.0,1,1,1,0,50,50,50,0,1,1,1,0,50,50,50,0
258666946,3407898,3407898,3407890,3407882,0,0.0848225,0.100893244,0.022189178,0.0,3407898,3407898,3407890,3407882,0,0.0021828522,0.0042264457,0.0031258657,0.0,1,1,1,0,50,50,50,0,1,1,1,0,50,50,50,0
258866955,3407898,3407898,3407890,3407882,0,0.11285928,0.063934006,0.075843394,0.0,3407898,3407898,3407890,3407882,0,0.0015398016,0.0024632397,0.0018072776,0.0,1,1,1,0,50,50,50,0,1,1,1,0,50,50,50,0
259066958,3407898,3407898,3407890,3407882,0,0.06961567,0.12902224,0.060398024,0.0,3407898,3407898,3407890,3407882,0,0.00095221854,0.003051997,0.0021035338,0.0,1,1,1,0,50,50,50,0,1,1,1,0,50,50,50,0
259266955,3407898,3407898,3407890,3407882,0,0.08647883,0.038601935,0.107125044,0.0,3407898,3407898,3407890,3407882,0,0.0018572959,0.0018531573,0.00049506925,0.0,1,1,1,0,50,50,50,0,1,1,1,0,50,50,50,0
259466957,3407898,3407898,3407890,3407882,0,0.0844519,0.13151386,0.073697686,0.0,3407898,3407898,3407890,3407882,0,0.0020120793,0.0037349167,0.002538333,0.0,1,1,1,0,50,50,50,0,1,1,1,0,50,50,50,0
259666953,3407898,3407898,3407890,3407882,0,0.0986754,0.09892358,0.0353705,0.0,3407898,3407898,3407890,3407882,0,0.0035125036,0.00544588,0.002369133,0.0,1,1,1,0,50,50,50,0,1,1,1,0,50,50,50,0
259866938,3407898,3407898,3407890,3407882,0,0.11288881,0.108666584,0.15556234,0.0,3407898,3407898,3407890,3407882,0,0.0029262146,0.0027748805,0.002512484,0.0,1,1,1,0,50,50,50,0,1,1,1,0,50,50,50,0
260066952,3407898,3407898,3407890,3407882,0,0.021519814,0.04328118,0.04385175,0.0,3407898,3407898,3407890,3407882,0,0.0023991745,0.0044469363,0.0034044108,0.0,1,1,1,0,50,50,50,0,1,1,1,0,50,50,50,0
260266960,3407898,3407898,3407890,3407882,0,0.10661374,0.070573926,0.10702417,0.0,3407898,3407898,3407890,3407882,0,0.0014760962,0.0027980416,0.0016460837,0.0,1,1,1,0,50,50,50,0,1,1,1,0,50,50,50,0
260466939,3407898,3407898,3407890,3407882,0,0.09551178,0.029885028,0.09686201,0.0,3407898,3407898,3407890,3407882,0,0.0016363739,0.0024739804,0.0026650678,0.0,1,1,1,0,50,50,50,0,1,1,1,0,50,50,50,0
260666957,3407898,3407898,3407890,3407882,0,0.08401886,0.07092119,0.13583732,0.0,3407898,3407898,3407890,3407882,0,0.0012402933,0.00127821,0.002439899,0.0,1,1,1,0,50,50,50,0,1,1,1,0,50,50,50,0
260866970,3407898,3407898,3407890,3407882,0,0.07889248,0.118541405,0.069795445,0.0,3407898,3407898,3407890,3407882,0,0.0015796667,0.0015681513,0.00151184,0.0,1,1,1,0,50,50,50,0,1,1,1,0,50,50,50,0
261066978,3407898,3407898,3407890,3407882,0,0.12871964,0.11651972,0.072247535,0.0,3407898,3407898,3407890,3407882,0,0.0013093299,0.0023231779,0.0017536683,0.0,1,1,1,0,50,50,50,0,1,1,1,0,50,50,50,0
261266957,3407898,3407898,3407890,3407882,0,0.07260258,0.11576347,0.1172321,0.0,3407898,3407898,3407890,3407882,0,0.0015094108,0.0024317151,0.001164238,0.0,1,1,1,0,50,50,50,0,1,1,1,0,50,50,50,0
261866980,3407898,3407898,3407890,3407882,0,0.11494209,0.17721802,0.103682876,0.0,3407898,3407898,3407890,3407882,0,0.002119783,0.0027710064,0.0020185898,0.0,1,1,1,0,50,50,50,0,1,1,1,0,50,50,50,0
262066941,3407898,3407898,3407890,3407882,0,0.044954386,0.09329248,0.09534876,0.0,3407898,3407898,3407890,3407882,0,0.0044864663,0.005631845,0.0022887343,0.0,1,1,1,0,50,50,50,0,1,1,1,0,50,50,50,0
262266957,3407898,3407898,3407890,3407882,0,0.054992866,0.13774914,0.08886964,0.0,3407898,3407898,3407890,3407882,0,0.0017297321,0.0015042983,0.0012003175,0.0,1,1,1,0,50,50,50,0,1,1,1,0,50,50,50,0
262466940,3407898,3407898,3407890,3407882,0,0.18042293,0.2371315,0.28096232,0.0,3407898,3407898,3407890,3407882,0,0.0042509222,0.0013176951,0.003195058,0.0,1,1,1,0,50,50,50,0,1,1,1,0,50,50,50,0
262666940,3407898,3407898,3407890,3407882,0,0.1603458,0.1345044,0.0683322,0.0,3407898,3407898,3407890,3407882,0,0.0017815448,0.0018605315,0.0018405039,0.0,1,1,1,0,50,50,50,0,1,1,1,0,50,50,50,0
262866958,3407898,3407898,3407890,3407882,0,0.07079873,0.13161841,0.094394945,0.0,3407898,3407898,3407890,3407882,0,0.0010372553,0.0011786374,0.0014492554,0.0,1,1,1,0,50,50,50,0,1,1,1,0,50,50,50,0
263066959,3407898,3407898,3407890,3407882,0,0.08177513,0.11237149,0.08658554,0.0,3407898,3407898,3407890,3407882,0,0.0025302772,0.0023312478,0.0027924133,0.0,1,1,1,0,50,50,50,0,1,1,1,0,50,50,50,0
263266983,3407898,3407898,3407890,3407882,0,0.14639385,0.08612196,0.16679099,0.0,3407898,3407898,3407890,3407882,0,0.0019324215,0.0018764267,0.0019627071,0.0,1,1,1,0,50,50,50,0,1,1,1,0,50,50,50,0
263466955,3407898,3407898,3407890,3407882,0,0.16839206,0.114306204,0.14906335,0.0,3407898,3407898,3407890,3407882,0,0.0031050686,0.0046189846,0.002780867,0.0,1,1,1,0,50,50,50,0,1,1,1,0,50,50,50,0
263666961,3407898,3407898,3407890,3407882,0,0.19895758,0.1470349,0.25647205,0.0,3407898,3407898,3407890,3407882,0,0.0026960245,0.0013594895,0.0037463587,0.0,1,1,1,0,50,50,50,0,1,1,1,0,50,50,50,0
263866959,3407898,3407898,3407890,3407882,0,0.10111428,0.04145961,0.08756447,0.0,3407898,3407898,3407890,3407882,0,0.0018587488,0.0010796187,0.002492928,0.0,1,1,1,0,50,50,50,0,1,1,1,0,50,50,50,0
