timestamp,accel_device_id,gyro_device_id,accel_clipping[0],accel_clipping[1],accel_clipping[2],gyro_clipping[0],gyro_clipping[1],gyro_clipping[2],accel_error_count,gyro_error_count,accel_rate_hz,gyro_rate_hz,accel_raw_rate_hz,gyro_raw_rate_hz,accel_vibration_metric,gyro_vibration_metric,delta_angle_coning_metric,mean_accel[0],mean_accel[1],mean_accel[2],mean_gyro[0],mean_gyro[1],mean_gyro[2],var_accel[0],var_accel[1],var_accel[2],var_gyro[0],var_gyro[1],var_gyro[2],temperature_accel,temperature_gyro
200961948,3407898,3407898,0,0,0,0,0,0,0,0,800.0,800.0,6416.4565,6416.4565,0.32699153,0.0052666636,2.0044023e-10,-0.13538712,0.28573596,-9.968456,-0.012625686,-0.0015864498,0.0003848132,4.2215314,1.5875672,1.6442922,0.0011113888,0.0003652084,0.00016644385,22.56016,22.56016
202001914,3407898,3407898,0,0,0,0,0,0,0,0,800.0,800.0,6416.4785,6416.4785,0.42720106,0.0070298663,2.235685e-10,-0.13280977,0.2670353,-9.940105,-0.01264497,-0.0012890932,0.00059399253,6.218221,0.7912229,1.6493684,0.00065833074,0.00056746043,0.000113227,22.559277,22.559277
202941942,3407898,3407898,0,0,0,0,0,0,0,0,800.0,800.0,6416.4746,6416.4746,0.45551804,0.008068979,2.9201838e-10,-0.15849182,0.32987824,-9.963445,-0.013781439,-0.0012675944,6.536636e-05,4.9702353,1.078543,1.6506821,0.0010973531,0.00052530575,0.00018430703,22.555094,22.555094
203986916,3407898,3407898,0,0,0,0,0,0,0,0,800.0,800.0,6416.4697,6416.4697,0.7586093,0.011649137,1.058129e-09,-0.11669257,0.33567464,-9.964052,-0.013090993,-0.001338775,0.0013045212,15.4078865,29.386883,1.9727083,0.0029153093,0.000698904,0.0005313572,22.56312,22.56312
204921938,3407898,3407898,0,0,0,0,0,0,0,0,800.0,800.0,6416.5073,6416.5073,3.4376807,0.05193201,6.039162e-09,-0.28544044,0.18943888,-9.98342,-0.01051491,-0.0023579507,0.00014656327,26.75093,19.5442,39.81353,0.0110984035,0.011652206,0.0016011246,22.581831,22.581831
205966917,3407898,3407898,0,0,0,0,0,0,0,0,800.0,800.0,6416.5645,6416.5645,3.899903,0.06109153,5.084348e-08,-0.08628942,0.08167209,-10.239427,-0.22149898,-0.12592551,0.12650229,126.69145,55.705105,69.58941,0.059019867,0.040314153,0.008960337,22.578571,22.578571
207001949,3407898,3407898,0,0,0,0,0,0,0,0,800.0,800.0,6416.605,6416.605,4.9581985,0.07668364,3.858308e-08,-0.018626481,0.0392097,-10.340166,0.06364445,0.07307995,0.04777043,93.77226,36.339558,78.98158,0.023648072,0.026158974,0.0057888725,22.559736,22.559736
207941913,3407898,3407898,0,0,0,0,0,0,0,0,800.0,800.0,6416.612,6416.612,3.788541,0.06183842,5.017171e-08,-0.17492247,-0.095964275,-10.158861,0.072384626,-0.022856064,-0.16898003,55.750275,29.74676,43.3212,0.017525803,0.011845745,0.004639138,22.578783,22.578783
208981949,3407898,3407898,0,0,0,0,0,0,0,0,800.0,800.0,6416.6055,6416.6055,4.41801,0.07607062,3.881801e-08,-0.0717482,-0.04505012,-10.114113,0.008650407,-0.1318068,0.04143367,75.90475,45.9193,62.414036,0.019178906,0.020388404,0.0033540104,22.600624,22.600624
209926914,3407898,3407898,0,0,0,0,0,0,0,0,800.0,800.0,6416.6084,6416.6084,3.9445987,0.06509311,4.8753705e-08,-0.27546805,-0.11048689,-10.209206,-0.04663969,0.09104929,0.14904116,94.47933,65.65125,58.845997,0.023120841,0.028771995,0.013144976,22.598602,22.598602
211906913,3407898,3407898,0,0,0,0,0,0,0,0,800.0,800.0,6416.636,6416.636,4.612413,0.07478661,5.4096308e-08,-0.31847763,-0.01452221,-8.407649,-0.07384129,-0.05261484,-0.07923297,146.68904,56.8311,53.02634,0.06752248,0.036735494,0.005539073,22.57676,22.57676
212951941,3407898,3407898,0,0,0,0,0,0,0,0,800.0,800.0,6416.674,6416.674,5.502158,0.07932093,5.962621e-08,-0.5347303,-0.028083608,-10.151597,-0.065025784,0.057193298,-0.019664593,501.32797,151.55377,216.01385,0.12632607,0.1202669,0.014205618,22.582348,22.582348
213996924,3407898,3407898,0,0,0,0,0,0,0,0,799.99994,799.99994,6416.68,6416.68,4.348797,0.0711805,2.9619795e-08,-0.41370484,0.041639306,-10.0644455,0.015538899,-0.08817692,0.036248364,178.65749,57.810673,79.579926,0.051765796,0.058688454,0.005076421,22.597689,22.597689
214941938,3407898,3407898,0,0,0,0,0,0,0,0,800.0,800.0,6416.675,6416.675,4.524045,0.068112426,3.6614992e-08,-0.36199093,0.53404415,-9.998108,0.0044329413,0.052366953,-0.020115858,328.47955,98.108604,118.04358,0.09089776,0.06492255,0.0072402786,22.5834,22.5834
215986919,3407898,3407898,0,0,0,0,0,0,0,0,800.0,800.0,6416.696,6416.696,5.712882,0.081428014,1.245051e-07,-0.7891454,-0.15252686,-10.004897,-0.08786876,-0.28197634,-0.12169253,989.99854,144.147,235.5351,0.08195417,0.14427663,0.012281551,22.603924,22.603924
216911945,3407898,3407898,0,0,0,0,0,0,0,0,800.0,800.0,6416.682,6416.682,6.6251154,0.092548504,1.7946341e-07,-0.99700856,0.3473863,-10.104548,0.033311795,0.45915604,0.020104768,973.9676,309.18842,262.1,0.15955192,0.13739957,0.030526439,22.605585,22.605585
217951924,3407898,3407898,0,0,0,0,0,0,0,0,800.0,800.0,6416.6865,6416.6865,7.451584,0.11685866,2.962088e-07,-1.0604151,0.17371595,-10.197505,0.08059588,-0.7679983,0.023567436,1184.785,336.33057,376.30026,0.20228724,0.12780395,0.031212134,22.58687,22.58687
218986952,3407898,3407898,0,0,0,0,0,0,0,0,800.0,800.0,6416.7217,6416.7217,7.255117,0.11653422,1.07471486e-07,-0.26413903,0.48527727,-9.958273,-0.048375215,-0.15536591,-0.069550246,896.13116,388.31186,297.32877,0.18897383,0.15703407,0.033992644,22.60413,22.60413
219921913,3407898,3407898,0,0,0,0,0,0,0,0,800.0,800.0,6416.744,6416.744,7.0618167,0.10198907,9.169606e-08,-0.6661486,0.032406684,-9.614152,-0.08613196,-0.14351673,-0.0115032,889.5836,250.255,304.37888,0.17744465,0.18356463,0.021075834,22.578964,22.578964
220966950,3407898,3407898,0,0,0,0,0,0,0,0,800.0,800.0,6416.772,6416.772,7.3072557,0.103327245,9.7528705e-08,-0.91441077,0.05852165,-9.985736,-0.017120292,0.12142099,0.015516586,777.0023,236.26613,270.85724,0.15753178,0.16137183,0.02059154,22.59508,22.59508
222001912,3407898,3407898,0,0,0,0,0,0,0,0,800.0,800.0,6416.787,6416.787,5.9101667,0.091183044,8.8991754e-08,-1.1925813,0.21474963,-10.23947,0.13737279,-0.11383178,0.07100889,396.85342,158.87727,208.21112,0.15094084,0.07631989,0.015773712,22.604984,22.604984
222931957,3407898,3407898,0,0,0,0,0,0,0,0,800.0,800.0,6416.789,6416.789,4.5417647,0.07054287,3.1155334e-08,-0.21647598,-0.047125887,-10.161989,-0.09919815,0.028853381,-0.049118478,87.86105,35.033283,78.80537,0.03413165,0.031498965,0.0033915734,22.58452,22.58452
223976914,3407898,3407898,0,0,0,0,0,0,0,0,800.0,800.0,6416.77,6416.77,4.338754,0.06540884,5.4700482e-08,-0.37148374,0.0028342977,-9.945166,-0.13637464,-0.08125122,-0.073372014,105.86158,64.13644,107.633736,0.039804954,0.031714834,0.006340023,22.581367,22.581367
224906952,3407898,3407898,0,0,0,0,0,0,0,0,800.0,800.0,6416.7617,6416.7617,3.7769072,0.05863044,2.569553e-08,-0.4897664,-0.13046566,-9.796125,0.061412692,-0.064222865,-0.05716918,130.9951,27.659641,92.146545,0.022323316,0.044993963,0.006797722,22.602745,22.602745
225946917,3407898,3407898,0,0,0,0,0,0,0,0,800.0,800.0,6416.7627,6416.7627,3.8280387,0.06409128,2.7027891e-08,-0.51669693,-0.15624663,-10.2899885,0.09486894,0.059829984,-0.018937452,125.5234,42.642796,78.46277,0.04319946,0.06523283,0.007282851,22.59686,22.59686
226991965,3407898,3407898,0,0,0,0,0,0,0,0,800.0,800.0,6416.787,6416.787,4.2327733,0.07528509,4.610186e-08,-0.4933536,-0.22762015,-10.105623,-0.0103254765,0.12613505,-0.08968646,179.17726,46.737484,76.504326,0.032458887,0.0627921,0.008127026,22.596712,22.596712
227931926,3407898,3407898,0,0,0,0,0,0,0,0,800.0,800.0,6416.807,6416.807,4.2929254,0.078323,3.721772e-08,-0.5409858,-0.3244411,-9.951354,0.074102804,-0.0035322874,0.08194566,170.36502,79.946045,88.993614,0.063027516,0.05218932,0.006212813,22.603672,22.603672
228971932,3407898,3407898,0,0,0,0,0,0,0,0,800.0,800.0,6416.8135,6416.8135,4.1547623,0.07166784,6.734769e-08,-0.13751158,-0.29510614,-9.978702,0.0014785379,0.052218303,-0.14115296,193.62282,49.366787,113.912834,0.07520066,0.06126962,0.009796426,22.582932,22.582932
230001914,3407898,3407898,0,0,0,0,0,0,0,0,800.0,800.0,6416.811,6416.811,4.2745743,0.07618269,3.963404e-08,-0.5284257,-0.18062685,-9.8106,-0.05235762,0.038301073,-0.06165672,72.25415,68.80142,93.10843,0.08447136,0.026425654,0.012315517,22.586588,22.586588
230931938,3407898,3407898,0,0,0,0,0,0,0,0,800.0,800.0,6416.809,6416.809,4.451768,0.074363776,9.718811e-08,-0.77659273,-0.08411541,-8.949157,0.091838814,0.11952301,0.030091595,308.92035,66.76226,177.17752,0.056572855,0.16004764,0.00369043,22.564709,22.564709
231976916,3407898,3407898,0,0,0,0,0,0,0,0,800.0,800.0,6416.8164,6416.8164,3.9105134,0.06747959,4.9894513e-08,-0.49049878,0.094314426,-10.069204,-0.09954947,0.031113567,-0.002405413,220.53052,65.448494,124.74385,0.07859722,0.08170398,0.010406961,22.583754,22.583754
232906954,3407898,3407898,0,0,0,0,0,0,0,0,800.0,800.0,6416.8135,6416.8135,3.903917,0.066302955,4.304045e-08,-0.6138012,-0.0068882667,-9.703665,-0.09248092,0.073577784,-0.07499857,156.11012,47.536938,100.88965,0.034985516,0.064545624,0.004654614,22.603163,22.603163
234976930,3407898,3407898,0,0,0,0,0,0,0,0,800.0,800.0,6416.86,6416.86,4.0521917,0.06811274,9.143366e-08,0.035040587,0.08331321,-10.457918,-0.07362603,-0.19326043,-0.0067651975,151.68892,59.9266,133.75468,0.062181637,0.13043906,0.007728805,22.562296,22.562296
235916918,3407898,3407898,0,0,0,0,0,0,0,0,800.0,800.0,6416.86,6416.86,3.9565148,0.07312241,1.4460149e-07,-0.12716389,0.08513602,-9.346421,0.08704671,0.49508032,0.14561978,129.76846,61.24,45.050755,0.04063072,0.11612149,0.006397763,22.540806,22.540806
236946939,3407898,3407898,0,0,0,0,0,0,0,0,800.0,800.0,6416.864,6416.864,4.4765434,0.07660184,1.0339722e-07,0.15099083,0.018654376,-10.093046,0.025397237,0.045047075,0.014768137,160.38515,73.642715,104.02517,0.08656873,0.2033176,0.011831534,22.543983,22.543983
237986914,3407898,3407898,0,0,0,0,0,0,0,0,800.0,800.0,6416.871,6416.871,3.7481046,0.06423415,4.3514735e-08,-0.21915436,0.04944857,-10.110953,-0.098386236,-0.059245445,0.031107537,167.69707,88.53707,112.23542,0.064373456,0.048456956,0.0082662385,22.53881,22.53881
238921932,3407898,3407898,0,0,0,0,0,0,0,0,800.0,800.0,6416.8667,6416.8667,3.7687657,0.06431637,8.8612325e-08,-0.2737018,-0.34316704,-9.695539,0.080932364,-0.02157,-0.06442348,135.55644,78.15728,70.8454,0.10840654,0.06446635,0.006181483,22.539433,22.539433
239961950,3407898,3407898,0,0,0,0,0,0,0,0,800.0,800.0,6416.8906,6416.8906,3.7906723,0.06658813,1.2857399e-07,-0.29467207,-0.326343,-10.725029,-0.35764608,-0.088447586,-0.047933992,131.87625,42.316216,137.69943,0.048387043,0.078540795,0.0061356802,22.56575,22.56575
240996932,3407898,3407898,0,0,0,0,0,0,0,0,800.0,800.0,6416.903,6416.903,3.2924745,0.05771841,4.1774904e-08,-0.050084263,-0.26205674,-10.152738,-0.15750007,-0.046805598,0.026420914,139.15053,47.79847,114.43226,0.056750737,0.04876174,0.004539067,22.551273,22.551273
241926913,3407898,3407898,0,0,0,0,0,0,0,0,800.0,800.0,6416.9106,6416.9106,3.3357434,0.058495745,2.2921705e-08,-0.2967472,0.0156127885,-10.163322,-0.08041471,0.020074619,0.030782638,134.3403,52.97251,112.32468,0.028821185,0.042633135,0.008603326,22.551296,22.551296
242961941,3407898,3407898,0,0,0,0,0,0,0,0,800.0,800.0,6416.9014,6416.9014,3.4531984,0.05908006,3.2278173e-08,-0.1563912,0.095979765,-10.126224,0.0123909,0.025135549,-0.05353398,100.6829,59.7937,80.29887,0.05331917,0.04262275,0.0065647145,22.541893,22.541893
243901938,3407898,3407898,0,0,0,0,0,0,0,0,800.0,800.0,6416.9014,6416.9014,4.517579,0.081996426,2.3048715e-07,-0.21360917,0.23719221,-9.943384,0.36729538,0.14740638,0.044267025,483.645,90.40266,259.5212,0.083346196,0.16637188,0.0064163078,22.514053,22.514053
244926943,3407898,3407898,0,0,0,0,0,0,0,0,800.0,800.0,6416.927,6416.927,4.698093,0.07559262,4.8703274e-08,-0.90083855,0.28108755,-9.989381,0.075155646,-0.0045256084,0.021217886,334.02023,88.71841,147.52425,0.08062184,0.11495785,0.012781296,22.518612,22.518612
245966918,3407898,3407898,0,0,0,0,0,0,0,0,800.0,800.0,6416.95,6416.95,4.2158294,0.065406896,3.8440067e-08,-0.24306607,0.16808659,-9.983094,-0.08409578,-0.014561458,-0.008179157,203.04802,52.05033,107.25682,0.032555122,0.091849156,0.009821814,22.519619,22.519619
246901957,3407898,3407898,0,0,0,0,0,0,0,0,800.0,800.0,6417.337,6417.337,4.308766,0.081468955,1.7148902e-07,0.086243585,-0.2645186,-10.150181,-0.55837107,-0.19442223,-0.06490043,133.78986,33.155796,95.10071,0.0690597,0.055782076,0.0024594178,22.50112,22.50112
247951917,3407898,3407898,0,0,0,0,0,0,0,0,800.0,800.0,6416.5293,6416.5293,3.0625248,0.055844784,2.4612758e-08,-0.2784654,-0.23624974,-10.459678,-0.10100174,-0.046424255,-0.019638253,97.03407,44.394184,78.97027,0.027702864,0.042869702,0.0027017903,22.506168,22.506168
248996931,3407898,3407898,0,0,0,0,0,0,0,0,800.0,800.0,6417.4155,6417.4155,3.100101,0.055223625,1.5660751e-08,-0.23730862,0.027976234,-10.175533,0.018034734,0.0147355925,0.06312866,35.625168,19.390013,31.02269,0.013363521,0.010226551,0.0034705924,22.496998,22.496998
249931920,3407898,3407898,0,0,0,0,0,0,0,0,800.0,800.0,6417.814,6417.814,3.5312624,0.054604493,2.8277345e-08,-0.36821097,0.057159405,-10.150532,0.014285204,0.09303936,-0.01802575,100.80011,53.98699,73.088394,0.03547716,0.032956343,0.008638513,22.499975,22.499975
250971961,3407898,3407898,0,0,0,0,0,0,0,0,800.0,800.0,6417.6196,6417.6196,3.9378266,0.05513962,1.9236897e-08,-0.41887724,0.17951524,-9.593455,0.03053601,-0.0014251233,0.005616252,203.73361,38.68084,118.50639,0.03052557,0.07760183,0.008924033,22.489601,22.489601
251911917,3407898,3407898,0,0,0,0,0,0,0,0,800.0,800.0,6417.441,6417.441,3.8617444,0.06082402,2.5770998e-08,-0.42290986,-0.06516215,-9.839587,0.027473548,-0.0056557986,0.011260031,241.48503,78.52156,163.3919,0.057502665,0.06057839,0.015032139,22.471972,22.471972
252941931,3407898,3407898,0,0,0,0,0,0,0,0,800.0,800.0,6417.3984,6417.3984,4.179636,0.06417603,2.9969396e-08,-0.5574442,-0.1966325,-10.100267,-0.021964354,0.031520363,0.016593985,230.75249,65.58437,130.00511,0.07451303,0.08519903,0.009338369,22.488756,22.488756
253976920,3407898,3407898,0,0,0,0,0,0,0,0,800.0,800.0,6417.6694,6417.6694,4.628657,0.06631338,7.2376686e-08,-0.6648139,-0.019311264,-10.071501,-0.2387259,-0.0650157,0.04848631,203.92496,103.346344,177.57025,0.08836478,0.042915024,0.0104302475,22.46735,22.46735
254916938,3407898,3407898,0,0,0,0,0,0,0,0,800.0,800.0,6417.583,6417.583,4.6523666,0.06965641,4.0346325e-08,-0.7784958,0.027134396,-10.613828,0.069798216,0.013545561,-0.030224282,436.14264,144.03673,226.61911,0.10988285,0.08168922,0.021964254,22.463905,22.463905
255956928,3407898,3407898,0,0,0,0,0,0,0,0,800.0,800.0,6417.4707,6417.4707,5.9344845,0.091595866,5.3016226e-08,-0.88960737,0.038428605,-10.442386,0.11284373,0.021998672,-0.006534102,279.5307,144.76317,214.03581,0.17608538,0.089213245,0.017023409,22.461483,22.461483
257936917,3407898,3407898,0,0,0,0,0,0,0,0,800.0,800.0,6417.6465,6417.6465,5.3931937,0.08560805,1.8476196e-07,-0.4066515,0.3808028,-12.545235,0.4356512,0.28191847,6.8848254e-05,1047.9595,223.68796,344.57474,0.0710261,0.093164906,0.07341993,22.45638,22.45638
258976955,3407898,3407898,0,0,0,0,0,0,0,0,800.0,800.0,6417.572,6417.572,4.2237587,0.06915762,4.9181065e-08,-0.54847854,0.08703661,-9.832554,-0.14587949,0.013492502,-0.032141823,175.88055,71.702034,92.148506,0.09308243,0.046123743,0.009819362,22.446016,22.446016
259916916,3407898,3407898,0,0,0,0,0,0,0,0,800.0,800.0,6417.5327,6417.5327,4.022455,0.06415198,3.179116e-08,-0.49478814,0.1382089,-9.8497505,-0.010252141,-0.067679346,0.015118982,329.45087,42.953125,204.50258,0.06085788,0.10349399,0.0054456983,22.438578,22.438578
260961939,3407898,3407898,0,0,0,0,0,0,0,0,800.0,800.0,6417.62,6417.62,4.779,0.07556581,7.6018225e-08,-0.16088665,0.35587755,-9.54153,-0.19564196,0.13714384,0.010898865,216.41019,80.027985,120.45026,0.105627075,0.084234245,0.01299041,22.434961,22.434961
261996914,3407898,3407898,0,0,0,0,0,0,0,0,800.0,800.0,6417.581,6417.581,4.1326885,0.07244951,3.204795e-08,-0.16539642,0.2231135,-9.921413,0.047486816,-0.04922098,0.0038847106,114.060684,59.442787,131.90886,0.056399677,0.0737504,0.008738516,22.439072,22.439072
262931946,3407898,3407898,0,0,0,0,0,0,0,0,800.00006,800.00006,6417.537,6417.537,4.196505,0.07039349,3.059903e-08,-0.38076198,0.25458506,-10.22574,-0.0677097,0.0546294,0.026989192,91.36814,108.819374,158.62471,0.10854142,0.03260653,0.007196927,22.407122,22.407122
263976920,3407898,3407898,0,0,0,0,0,0,0,0,800.0,800.0,6417.569,6417.569,4.880665,0.076775275,3.755719e-08,-0.57703567,0.23173322,-9.902943,0.038501635,-0.008957046,-0.05245122,267.54727,118.294754,149.81723,0.06545783,0.097575046,0.01253954,22.411581,22.411581
264906924,3407898,3407898,0,0,0,0,0,0,0,0,800.0,800.0,6417.534,6417.534,4.6631236,0.07732369,4.0103913e-08,-0.49970934,0.1206333,-9.528683,0.020269137,0.0126820095,0.020647367,166.51201,97.998535,171.30807,0.12911536,0.07098697,0.011874647,22.40885,22.40885
265946921,3407898,3407898,0,0,0,0,0,0,0,0,799.99994,799.99994,6417.4756,6417.4756,4.576685,0.07586359,5.971168e-08,-0.38540065,0.1415657,-9.788194,-0.010286756,0.17918846,0.0177318,302.80057,123.20903,175.59149,0.091779806,0.07844873,0.017444173,22.37624,22.37624
266981928,3407898,3407898,0,0,0,0,0,0,0,0,800.0,800.0,6417.4844,6417.4844,4.520915,0.0759051,3.11983e-08,-0.8481624,0.1654114,-10.216859,0.022806525,0.0015759699,-0.0041754115,188.33867,45.13013,121.514946,0.102156825,0.08532275,0.0062059364,22.40591,22.40591
267911946,3407898,3407898,0,0,0,0,0,0,0,0,799.9994,799.9994,6417.4517,6417.4517,3.603571,0.061296497,3.746396e-08,-0.25622854,0.27637008,-10.002946,-0.0014653946,-0.09598924,0.00922042,109.96316,54.054787,91.8474,0.05962511,0.05327936,0.0044038827,22.379848,22.379848
268956917,3407898,3407898,0,0,0,0,0,0,0,0,800.0,800.0,6417.4404,6417.4404,4.004907,0.06996033,2.7531576e-07,0.05815646,-0.033905752,-10.246789,-0.24472149,1.0190033,0.19461168,275.97287,120.558365,193.03061,0.07166721,0.13608898,0.016300095,22.385593,22.385593
269991930,3407898,3407898,0,0,0,0,0,0,0,0,800.0,800.0,6417.506,6417.506,3.817353,0.06526522,2.7892085e-07,0.06485713,0.118651204,-10.160628,-0.059483767,-0.07584596,0.9401281,74.76648,29.974699,51.00797,0.045168545,0.029857488,0.0095877135,22.396994,22.396994
270931919,3407898,3407898,0,0,0,0,0,0,0,0,800.0,800.0,6417.467,6417.467,3.8264475,0.065881774,3.5731907e-07,0.033267707,0.09760236,-10.228817,-0.051618353,-0.026270475,1.052471,70.0847,36.4002,57.102936,0.03146089,0.05549764,0.006297761,22.372671,22.372671
271966936,3407898,3407898,0,0,0,0,0,0,0,0,800.0,800.0,6417.468,6417.468,3.8166156,0.0642902,5.295498e-07,0.21929592,-0.060622267,-9.826026,-0.03000688,-0.008070944,0.92955726,174.66685,62.60593,96.10314,0.04937057,0.14723276,0.0041338946,22.377205,22.377205
272906913,3407898,3407898,0,0,0,0,0,0,0,0,800.0,800.0,6417.4756,6417.4756,3.905023,0.058840137,3.9642853e-07,0.21198836,-0.29670903,-9.827072,-0.013520226,-0.021120872,0.99344665,144.00806,61.083096,122.960365,0.056777205,0.07102857,0.006571728,22.36292,22.36292
273941930,3407898,3407898,0,0,0,0,0,0,0,0,800.0,800.0,6417.4365,6417.4365,4.1797886,0.06501406,3.7384586e-07,0.3090753,-0.23843206,-9.772833,-0.009042582,0.01091195,0.9053065,216.00267,103.083015,150.96829,0.035229836,0.06958209,0.009179482,22.359423,22.359423
274981913,3407898,3407898,0,0,0,0,0,0,0,0,800.0,800.0,6417.4927,6417.4927,3.4312115,0.058294814,3.6620924e-07,-0.2578901,-0.12991568,-9.982918,-0.041947376,-0.004257688,1.0565221,63.066723,58.76157,53.930264,0.05735798,0.033384636,0.004930362,22.360832,22.360832
275911929,3407898,3407898,0,0,0,0,0,0,0,0,800.0,800.0,6417.489,6417.489,3.9326193,0.061000988,4.2091065e-07,-0.6042113,0.06893697,-9.867576,0.032740984,0.02700271,0.90235686,306.32648,59.875546,151.73657,0.10109994,0.10282848,0.006498664,22.333181,22.333181
276961935,3407898,3407898,0,0,0,0,0,0,0,0,800.0,800.0,6417.467,6417.467,4.1953554,0.075181566,5.0580144e-07,0.00047245622,0.13762851,-10.208813,-0.008812765,0.030501392,0.98036134,143.8198,65.24836,76.12183,0.0921171,0.07863173,0.0139194,22.330828,22.330828
277991932,3407898,3407898,0,0,0,0,0,0,0,0,800.0,800.0,6417.473,6417.473,4.971541,0.07944475,2.8199896e-08,0.21208042,0.03069992,-10.219234,0.059279375,0.059758894,0.009133401,178.89926,100.09804,140.72809,0.07847153,0.06600639,0.01160345,22.303207,22.303207
278926917,3407898,3407898,0,0,0,0,0,0,0,0,800.0,800.0,6417.471,6417.471,4.3145957,0.06650474,4.107875e-08,0.13305937,0.18276617,-9.828198,-0.07119686,0.01630129,-0.036620867,174.05682,119.87864,143.3638,0.056776244,0.07170834,0.011716212,22.307297,22.307297
280911918,3407898,3407898,0,0,0,0,0,0,0,0,800.0,800.0,6417.467,6417.467,5.8425136,0.086211726,4.299598e-08,0.13629174,0.3479705,-9.940321,-0.08201145,0.014498826,0.025266668,854.16,100.29981,307.62225,0.05470927,0.12823336,0.014607306,22.29188,22.29188
281956943,3407898,3407898,0,0,0,0,0,0,0,0,800.0,800.0,6417.49,6417.49,5.4865217,0.081821375,3.8790844e-08,0.4043874,0.2384542,-9.888607,-0.012029108,0.046019055,-0.0023561192,769.5532,117.26261,238.7242,0.123094276,0.100588396,0.019705012,22.285013,22.285013
282991921,3407898,3407898,0,0,0,0,0,0,0,0,800.0,800.0,6417.4844,6417.4844,5.568578,0.07945125,3.7094246e-08,0.48086265,0.32363164,-9.873346,0.041103162,-0.034094535,0.011453489,373.6026,146.62927,96.54397,0.09347668,0.09334338,0.01949443,22.277473,22.277473
283921950,3407898,3407898,0,0,0,0,0,0,0,0,800.0,800.0,6417.487,6417.487,8.783424,0.12834397,1.8621716e-06,-0.11772692,1.2736975,-9.531248,-0.08169702,0.3163553,-2.2635992,803.4643,1511.3594,335.34946,0.1304176,0.15541667,0.0890337,22.271507,22.271507
284961942,3407898,3407898,0,0,0,0,0,0,0,0,800.0,800.0,6417.481,6417.481,6.745714,0.105584815,8.407533e-08,-0.9666914,0.14190672,-9.596712,0.08235371,0.033124197,-0.16607039,287.48682,143.02629,158.29156,0.05186367,0.13419229,0.028476236,22.270498,22.270498
286001940,3407898,3407898,0,0,0,0,0,0,0,0,799.99994,799.99994,6417.494,6417.494,6.4343367,0.09932036,8.01418e-08,-1.0247698,0.48907733,-9.957177,-0.02027842,-0.06360941,0.07714442,448.35947,237.41977,182.82326,0.14879665,0.11229587,0.025110971,22.237015,22.237015
286946917,3407898,3407898,0,0,0,0,0,0,0,0,800.0,800.0,6417.5015,6417.5015,6.712006,0.091630965,4.687318e-08,-0.7220153,0.97210276,-9.876573,-0.06023082,0.051056884,0.01676956,728.92944,375.63113,204.06837,0.1206435,0.12456577,0.03492743,22.237206,22.237206
287986932,3407898,3407898,0,0,0,0,0,0,0,0,800.0,800.0,6417.489,6417.489,6.7283583,0.089681916,4.2591093e-08,-0.7359986,0.7030187,-9.969538,-0.0123644555,-0.036783103,-0.04051787,703.67926,306.2138,257.95682,0.1224023,0.093706176,0.02859937,22.212444,22.212444
288926920,3407898,3407898,0,0,0,0,0,0,0,0,800.0,800.0,6417.488,6417.488,5.714667,0.08269431,5.7353283e-08,-0.5128826,0.31872553,-9.7522335,-0.05340717,-0.11140935,-0.062074088,255.30098,165.88748,152.23232,0.08825784,0.07555028,0.010112466,22.197653,22.197653
289961934,3407898,3407898,0,0,0,0,0,0,0,0,800.0,800.0,6417.4976,6417.4976,5.720368,0.08923523,2.5172875e-07,-0.8712536,0.42913842,-10.579895,0.38499743,0.31688318,-0.054788228,280.6945,269.60815,219.53351,0.15737028,0.13297272,0.021073347,22.194506,22.194506
291001914,3407898,3407898,0,0,0,0,0,0,0,0,800.0,800.0,6417.491,6417.491,4.904551,0.07662504,2.8311572e-08,-0.3230314,0.28298616,-9.7732935,-0.016769622,0.06805476,-0.0565802,99.095856,75.33982,117.017845,0.05211393,0.048468508,0.006752858,22.167667,22.167667
291931936,3407898,3407898,0,0,0,0,0,0,0,0,800.0,800.0,6417.499,6417.499,4.1829886,0.071571514,6.797279e-08,-0.38478702,0.34043664,-9.830389,0.08781289,0.08232356,0.0023537958,124.61158,93.410835,171.51628,0.16976863,0.07154296,0.006441486,22.192797,22.192797
292966937,3407898,3407898,0,0,0,0,0,0,0,0,800.0,800.0,6417.4946,6417.4946,5.969324,0.09564081,9.99567e-08,0.22495946,0.21479969,-10.106894,-0.13123316,-0.03716363,0.010602379,418.51608,137.50034,131.2701,0.13942888,0.15220359,0.027771043,22.143444,22.143444
294001930,3407898,3407898,0,0,0,0,0,0,0,0,800.0,800.0,6417.5195,6417.5195,5.313546,0.08779945,4.927166e-08,-0.042961836,0.15999979,-9.838737,-0.026642956,-0.058875065,0.07554448,194.84784,57.351242,158.06699,0.1116517,0.05745109,0.010791901,22.157913,22.157913
294941937,3407898,3407898,0,0,0,0,0,0,0,0,800.0,800.0,6417.503,6417.503,4.838366,0.07140999,4.1733838e-08,-0.23050946,0.12907568,-10.334717,-0.016004674,-0.05116615,0.02347338,137.582,72.305176,128.16222,0.09853743,0.03846618,0.009064348,22.136683,22.136683
295976955,3407898,3407898,0,0,0,0,0,0,0,0,800.0,800.0,6417.508,6417.508,4.210136,0.06849401,1.3354581e-07,-0.30223924,-0.057154387,-10.439845,-0.59973353,-0.05518797,0.0045385864,96.53658,53.148518,103.25514,0.057980526,0.04184578,0.0059367544,22.13817,22.13817
296916927,3407898,3407898,0,0,0,0,0,0,0,0,800.0,800.0,6417.491,6417.491,6.4612484,0.09338434,1.4362978e-07,0.42190665,0.5456891,-10.267914,0.40254858,-0.10682349,-0.0029768806,682.19965,120.33845,257.74866,0.08746913,0.0798154,0.04461674,22.103539,22.103539
298976940,3407898,3407898,0,0,0,0,0,0,0,0,800.0,800.0,6417.51,6417.51,7.8361216,0.102651104,1.0054172e-07,-0.38880748,0.47690022,-9.184565,-0.015885245,0.1132667,-0.0043037515,698.41974,592.2598,365.06625,0.19033873,0.14801075,0.02955097,22.067572,22.067572
300001959,3407898,3407898,0,0,0,0,0,0,0,0,800.0,800.0,6417.501,6417.501,8.21941,0.10463813,1.8812223e-07,-0.65645087,1.0476363,-10.14486,-0.034378316,0.35071608,-0.07174159,1591.6509,628.43695,367.89432,0.12911955,0.21409497,0.081486285,22.0657,22.0657
300941918,3407898,3407898,0,0,0,0,0,0,0,0,800.0,800.0,6417.5034,6417.5034,7.318449,0.09022013,5.4420322e-08,-0.19451568,0.20591335,-9.74065,0.015157689,-0.05341534,0.015372776,1042.4625,244.92467,274.76636,0.1416637,0.24379413,0.012217017,22.05511,22.05511
301971932,3407898,3407898,0,0,0,0,0,0,0,0,800.0,800.0,6417.5034,6417.5034,6.2020164,0.082723305,7.3281925e-08,-0.37913793,0.24679282,-9.236872,0.015184263,-0.0020534694,0.012115781,773.0044,259.5187,174.98303,0.16642006,0.19014655,0.017120512,22.029688,22.029688
302911912,3407898,3407898,0,0,0,0,0,0,0,0,800.0,800.0,6417.482,6417.482,6.42477,0.08330515,8.554428e-08,-0.8188464,0.3386333,-9.417315,0.04826822,-0.0045992592,0.038775645,1303.2837,264.16006,244.14824,0.18643685,0.29409474,0.021373523,22.024645,22.024645
303946935,3407898,3407898,0,0,0,0,0,0,0,0,800.0,800.0,6417.4995,6417.4995,7.868529,0.13045737,1.2123897e-07,-0.64370596,0.4196553,-10.15569,0.13828675,-0.20966996,0.033909637,806.02924,460.9628,283.0344,0.36783695,0.20823462,0.05464903,22.018814,22.018814
304986917,3407898,3407898,0,0,0,0,0,0,0,0,800.0,800.0,6417.491,6417.491,7.2830734,0.11892439,1.5041023e-07,-0.584353,0.2335828,-10.168435,0.234613,-0.16671789,0.06425623,951.9652,447.60074,381.79025,0.25603834,0.18025726,0.033102877,22.002117,22.002117
305926932,3407898,3407898,0,0,0,0,0,0,0,0,800.0,800.0,6417.489,6417.489,6.450008,0.103386834,1.2432452e-07,0.16350403,-0.015179127,-9.742606,-0.27619803,0.08374586,-0.047006108,576.9118,377.76355,212.19247,0.24898167,0.11872682,0.028347908,22.002346,22.002346
306966918,3407898,3407898,0,0,0,0,0,0,0,0,800.0,800.0,6417.4795,6417.4795,7.004303,0.11053487,1.2119794e-07,-0.4527835,0.3089663,-10.473095,-0.10532426,0.021766812,-0.08233703,651.9165,370.08664,356.85135,0.35355115,0.15017715,0.034428157,21.984459,21.984459
308001938,3407898,3407898,0,0,0,0,0,0,0,0,800.0,800.0,6417.475,6417.475,8.461774,0.1506111,1.0045401e-07,-0.26292363,-0.14807644,-9.572446,-0.2263267,0.04942913,0.012836594,518.3951,64.21717,187.85503,0.11271465,0.1741814,0.014291089,21.976091,21.976091
308941925,3407898,3407898,0,0,0,0,0,0,0,0,800.0,800.0,6417.47,6417.47,7.9330773,0.12082297,5.734771e-08,-1.0745869,-0.004498109,-14.187774,-0.10116747,-0.08785101,0.08661245,718.5468,274.38425,126.70188,0.056497056,0.059002254,0.04653034,21.977377,21.977377
309986932,3407898,3407898,0,0,0,0,0,0,0,0,800.0,800.0,6417.475,6417.475,8.975985,0.12767103,1.4879294e-07,-0.4935154,-0.73421645,-10.8477955,-0.3171354,0.21467644,-0.069291815,1293.0198,373.31415,226.87509,0.1579885,0.20201868,0.04670544,21.959116,21.959116
310931919,3407898,3407898,0,0,0,0,0,0,0,0,800.0,800.0,6417.466,6417.466,5.9861903,0.0845383,5.4900177e-08,-0.19864133,-0.20876895,-7.850022,-0.16845158,0.11164137,0.042210374,98.738716,55.483856,51.114285,0.04296035,0.04707714,0.0031157224,21.952604,21.952604
311961938,3407898,3407898,0,0,0,0,0,0,0,0,800.0,800.0,6417.4644,6417.4644,6.559995,0.07015859,1.0441298e-07,-0.37391183,0.19116239,-8.677767,0.3090129,-0.08596846,-0.025860857,213.64696,71.993256,115.93727,0.06286487,0.05676817,0.008916914,21.93026,21.93026
313001914,3407898,3407898,0,0,0,0,0,0,0,0,800.0,800.0,6417.4736,6417.4736,5.5207453,0.08448973,5.549028e-08,-0.4615926,0.8377501,-9.864794,0.10128113,-0.12991561,0.014474022,427.212,162.80971,256.5807,0.090473235,0.13787279,0.019846715,21.918886,21.918886
313936932,3407898,3407898,0,0,0,0,0,0,0,0,800.0,800.0,6417.4844,6417.4844,5.395355,0.08853452,7.358949e-08,-0.46639425,0.86084616,-10.269041,-0.062353507,0.04593662,-0.015838303,450.37396,125.4949,209.68102,0.1574374,0.097108066,0.0163061,21.908289,21.908289
314981913,3407898,3407898,0,0,0,0,0,0,0,0,800.0,800.0,6417.479,6417.479,5.5433836,0.089555316,5.880236e-08,-0.15113717,0.48547658,-9.962413,0.15229414,0.009362547,-0.020345729,244.9889,106.601006,174.92429,0.08533058,0.04916823,0.013418117,21.890676,21.890676
315916942,3407898,3407898,0,0,0,0,0,0,0,0,800.0,800.0,6417.4795,6417.4795,4.8067107,0.083348826,1.0817476e-07,-0.29139096,0.48416522,-9.804178,-0.18279144,-0.040965833,0.04559161,530.4521,91.163826,234.66121,0.09807068,0.15393718,0.014845757,21.863688,21.863688
316956918,3407898,3407898,0,0,0,0,0,0,0,0,800.0,800.0,6417.468,6417.468,5.0130515,0.08628772,5.425541e-08,0.076955736,0.49418744,-9.517896,-0.11566454,0.020394789,0.023905864,256.2177,189.14058,174.77565,0.1037763,0.06135715,0.01702498,21.901575,21.901575
317991936,3407898,3407898,0,0,0,0,0,0,0,0,800.0,800.0,6417.471,6417.471,5.5505123,0.08456038,4.9339423e-08,-0.07394241,0.501362,-9.945825,-0.05962462,0.03223332,-0.003678211,677.912,242.0596,260.36172,0.13938126,0.17120397,0.010468602,21.858635,21.858635
318931931,3407898,3407898,0,0,0,0,0,0,0,0,800.0,800.0,6417.479,6417.479,5.8654222,0.092000075,8.7935156e-08,-0.1698478,0.18619257,-9.930515,0.020766737,0.08215785,-0.07764484,606.4552,207.52406,306.40286,0.23216467,0.14288566,0.022930019,21.818462,21.818462
319961942,3407898,3407898,0,0,0,0,0,0,0,0,800.0,800.0,6417.4736,6417.4736,5.754877,0.094643,8.858782e-08,-0.17864555,0.0795743,-10.181417,0.006677953,0.09532712,0.08041364,753.8817,202.072,239.34837,0.14471391,0.19604206,0.035098847,21.827133,21.827133
320906913,3407898,3407898,0,0,0,0,0,0,0,0,800.0,800.0,6417.4595,6417.4595,8.430789,0.12555279,2.1855807e-07,-0.3952892,0.06586981,-10.492597,0.13579607,0.16055366,0.21288687,2030.5751,535.0693,460.08508,0.2538277,0.20101981,0.09134089,21.818722,21.818722
321941965,3407898,3407898,0,0,0,0,0,0,0,0,800.0,800.0,6417.455,6417.455,8.52919,0.12732854,2.74667e-07,-0.21685144,0.39939618,-10.166428,0.26315668,0.30650544,-0.09083015,762.7971,413.79147,243.6587,0.21174441,0.16651352,0.073205635,21.805744,21.805744
322981914,3407898,3407898,0,0,0,0,0,0,0,0,800.0,800.0,6417.4604,6417.4604,7.3122206,0.11578315,8.172966e-08,-0.57838905,0.36415935,-10.617833,0.08102448,0.01269684,-0.07059814,556.161,208.61365,266.3238,0.19777182,0.15210204,0.030539755,21.789053,21.789053
323906932,3407898,3407898,0,0,0,0,0,0,0,0,800.0,800.0,6417.4663,6417.4663,5.434001,0.086077675,6.786472e-08,-0.30641234,0.3232436,-9.708812,-0.14508888,0.043381244,0.065404855,144.1647,87.98217,140.2925,0.05127202,0.076855734,0.012657268,21.766977,21.766977
324946916,3407898,3407898,0,0,0,0,0,0,0,0,800.0,800.0,6417.464,6417.464,4.1623316,0.063684106,2.9260512e-08,-0.2821071,0.04169952,-9.971646,-0.048919827,-0.025739042,-0.042613782,150.49147,45.740547,108.36082,0.032269295,0.05927539,0.0030957921,21.760107,21.760107
325986930,3407898,3407898,0,0,0,0,0,0,0,0,800.0,800.0,6417.469,6417.469,3.3462589,0.057018813,7.8662964e-08,-0.14917853,-0.10934259,-10.309721,-0.04103545,-0.33710614,-0.015175104,114.67475,62.85656,109.214455,0.054906946,0.047161635,0.007009972,21.75434,21.75434
326921913,3407898,3407898,0,0,0,0,0,0,0,0,800.0,800.0,6417.468,6417.468,3.7639024,0.07004763,1.7969661e-08,-0.57352,-0.108973496,-10.200594,0.028473295,0.025972575,0.008591947,185.19493,70.82488,150.43185,0.062128846,0.05337406,0.009102681,21.724459,21.724459
327961931,3407898,3407898,0,0,0,0,0,0,0,0,800.0,800.0,6417.462,6417.462,4.633594,0.07525095,3.3234965e-08,-0.3009127,-0.23527186,-10.236076,-0.0040232767,-0.015668679,-0.018376336,185.39124,101.84417,124.97507,0.08391519,0.081150115,0.0061295233,21.730303,21.730303
329001914,3407898,3407898,0,0,0,0,0,0,0,0,800.0,800.0,6418.677,6418.677,3.6577911,0.063314945,6.8384146e-08,-0.19796781,-0.22626138,-10.283464,-0.095929064,0.15050371,0.020578386,100.85156,63.596043,102.76546,0.08433172,0.047637198,0.006199027,21.709244,21.709244
329946952,3407898,3407898,0,0,0,0,0,0,0,0,800.0,800.0,6417.635,6417.635,3.5952456,0.06435015,1.462781e-07,-0.48234594,-0.52013594,-10.623196,-0.31845647,0.21385196,-0.07627731,120.64389,45.34214,102.76743,0.087835,0.07518226,0.007108225,21.70427,21.70427
330981914,3407898,3407898,0,0,0,0,0,0,0,0,800.0,800.0,6417.1294,6417.1294,3.69029,0.06729136,1.0260283e-07,-0.038484663,-0.19621375,-9.949358,-0.40055245,0.010868203,-0.0602219,162.68144,101.1009,91.17583,0.07700235,0.055727117,0.013358822,21.684986,21.684986
331926917,3407898,3407898,0,0,0,0,0,0,0,0,800.0,800.0,6417.4004,6417.4004,3.5766213,0.067226015,3.2568636e-08,-0.3716634,-0.29096282,-10.262744,-0.10810888,0.0065806042,0.02353147,112.437225,65.82507,136.02065,0.040518682,0.056404952,0.010429988,21.676805,21.676805
332956935,3407898,3407898,0,0,0,0,0,0,0,0,800.0,800.0,6417.444,6417.444,3.9791474,0.071157366,5.4019896e-08,-0.2124967,-0.0547345,-9.870101,0.081834316,-0.063070215,0.007697177,239.95796,65.81696,131.47714,0.04317747,0.09412893,0.005649576,21.664469,21.664469
333996916,3407898,3407898,0,0,0,0,0,0,0,0,800.0,800.0,6417.578,6417.578,4.0978594,0.074849136,8.100482e-08,-0.41241664,-0.52318776,-9.996473,0.029364996,-0.029810214,0.17176041,140.73396,68.02667,105.64343,0.10605227,0.056612477,0.011595792,21.676073,21.676073
334921936,3407898,3407898,0,0,0,0,0,0,0,0,800.0,800.0,6417.6323,6417.6323,4.1353483,0.07330556,6.720911e-08,-0.3674207,0.27715015,-10.28586,-0.030029375,-0.11536102,-0.024793867,376.51685,93.8385,168.56386,0.12944418,0.08891813,0.015395661,21.650328,21.650328
335961936,3407898,3407898,0,0,0,0,0,0,0,0,800.0,800.0,6417.545,6417.545,4.92045,0.084870346,9.855312e-08,-0.7097574,0.094509035,-9.875089,-0.0043943636,0.23866642,0.08999541,380.56723,99.817535,145.7567,0.09886125,0.10615902,0.0044551166,21.634481,21.634481
336901930,3407898,3407898,0,0,0,0,0,0,0,0,800.0,800.0,6417.4834,6417.4834,5.311737,0.07335769,7.5295e-08,0.102472425,0.45042443,-9.368388,-0.119452484,-0.052014183,0.108979575,283.2305,245.58873,149.93408,0.060449794,0.071471676,0.015736077,21.640377,21.640377
337946916,3407898,3407898,0,0,0,0,0,0,0,0,800.0,800.0,6417.5205,6417.5205,6.1668577,0.0961119,1.6675568e-07,-0.003089577,-3.0019045,-9.837592,0.31325293,-0.24406902,0.35525805,173.52167,125.85724,105.44228,0.028598575,0.04129674,0.009080768,21.609928,21.609928
339906941,3407898,3407898,0,0,0,0,0,0,0,0,800.0,800.0,6417.4644,6417.4644,4.8451304,0.08236706,8.111267e-09,-0.02838832,0.42350262,-9.896717,-0.013876022,0.012615298,0.0007621824,7.666845,7.6253805,38.17429,0.004539048,0.0103808865,0.0005460917,21.58685,21.58685
340931945,3407898,3407898,0,0,0,0,0,0,0,0,800.00006,800.00006,6417.4355,6417.4355,4.6129494,0.07148352,1.0591638e-08,-0.13948408,0.33420247,-9.916363,-0.02184798,-0.011227245,-0.0041509788,55.579395,39.12005,43.919018,0.010503216,0.011483657,0.0036317674,21.571556,21.571556
341961951,3407898,3407898,0,0,0,0,0,0,0,0,800.0,800.0,6417.4883,6417.4883,3.2006874,0.046950646,6.6226153e-09,0.04964272,0.34312114,-9.838948,-0.016172588,-0.0053818496,0.0021239594,3.466897,3.4634554,30.153175,0.001774168,0.007461049,0.00022693221,21.569557,21.569557
342986929,3407898,3407898,0,0,0,0,0,0,0,0,800.0,800.0,6417.4795,6417.4795,2.948948,0.051099077,9.601755e-09,0.027627546,0.38150615,-9.874658,-0.014347361,-0.008308381,0.0012518073,4.4706035,6.535167,41.597443,0.0018459838,0.012002326,0.00028128314,21.564123,21.564123
343916944,3407898,3407898,0,0,0,0,0,0,0,0,800.0,800.0,6417.464,6417.464,3.2881813,0.057830453,5.561472e-09,0.0253228,0.335995,-9.806309,-0.0139958635,-0.0008763855,0.0012780848,2.8354447,3.5309186,27.538885,0.0015963668,0.007447692,0.00018301979,21.55688,21.55688
344951940,3407898,3407898,0,0,0,0,0,0,0,0,800.0,800.0,6417.42,6417.42,5.451195,0.07459605,1.3250863e-08,0.24376343,0.22941294,-9.87753,-0.022255147,-0.007923425,0.0019469319,45.33181,27.99794,53.060593,0.008667756,0.019084878,0.002349998,21.550695,21.550695
345996937,3407898,3407898,0,0,0,0,0,0,0,0,800.0,800.0,6417.445,6417.445,5.063162,0.07894831,2.6345086e-08,0.28652474,0.0407068,-10.083781,0.020403765,0.049044725,-0.014490561,54.621643,24.036396,110.28774,0.016053727,0.034613702,0.0029527426,21.544895,21.544895
346921948,3407898,3407898,0,0,0,0,0,0,0,0,800.0,800.0,6417.414,6417.414,5.602203,0.07971487,2.4480302e-08,0.306601,0.25245875,-10.088909,-0.013854857,0.0038733748,-0.0047950987,38.671764,19.711327,110.968285,0.013132817,0.031753827,0.0023012022,21.517506,21.517506
347961937,3407898,3407898,0,0,0,0,0,0,0,0,800.0,800.0,6417.373,6417.373,2.8123307,0.06820682,2.4154517e-08,0.087787695,0.26564208,-9.965754,-0.0114304405,-0.007473842,0.006084115,7.039059,11.975619,17.975851,0.005000353,0.014439105,0.002167164,21.513597,21.513597
348991937,3407898,3407898,0,0,0,0,0,0,0,0,800.0,800.0,6417.4,6417.4,2.4646776,0.05232578,5.6030807e-09,0.075772375,0.281027,-9.901465,-0.010306398,-0.0058069555,-0.0015250158,4.037163,4.245265,24.746664,0.0026190162,0.0070712003,0.0004369083,21.48931,21.48931
349921911,3407898,3407898,0,0,0,0,0,0,0,0,800.0,800.0,6417.4097,6417.4097,1.7193362,0.033995677,5.4577622e-09,0.122284494,0.27019405,-9.871105,-0.014542682,-0.0050001945,0.0029969146,3.4706104,5.395749,12.031163,0.0032020689,0.0033951954,0.00040628738,21.493288,21.493288
350956937,3407898,3407898,0,0,0,0,0,0,0,0,800.0,800.0,6417.397,6417.397,2.4108179,0.043662533,1.0224385e-08,0.060571514,0.24135998,-10.002967,-0.012881704,-0.0023173909,0.00080641464,5.450516,2.2008133,47.062935,0.0021510532,0.01434467,0.00023881083,21.471642,21.471642
351991967,3407898,3407898,0,0,0,0,0,0,0,0,800.0,800.0,6417.4023,6417.4023,2.413597,0.040097907,1.4857369e-09,0.08165583,0.2841244,-10.010089,-0.016500942,-0.0066926028,0.0011184815,7.9661765,10.989403,3.967869,0.0021038135,0.001134003,0.00025179275,21.459942,21.459942
352931936,3407898,3407898,0,0,0,0,0,0,0,0,800.0,800.0,6417.4404,6417.4404,2.1578426,0.038319312,3.6894572e-09,0.030427955,0.2755442,-9.921492,-0.011183087,0.006811679,-0.00025096512,10.063168,5.1829467,15.039348,0.0016821988,0.0040558795,0.0003724746,21.425014,21.425014
353971919,3407898,3407898,0,0,0,0,0,0,0,0,800.0,800.0,6417.4253,6417.4253,2.106178,0.032915052,4.2586907e-09,0.100208595,0.3183171,-9.8999605,-0.016142214,0.0004977935,0.0009727321,10.343175,11.390826,5.678721,0.0025904186,0.0021065446,0.00030190503,21.443666,21.443666
354916941,3407898,3407898,0,0,0,0,0,0,0,0,800.0,800.0,6417.44,6417.44,0.5568276,0.011687576,7.420203e-11,-0.010011964,0.29514593,-9.981056,-0.013805646,0.0001502817,-0.00064959045,0.00070832536,0.0026782653,0.0009016773,2.4438991e-06,2.2500604e-05,0.00010266095,21.438595,21.438595
355946929,3407898,3407898,0,0,0,0,0,0,0,0,799.99994,799.99994,6417.422,6417.422,0.09171428,0.0026794274,4.9768786e-11,-0.016528057,0.29601905,-9.98539,-0.013807127,-0.001617435,0.0011727061,0.00031306662,0.00038957133,0.00043318985,1.7172263e-06,1.128493e-06,2.0926627e-06,21.425081,21.425081
356981930,3407898,3407898,0,0,0,0,0,0,0,0,800.0,800.0,6417.407,6417.407,0.028094282,0.0014990187,3.842007e-11,-0.021122258,0.30038473,-9.984494,-0.01339734,-0.0016384821,0.0011992464,0.00035761067,0.0003634913,0.00039083854,1.947457e-06,8.329399e-07,1.7590903e-06,21.414946,21.414946
357906919,3407898,3407898,0,0,0,0,0,0,0,0,800.0,800.0,6417.4087,6417.4087,0.021316862,0.001300854,4.8845216e-11,-0.020826913,0.30420482,-9.986684,-0.013655953,-0.0020137394,0.0012691113,0.00029365387,0.00038877188,0.0003127256,1.4226488e-06,1.2413714e-06,1.969745e-06,21.407455,21.407455
358941950,3407898,3407898,0,0,0,0,0,0,0,0,800.0,800.0,6417.407,6417.407,0.01988775,0.0011810772,4.7758828e-11,-0.019301975,0.30351263,-9.981867,-0.013767664,-0.0018502554,0.001147388,0.0003910688,0.00027914968,0.00037110757,1.6346288e-06,8.555048e-07,2.3516966e-06,21.398655,21.398655
359976940,3407898,3407898,0,0,0,0,0,0,0,0,799.99994,799.99994,6417.401,6417.401,0.019646578,0.0011150723,4.0446962e-11,-0.02647907,0.30154917,-9.985114,-0.013756904,-0.0018902182,0.001207781,0.00037481738,0.00038422045,0.0003387162,1.4699411e-06,1.0980432e-06,1.6456273e-06,21.384405,21.384405
