timestamp,data_rate,rate_multiplier,tx_rate_avg,tx_error_rate_avg,tx_message_count,tx_buffer_overruns,rx_rate_avg,rx_message_count,rx_message_lost_count,rx_buffer_overruns,rx_parse_errors,rx_packet_drop_count,rx_message_lost_rate,type,mode,flow_control,forwarding,mavlink_v2,ftp,streams,heartbeat_type_antenna_tracker,heartbeat_type_gcs,heartbeat_type_onboard_controller,heartbeat_type_gimbal,heartbeat_type_adsb,heartbeat_type_camera,heartbeat_type_parachute,heartbeat_type_open_drone_id,heartbeat_component_telemetry_radio,heartbeat_component_log,heartbeat_component_osd,heartbeat_component_obstacle_avoidance,heartbeat_component_vio,heartbeat_component_pairing_manager,heartbeat_component_udp_bridge,heartbeat_component_uart_bridge,avoidance_system_healthy,open_drone_id_system_healthy,parachute_system_healthy
200824967,1200.0,0.39491013,1161.385,0.0,5015,0,633.6628,5110,40,0,0,2,0.007827789,0,0,1,1,1,1,51,0,1,0,0,0,0,0,0,0,0,0,0,0,0,0,0,0,0,0
201895106,1200.0,0.39491013,1548.935,0.0,5050,0,587.97534,5137,47,0,0,2,0.009149309,0,0,1,1,1,1,51,0,1,0,0,0,0,0,0,0,0,0,0,0,0,0,0,0,0,0
202884979,1200.0,0.39491013,863.4193,0.0,5071,0,617.8597,5161,49,0,0,2,0.009494284,0,0,1,1,1,1,51,0,1,0,0,0,0,0,0,0,0,0,0,0,0,0,0,0,0,0
203814961,1200.0,0.39491013,899.0099,0.0,5094,0,610.8911,5189,49,0,0,2,0.009443053,0,0,1,1,1,1,51,0,1,0,0,0,0,0,0,0,0,0,0,0,0,0,0,0,0,0
204904983,1200.0,0.39491013,1336.9988,0.0,5127,0,639.9994,5216,49,0,0,2,0.009394172,0,0,1,1,1,1,51,0,1,0,0,0,0,0,0,0,0,0,0,0,0,0,0,0,0,0
205874960,1200.0,0.39491013,1015.9553,0.0,5151,0,593.9739,5243,49,0,0,2,0.009345794,0,0,1,1,1,1,51,0,1,0,0,0,0,0,0,0,0,0,0,0,0,0,0,0,0,0
206955131,1200.0,0.39491013,1383.2299,0.0,5183,0,610.9183,5270,49,0,0,2,0.009297913,0,0,1,1,1,1,51,0,1,0,0,0,0,0,0,0,0,0,0,0,0,0,0,0,0,0
207864961,1200.0,0.39491013,843.9992,0.0,5203,0,708.9993,5301,49,0,0,2,0.009243539,0,0,1,1,1,1,51,0,1,0,0,0,0,0,0,0,0,0,0,0,0,0,0,0,0,0
208864982,1200.0,0.39491013,917.82263,0.0,5225,0,656.4363,5326,49,0,0,2,0.00920015,0,0,1,1,1,1,51,0,1,0,0,0,0,0,0,0,0,0,0,0,0,0,0,0,0,0
209965049,1200.0,0.39491013,1227.9706,0.0,5257,0,480.98846,5352,53,0,0,2,0.0099028405,0,0,1,1,1,1,51,0,1,0,0,0,0,0,0,0,0,0,0,0,0,0,0,0,0,0
211875084,1200.0,0.39491013,1390.099,0.0,5309,0,636.63367,5403,56,0,0,2,0.010364613,0,0,1,1,1,1,51,0,1,0,0,0,0,0,0,0,0,0,0,0,0,0,0,0,0,0
212925012,1200.0,0.39491013,849.50494,0.0,5334,0,497.0297,5431,56,0,0,2,0.010311177,0,0,1,1,1,1,51,0,1,0,0,0,0,0,0,0,0,0,0,0,0,0,0,0,0,0
213935082,1200.0,0.39491013,928.9991,0.0,5356,0,639.9994,5457,56,0,0,2,0.010262049,0,0,1,1,1,1,51,0,1,0,0,0,0,0,0,0,0,0,0,0,0,0,0,0,0,0
214874961,1200.0,0.39491013,1204.9517,0.0,5382,0,544.555,5482,60,0,0,2,0.01094491,0,0,1,1,1,1,51,0,1,0,0,0,0,0,0,0,0,0,0,0,0,0,0,0,0,0
215935139,1200.0,0.39491013,1018.7634,0.0,5409,0,656.4044,5507,62,0,0,2,0.011258398,0,0,1,1,1,1,51,0,1,0,0,0,0,0,0,0,0,0,0,0,0,0,0,0,0,0
216935101,1200.0,0.39491013,1384.8975,0.0,5439,0,432.96796,5533,62,0,0,2,0.011205494,0,0,1,1,1,1,51,0,1,0,0,0,0,0,0,0,0,0,0,0,0,0,0,0,0,0
217995079,1200.0,0.39491013,837.7249,0.0,5463,0,633.73987,5560,65,0,0,2,0.011690647,0,0,1,1,1,1,51,0,1,0,0,0,0,0,0,0,0,0,0,0,0,0,0,0,0,0
218925013,1200.0,0.39491013,941.95,0.0,5483,0,639.96606,5582,68,0,0,2,0.012182014,0,0,1,1,1,1,51,0,1,0,0,0,0,0,0,0,0,0,0,0,0,0,0,0,0,0
219935083,1200.0,0.39491013,1205.0126,0.0,5512,0,565.3756,5609,68,0,0,2,0.012123373,0,0,1,1,1,1,51,0,1,0,0,0,0,0,0,0,0,0,0,0,0,0,0,0,0,0
220995122,1200.0,0.39491013,1005.9415,0.0,5538,0,565.34705,5636,68,0,0,2,0.012065294,0,0,1,1,1,1,51,0,1,0,0,0,0,0,0,0,0,0,0,0,0,0,0,0,0,0
221925024,1200.0,0.39491013,1417.9987,0.0,5569,0,596.99945,5664,68,0,0,2,0.0120056495,0,0,1,1,1,1,51,0,1,0,0,0,0,0,0,0,0,0,0,0,0,0,0,0,0,0
222935110,1200.0,0.39491013,835.64355,0.0,5590,0,656.43567,5687,73,0,0,2,0.012836293,0,0,1,1,1,1,51,0,1,0,0,0,0,0,0,0,0,0,0,0,0,0,0,0,0,0
223944967,1200.0,0.39491013,927.9573,0.0,5612,0,455.979,5710,75,0,0,2,0.013134851,0,0,1,1,1,1,51,0,1,0,0,0,0,0,0,0,0,0,0,0,0,0,0,0,0,0
224924981,1200.0,0.39491013,1177.2825,0.0,5641,0,430.7131,5729,85,0,0,2,0.014836796,0,0,1,1,1,1,51,0,1,0,0,0,0,0,0,0,0,0,0,0,0,0,0,0,0,0
225925014,1200.0,0.39491013,1014.9431,0.0,5666,0,547.9693,5752,88,0,0,2,0.015299027,0,0,1,1,1,1,51,0,1,0,0,0,0,0,0,0,0,0,0,0,0,0,0,0,0,0
226975081,1200.0,0.39491013,1440.674,0.0,5700,0,519.8308,5777,90,0,0,2,0.015579021,0,0,1,1,1,1,51,0,1,0,0,0,0,0,0,0,0,0,0,0,0,0,0,0,0,0
227905128,1200.0,0.39491013,856.9992,0.0,5721,0,616.9994,5801,93,0,0,2,0.016031718,0,0,1,1,1,1,51,0,1,0,0,0,0,0,0,0,0,0,0,0,0,0,0,0,0,0
228924962,1200.0,0.39491013,926.9805,0.0,5742,0,570.98804,5829,93,0,0,2,0.015954709,0,0,1,1,1,1,51,0,1,0,0,0,0,0,0,0,0,0,0,0,0,0,0,0,0,0
229964987,1200.0,0.39491013,1203.9855,0.0,5773,0,565.3583,5851,97,0,0,2,0.016578363,0,0,1,1,1,1,51,0,1,0,0,0,0,0,0,0,0,0,0,0,0,0,0,0,0,0
230905030,1200.0,0.39491013,1013.9787,0.0,5797,0,616.98706,5878,97,0,0,2,0.01650221,0,0,1,1,1,1,51,0,1,0,0,0,0,0,0,0,0,0,0,0,0,0,0,0,0,0
231924961,1200.0,0.39491013,1340.9664,0.0,5831,0,524.9869,5903,101,0,0,2,0.017109944,0,0,1,1,1,1,51,0,1,0,0,0,0,0,0,0,0,0,0,0,0,0,0,0,0,0
232975191,1200.0,0.39491013,898.0616,0.0,5852,0,633.6929,5931,101,0,0,2,0.017029168,0,0,1,1,1,1,51,0,1,0,0,0,0,0,0,0,0,0,0,0,0,0,0,0,0,0
234905040,1200.0,0.39491013,1183.9739,0.0,5904,0,524.9884,5970,114,0,0,2,0.019095477,0,0,1,1,1,1,51,0,1,0,0,0,0,0,0,0,0,0,0,0,0,0,0,0,0,0
235965016,1200.0,0.39491013,1034.677,0.0,5927,0,405.94986,5991,120,0,0,2,0.020030046,0,0,1,1,1,1,51,0,1,0,0,0,0,0,0,0,0,0,0,0,0,0,0,0,0,0
236975129,1200.0,0.39491013,1332.9706,0.0,5961,0,547.9879,6014,123,0,0,2,0.020452278,0,0,1,1,1,1,51,0,1,0,0,0,0,0,0,0,0,0,0,0,0,0,0,0,0,0
237915127,1200.0,0.39491013,850.51355,0.0,5980,0,339.61133,6033,133,0,0,2,0.022045417,0,0,1,1,1,1,51,0,1,0,0,0,0,0,0,0,0,0,0,0,0,0,0,0,0,0
238915199,1200.0,0.39491013,974.9405,0.0,6002,0,662.95953,6057,133,0,0,2,0.021958064,0,0,1,1,1,1,51,0,1,0,0,0,0,0,0,0,0,0,0,0,0,0,0,0,0,0
239924962,1200.0,0.39491013,1185.2201,0.0,6032,0,476.26642,6081,139,0,0,2,0.022858083,0,0,1,1,1,1,51,0,1,0,0,0,0,0,0,0,0,0,0,0,0,0,0,0,0,0
241045027,1200.0,0.39491013,1044.6876,0.0,6057,0,432.87057,6104,146,0,0,2,0.023918742,0,0,1,1,1,1,51,0,1,0,0,0,0,0,0,0,0,0,0,0,0,0,0,0,0,0
242055328,1200.0,0.39491013,1297.4138,0.0,6091,0,474.39786,6117,159,0,0,2,0.025993133,0,0,1,1,1,1,51,0,1,0,0,0,0,0,0,0,0,0,0,0,0,0,0,0,0,0
242064987,1200.0,0.39491013,1297.4138,0.0,6091,0,474.39786,6119,159,0,0,2,0.025984637,0,0,1,1,1,1,51,0,1,0,0,0,0,0,0,0,0,0,0,0,0,0,0,0,0,0
243904962,1200.0,0.39491013,965.3943,0.0,6132,0,476.26117,6162,169,0,0,2,0.02742616,0,0,1,1,1,1,51,0,1,0,0,0,0,0,0,0,0,0,0,0,0,0,0,0,0,0
244965064,1200.0,0.39491013,1172.2262,0.0,6161,0,565.3219,6189,171,0,0,2,0.027629666,0,0,1,1,1,1,51,0,1,0,0,0,0,0,0,0,0,0,0,0,0,0,0,0,0,0
245934962,1200.0,0.39491013,1017.75275,0.0,6186,0,524.8725,6213,173,0,0,2,0.02784484,0,0,1,1,1,1,51,0,1,0,0,0,0,0,0,0,0,0,0,0,0,0,0,0,0,0
246895238,1200.0,0.39491013,939.8497,0.0,6218,0,588.2726,6236,176,0,0,2,0.02822322,0,0,1,1,1,1,51,0,1,0,0,0,0,0,0,0,0,0,0,0,0,0,0,0,0,0
247985017,1200.0,0.39491013,1217.5251,0.0,6239,0,428.60846,6257,184,0,0,2,0.029407063,0,0,1,1,1,1,51,0,1,0,0,0,0,0,0,0,0,0,0,0,0,0,0,0,0,0
249904962,1200.0,0.39491013,1183.9503,0.0,6290,0,519.9782,6300,193,0,0,2,0.030634921,0,0,1,1,1,1,51,0,1,0,0,0,0,0,0,0,0,0,0,0,0,0,0,0,0,0
250974960,1200.0,0.39491013,995.08887,0.0,6315,0,479.22687,6321,199,0,0,2,0.03148236,0,0,1,1,1,1,51,0,1,0,0,0,0,0,0,0,0,0,0,0,0,0,0,0,0,0
251975086,1200.0,0.39491013,927.77637,0.0,6349,0,688.834,6348,199,0,0,2,0.031348456,0,0,1,1,1,1,51,0,1,0,0,0,0,0,0,0,0,0,0,0,0,0,0,0,0,0
252895097,1200.0,0.39491013,927.77637,0.0,6365,0,688.834,6365,210,0,0,2,0.03299293,0,0,1,1,1,1,51,0,1,0,0,0,0,0,0,0,0,0,0,0,0,0,0,0,0,0
253955114,1200.0,0.39491013,965.34656,0.0,6391,0,476.23764,6390,213,0,0,2,0.033333335,0,0,1,1,1,1,51,0,1,0,0,0,0,0,0,0,0,0,0,0,0,0,0,0,0,0
254955139,1200.0,0.39491013,1216.8052,0.0,6422,0,497.01886,6408,219,0,0,2,0.03417603,0,0,1,1,1,1,51,0,1,0,0,0,0,0,0,0,0,0,0,0,0,0,0,0,0,0
256035101,1200.0,0.39491013,981.1881,0.0,6447,0,544.55444,6434,223,0,0,2,0.03465962,0,0,1,1,1,1,51,0,1,0,0,0,0,0,0,0,0,0,0,0,0,0,0,0,0,0
257984968,1200.0,0.39491013,1231.7612,0.0,6498,0,509.93332,6482,230,0,0,2,0.035482876,0,0,1,1,1,1,51,0,1,0,0,0,0,0,0,0,0,0,0,0,0,0,0,0,0,0
259015095,1200.0,0.39491013,966.3367,0.0,6522,0,565.34656,6501,236,0,0,2,0.03630211,0,0,1,1,1,1,51,0,1,0,0,0,0,0,0,0,0,0,0,0,0,0,0,0,0,0
259935109,1200.0,0.39491013,966.3367,0.0,6548,0,565.34656,6525,239,0,0,2,0.036628354,0,0,1,1,1,1,51,0,1,0,0,0,0,0,0,0,0,0,0,0,0,0,0,0,0,0
260955129,1200.0,0.39491013,1185.9668,0.0,6573,0,591.9834,6550,242,0,0,2,0.036946565,0,0,1,1,1,1,51,0,1,0,0,0,0,0,0,0,0,0,0,0,0,0,0,0,0,0
261964962,1200.0,0.39491013,1047.5538,0.0,6596,0,565.36224,6576,242,0,0,2,0.036800485,0,0,1,1,1,1,51,0,1,0,0,0,0,0,0,0,0,0,0,0,0,0,0,0,0,0
262924973,1200.0,0.39491013,960.37506,0.0,6625,0,570.2846,6597,250,0,0,2,0.037896015,0,0,1,1,1,1,51,0,1,0,0,0,0,0,0,0,0,0,0,0,0,0,0,0,0,0
263955131,1200.0,0.39491013,1217.847,0.0,6647,0,474.26727,6618,257,0,0,2,0.038833484,0,0,1,1,1,1,51,0,1,0,0,0,0,0,0,0,0,0,0,0,0,0,0,0,0,0
265025015,1200.0,0.39491013,1173.2673,0.0,6679,0,339.60397,6635,265,0,0,2,0.039939713,0,0,1,1,1,1,51,0,1,0,0,0,0,0,0,0,0,0,0,0,0,0,0,0,0,0
265935202,1200.0,0.39491013,1173.2673,0.0,6699,0,339.60397,6661,266,0,0,2,0.039933942,0,0,1,1,1,1,51,0,1,0,0,0,0,0,0,0,0,0,0,0,0,0,0,0,0,0
266945024,1200.0,0.39491013,928.7129,0.0,6723,0,692.0792,6686,269,0,0,2,0.040233325,0,0,1,1,1,1,51,0,1,0,0,0,0,0,0,0,0,0,0,0,0,0,0,0,0,0
267995089,1200.0,0.39491013,1059.406,0.0,6755,0,504.9505,6710,272,0,0,2,0.04053651,0,0,1,1,1,1,51,0,1,0,0,0,0,0,0,0,0,0,0,0,0,0,0,0,0,0
268924981,1200.0,0.39491013,1232.9988,0.0,6774,0,593.99945,6734,274,0,0,2,0.04068904,0,0,1,1,1,1,51,0,1,0,0,0,0,0,0,0,0,0,0,0,0,0,0,0,0,0
269944986,1200.0,0.39491013,899.0099,0.0,6807,0,565.34656,6757,278,0,0,2,0.04114252,0,0,1,1,1,1,51,0,1,0,0,0,0,0,0,0,0,0,0,0,0,0,0,0,0,0
270985070,1200.0,0.39491013,1222.9744,0.0,6829,0,478.98996,6785,278,0,0,2,0.040972736,0,0,1,1,1,1,51,0,1,0,0,0,0,0,0,0,0,0,0,0,0,0,0,0,0,0
271934961,1200.0,0.39491013,930.7124,0.0,6853,0,633.6765,6806,285,0,0,2,0.041874815,0,0,1,1,1,1,51,0,1,0,0,0,0,0,0,0,0,0,0,0,0,0,0,0,0,0
272935085,1200.0,0.39491013,1067.3278,0.0,6885,0,500.0005,6821,296,0,0,2,0.043395396,0,0,1,1,1,1,51,0,1,0,0,0,0,0,0,0,0,0,0,0,0,0,0,0,0,0
273944967,1200.0,0.39491013,1243.9988,0.0,6905,0,317.9997,6833,304,0,0,2,0.044489976,0,0,1,1,1,1,51,0,1,0,0,0,0,0,0,0,0,0,0,0,0,0,0,0,0,0
274945067,1200.0,0.39491013,899.9261,0.0,6937,0,271.26486,6841,330,0,0,2,0.04823856,0,0,1,1,1,1,51,0,1,0,0,0,0,0,0,0,0,0,0,0,0,0,0,0,0,0
275954964,1200.0,0.39491013,1242.6776,0.0,6959,0,178.23265,6863,332,0,0,2,0.048375346,0,0,1,1,1,1,51,0,1,0,0,0,0,0,0,0,0,0,0,0,0,0,0,0,0,0
276995090,1200.0,0.39491013,942.5743,0.0,6983,0,544.55444,6888,338,0,0,2,0.049070846,0,0,1,1,1,1,51,0,1,0,0,0,0,0,0,0,0,0,0,0,0,0,0,0,0,0
277904962,1200.0,0.39491013,969.9991,0.0,7012,0,593.99945,6910,342,0,0,2,0.049493488,0,0,1,1,1,1,51,0,1,0,0,0,0,0,0,0,0,0,0,0,0,0,0,0,0,0
278924982,1200.0,0.39491013,1267.2991,0.0,7034,0,405.93173,6934,345,0,0,2,0.049754832,0,0,1,1,1,1,51,0,1,0,0,0,0,0,0,0,0,0,0,0,0,0,0,0,0,0
281034962,1200.0,0.39491013,1273.1866,0.0,7089,0,565.3107,6983,353,0,0,2,0.05055134,0,0,1,1,1,1,51,0,1,0,0,0,0,0,0,0,0,0,0,0,0,0,0,0,0,0
281915097,1200.0,0.39491013,929.7619,0.0,7112,0,512.9038,7005,356,0,0,2,0.050820842,0,0,1,1,1,1,51,0,1,0,0,0,0,0,0,0,0,0,0,0,0,0,0,0,0,0
282975125,1200.0,0.39491013,1032.6732,0.0,7144,0,531.68317,7032,358,0,0,2,0.050910126,0,0,1,1,1,1,51,0,1,0,0,0,0,0,0,0,0,0,0,0,0,0,0,0,0,0
283934961,1200.0,0.39491013,1289.1089,0.0,7164,0,519.802,7052,364,0,0,2,0.051616564,0,0,1,1,1,1,51,0,1,0,0,0,0,0,0,0,0,0,0,0,0,0,0,0,0,0
284915103,1200.0,0.39491013,845.97723,0.0,7197,0,570.9846,7079,364,0,0,2,0.05141969,0,0,1,1,1,1,51,0,1,0,0,0,0,0,0,0,0,0,0,0,0,0,0,0,0,0
285965015,1200.0,0.39491013,1317.8557,0.0,7218,0,565.3611,7101,369,0,0,2,0.05196451,0,0,1,1,1,1,51,0,1,0,0,0,0,0,0,0,0,0,0,0,0,0,0,0,0,0
286924961,1200.0,0.39491013,939.9116,0.0,7241,0,524.9506,7123,374,0,0,2,0.052505966,0,0,1,1,1,1,51,0,1,0,0,0,0,0,0,0,0,0,0,0,0,0,0,0,0,0
287925043,1200.0,0.39491013,1000.093,0.0,7273,0,519.85034,7146,378,0,0,2,0.052896727,0,0,1,1,1,1,51,0,1,0,0,0,0,0,0,0,0,0,0,0,0,0,0,0,0,0
288174962,1200.0,0.39491013,1281.1893,0.0,7277,0,521.78265,7151,378,0,0,2,0.05285974,0,0,1,1,1,1,51,0,1,0,0,0,0,0,0,0,0,0,0,0,0,0,0,0,0,0
289935118,1200.0,0.27365103,845.9992,0.0,7319,0,409.9996,7190,388,0,0,2,0.05396384,0,0,1,1,1,1,51,0,1,0,0,0,0,0,0,0,0,0,0,0,0,0,0,0,0,0
290915100,1200.0,0.39491013,1558.4174,0.0,7351,0,590.09955,7215,391,0,0,2,0.054192655,0,0,1,1,1,1,51,0,1,0,0,0,0,0,0,0,0,0,0,0,0,0,0,0,0,0
291985124,1200.0,0.39491013,862.9992,0.0,7375,0,524.9995,7241,393,0,0,2,0.054274272,0,0,1,1,1,1,51,0,1,0,0,0,0,0,0,0,0,0,0,0,0,0,0,0,0,0
292975382,1200.0,0.39491013,960.9788,0.0,7404,0,663.98535,7264,398,0,0,2,0.05479075,0,0,1,1,1,1,51,0,1,0,0,0,0,0,0,0,0,0,0,0,0,0,0,0,0,0
294034960,1200.0,0.39491013,1189.0853,0.0,7424,0,453.45636,7283,406,0,0,2,0.055746257,0,0,1,1,1,1,51,0,1,0,0,0,0,0,0,0,0,0,0,0,0,0,0,0,0,0
294965049,1200.0,0.39491013,727.7538,0.0,7442,0,497.05087,7306,411,0,0,2,0.056255132,0,0,1,1,1,1,51,0,1,0,0,0,0,0,0,0,0,0,0,0,0,0,0,0,0,0
295975143,1200.0,0.39491013,1237.9988,0.0,7470,0,499.9995,7332,412,0,0,2,0.056192037,0,0,1,1,1,1,51,0,1,0,0,0,0,0,0,0,0,0,0,0,0,0,0,0,0,0
296984961,1200.0,0.39491013,828.9983,0.0,7493,0,549.9989,7349,418,0,0,2,0.05687849,0,0,1,1,1,1,51,0,1,0,0,0,0,0,0,0,0,0,0,0,0,0,0,0,0,0
298957137,1200.0,0.39491013,1386.3503,0.0,7545,0,476.43307,7391,429,0,0,2,0.058043566,0,0,1,1,1,1,51,0,1,0,0,0,0,0,0,0,0,0,0,0,0,0,0,0,0,0
300017208,1200.0,0.39491013,765.2272,0.0,7568,0,457.5379,7414,439,0,0,2,0.0592123,0,0,1,1,1,1,51,0,1,0,0,0,0,0,0,0,0,0,0,0,0,0,0,0,0,0
301017229,1200.0,0.39491013,1250.9863,0.0,7594,0,501.9945,7430,446,0,0,2,0.060026918,0,0,1,1,1,1,51,0,1,0,0,0,0,0,0,0,0,0,0,0,0,0,0,0,0,0
301967291,1200.0,0.39491013,801.927,0.0,7616,0,250.47844,7451,456,0,0,2,0.06119984,0,0,1,1,1,1,51,0,1,0,0,0,0,0,0,0,0,0,0,0,0,0,0,0,0,0
303017129,1200.0,0.39491013,959.9318,0.0,7647,0,663.9528,7475,459,0,0,2,0.061404683,0,0,1,1,1,1,51,0,1,0,0,0,0,0,0,0,0,0,0,0,0,0,0,0,0,0
304017200,1200.0,0.39491013,1202.1052,0.0,7666,0,520.84625,7498,459,0,0,2,0.061216325,0,0,1,1,1,1,51,0,1,0,0,0,0,0,0,0,0,0,0,0,0,0,0,0,0,0
304957197,1200.0,0.39491013,758.35803,0.0,7686,0,632.62506,7528,459,0,0,2,0.06097237,0,0,1,1,1,1,51,0,1,0,0,0,0,0,0,0,0,0,0,0,0,0,0,0,0,0
306017185,1200.0,0.39491013,1269.9403,0.0,7715,0,595.972,7555,459,0,0,2,0.060754467,0,0,1,1,1,1,51,0,1,0,0,0,0,0,0,0,0,0,0,0,0,0,0,0,0,0
306957185,1200.0,0.39491013,833.717,0.0,7735,0,586.17633,7581,461,0,0,2,0.060809918,0,0,1,1,1,1,51,0,1,0,0,0,0,0,0,0,0,0,0,0,0,0,0,0,0,0
307957250,1200.0,0.39491013,950.5176,0.0,7774,0,656.45123,7608,461,0,0,2,0.06059411,0,0,1,1,1,1,51,0,1,0,0,0,0,0,0,0,0,0,0,0,0,0,0,0,0,0
309017172,1200.0,0.39491013,1436.908,0.0,7797,0,570.96344,7632,464,0,0,2,0.060796645,0,0,1,1,1,1,51,0,1,0,0,0,0,0,0,0,0,0,0,0,0,0,0,0,0,0
309947261,1200.0,0.39491013,881.2798,0.0,7819,0,588.18,7657,468,0,0,2,0.061120544,0,0,1,1,1,1,51,0,1,0,0,0,0,0,0,0,0,0,0,0,0,0,0,0,0,0
310957163,1200.0,0.39491013,1376.1123,0.0,7849,0,542.52484,7685,468,0,0,2,0.060897853,0,0,1,1,1,1,51,0,1,0,0,0,0,0,0,0,0,0,0,0,0,0,0,0,0,0
311957184,1200.0,0.39491013,920.8933,0.0,7874,0,642.6449,7710,468,0,0,2,0.06070039,0,0,1,1,1,1,51,0,1,0,0,0,0,0,0,0,0,0,0,0,0,0,0,0,0,0
313027243,1200.0,0.39491013,985.99506,0.0,7907,0,543.99725,7738,475,0,0,2,0.06138537,0,0,1,1,1,1,51,0,1,0,0,0,0,0,0,0,0,0,0,0,0,0,0,0,0,0
313977255,1200.0,0.39491013,1304.8755,0.0,7927,0,633.62695,7765,475,0,0,2,0.061171927,0,0,1,1,1,1,51,0,1,0,0,0,0,0,0,0,0,0,0,0,0,0,0,0,0,0
315017176,1200.0,0.39491013,876.88605,0.0,7950,0,524.93176,7790,477,0,0,2,0.06123235,0,0,1,1,1,1,51,0,1,0,0,0,0,0,0,0,0,0,0,0,0,0,0,0,0,0
316027247,1200.0,0.39491013,1318.032,0.0,7980,0,656.54034,7813,482,0,0,2,0.06169205,0,0,1,1,1,1,51,0,1,0,0,0,0,0,0,0,0,0,0,0,0,0,0,0,0,0
317037235,1200.0,0.39491013,852.42206,0.0,8009,0,496.9987,7835,484,0,0,2,0.06177409,0,0,1,1,1,1,51,0,1,0,0,0,0,0,0,0,0,0,0,0,0,0,0,0,0,0
318027270,1200.0,0.39491013,1224.8434,0.0,8041,0,610.93646,7866,484,0,0,2,0.06153064,0,0,1,1,1,1,51,0,1,0,0,0,0,0,0,0,0,0,0,0,0,0,0,0,0,0
319017211,1200.0,0.39491013,1250.9587,0.0,8058,0,662.9781,7894,484,0,0,2,0.06131239,0,0,1,1,1,1,51,0,1,0,0,0,0,0,0,0,0,0,0,0,0,0,0,0,0,0
320027339,1200.0,0.39491013,789.105,0.0,8078,0,588.1159,7913,488,0,0,2,0.06167067,0,0,1,1,1,1,51,0,1,0,0,0,0,0,0,0,0,0,0,0,0,0,0,0,0,0
320077205,1200.0,0.39491013,789.105,0.0,8079,0,588.1159,7916,490,0,0,2,0.06189995,0,0,1,1,1,1,51,0,1,0,0,0,0,0,0,0,0,0,0,0,0,0,0,0,0,0
321097170,1200.0,0.39491013,1237.9518,0.0,8108,0,524.97955,7944,490,0,0,2,0.061681774,0,0,1,1,1,1,51,0,1,0,0,0,0,0,0,0,0,0,0,0,0,0,0,0,0,0
322147324,1200.0,0.39491013,814.9902,0.0,8131,0,573.9931,7967,493,0,0,2,0.061880257,0,0,1,1,1,1,51,0,1,0,0,0,0,0,0,0,0,0,0,0,0,0,0,0,0,0
323137196,1200.0,0.39491013,940.95953,0.0,8161,0,570.9754,7994,495,0,0,2,0.06192144,0,0,1,1,1,1,51,0,1,0,0,0,0,0,0,0,0,0,0,0,0,0,0,0,0,0
324087322,1200.0,0.39491013,1225.9102,0.0,8180,0,588.1992,8017,498,0,0,2,0.062117998,0,0,1,1,1,1,51,0,1,0,0,0,0,0,0,0,0,0,0,0,0,0,0,0,0,0
326047294,1200.0,0.39491013,857.52765,0.0,8227,0,588.1887,8067,501,0,0,2,0.062104873,0,0,1,1,1,1,51,0,1,0,0,0,0,0,0,0,0,0,0,0,0,0,0,0,0,0
327047304,1200.0,0.39491013,1112.9922,0.0,8248,0,570.996,8090,501,0,0,2,0.061928306,0,0,1,1,1,1,51,0,1,0,0,0,0,0,0,0,0,0,0,0,0,0,0,0,0,0
327077173,1200.0,0.39491013,1112.9922,0.0,8249,0,570.996,8091,504,0,0,2,0.062291436,0,0,1,1,1,1,51,0,1,0,0,0,0,0,0,0,0,0,0,0,0,0,0,0,0,0
328247324,1200.0,0.39491013,944.51056,0.0,8283,0,542.549,8116,507,0,0,2,0.062469196,0,0,1,1,1,1,51,0,1,0,0,0,0,0,0,0,0,0,0,0,0,0,0,0,0,0
329097150,1200.0,0.39491013,1193.8651,0.0,8298,0,593.93286,8145,507,0,0,2,0.062246777,0,0,1,1,1,1,51,0,1,0,0,0,0,0,0,0,0,0,0,0,0,0,0,0,0,0
330077195,1200.0,0.39491013,789.24493,0.0,8318,0,610.9964,8170,507,0,0,2,0.062056303,0,0,1,1,1,1,51,0,1,0,0,0,0,0,0,0,0,0,0,0,0,0,0,0,0,0
331327213,1200.0,0.39491013,910.9672,0.0,8352,0,570.97943,8198,512,0,0,2,0.062454257,0,0,1,1,1,1,51,0,1,0,0,0,0,0,0,0,0,0,0,0,0,0,0,0,0,0
332087270,1200.0,0.39491013,1044.5286,0.0,8369,0,570.2829,8220,512,0,0,2,0.062287103,0,0,1,1,1,1,51,0,1,0,0,0,0,0,0,0,0,0,0,0,0,0,0,0,0,0
333077965,1200.0,0.39491013,949.96106,0.0,8408,0,616.9747,8249,512,0,0,2,0.06206813,0,0,1,1,1,1,51,0,1,0,0,0,0,0,0,0,0,0,0,0,0,0,0,0,0,0
334158015,1200.0,0.39491013,1578.8854,0.0,8439,0,660.5337,8286,512,0,0,2,0.061790973,0,0,1,1,1,1,51,0,1,0,0,0,0,0,0,0,0,0,0,0,0,0,0,0,0,0
335077943,1200.0,0.39491013,1098.0394,0.0,8460,0,811.8957,8315,514,0,0,2,0.061815996,0,0,1,1,1,1,51,0,1,0,0,0,0,0,0,0,0,0,0,0,0,0,0,0,0,0
336067964,1200.0,0.39491013,857.4257,0.0,8487,0,588.11884,8341,514,0,0,2,0.061623305,0,0,1,1,1,1,51,0,1,0,0,0,0,0,0,0,0,0,0,0,0,0,0,0,0,0
337127967,1200.0,0.39491013,1092.0792,0.0,8510,0,633.6634,8365,518,0,0,2,0.061924685,0,0,1,1,1,1,51,0,1,0,0,0,0,0,0,0,0,0,0,0,0,0,0,0,0,0
339197959,1200.0,0.39491013,1225.7985,0.0,8561,0,627.7514,8420,518,0,0,2,0.06152019,0,0,1,1,1,1,51,0,1,0,0,0,0,0,0,0,0,0,0,0,0,0,0,0,0,0
340148141,1200.0,0.39491013,809.9603,0.0,8581,0,593.9709,8442,522,0,0,2,0.061833687,0,0,1,1,1,1,51,0,1,0,0,0,0,0,0,0,0,0,0,0,0,0,0,0,0,0
341137973,1200.0,0.39491013,857.46814,0.0,8607,0,588.1479,8467,524,0,0,2,0.061887328,0,0,1,1,1,1,51,0,1,0,0,0,0,0,0,0,0,0,0,0,0,0,0,0,0,0
342198022,1200.0,0.39491013,1100.0,0.0,8632,0,497.0297,8495,526,0,0,2,0.061918776,0,0,1,1,1,1,51,0,1,0,0,0,0,0,0,0,0,0,0,0,0,0,0,0,0,0
343127998,1200.0,0.39491013,938.6139,0.0,8661,0,633.6634,8520,526,0,0,2,0.06173709,0,0,1,1,1,1,51,0,1,0,0,0,0,0,0,0,0,0,0,0,0,0,0,0,0,0
344377968,1200.0,0.39491013,1305.9712,0.0,8683,0,616.9864,8550,530,0,0,2,0.061988305,0,0,1,1,1,1,51,0,1,0,0,0,0,0,0,0,0,0,0,0,0,0,0,0,0,0
345087962,1200.0,0.39491013,789.09326,0.0,8698,0,499.0,8570,530,0,0,2,0.06184364,0,0,1,1,1,1,51,0,1,0,0,0,0,0,0,0,0,0,0,0,0,0,0,0,0,0
346107964,1200.0,0.39491013,870.3332,0.0,8725,0,633.6897,8597,530,0,0,2,0.061649412,0,0,1,1,1,1,51,0,1,0,0,0,0,0,0,0,0,0,0,0,0,0,0,0,0,0
347367941,1200.0,0.39491013,1089.9989,0.0,8752,0,570.99945,8626,535,0,0,2,0.062021796,0,0,1,1,1,1,51,0,1,0,0,0,0,0,0,0,0,0,0,0,0,0,0,0,0,0
348287941,1200.0,0.39491013,925.74347,0.0,8782,0,590.09955,8648,535,0,0,2,0.061864015,0,0,1,1,1,1,51,0,1,0,0,0,0,0,0,0,0,0,0,0,0,0,0,0,0,0
349107965,1200.0,0.39491013,1305.9406,0.0,8794,0,561.38617,8673,535,0,0,2,0.061685693,0,0,1,1,1,1,51,0,1,0,0,0,0,0,0,0,0,0,0,0,0,0,0,0,0,0
350148018,1200.0,0.39491013,789.09094,0.0,8818,0,614.83746,8701,535,0,0,2,0.061487187,0,0,1,1,1,1,51,0,1,0,0,0,0,0,0,0,0,0,0,0,0,0,0,0,0,0
351177968,1200.0,0.39491013,857.4453,0.0,8848,0,633.6778,8723,539,0,0,2,0.061790667,0,0,1,1,1,1,51,0,1,0,0,0,0,0,0,0,0,0,0,0,0,0,0,0,0,0
352107963,1200.0,0.39491013,1112.8713,0.0,8864,0,497.0297,8748,541,0,0,2,0.061842706,0,0,1,1,1,1,51,0,1,0,0,0,0,0,0,0,0,0,0,0,0,0,0,0,0,0
353118023,1200.0,0.39491013,925.74255,0.0,8886,0,588.11884,8771,545,0,0,2,0.062136587,0,0,1,1,1,1,51,0,1,0,0,0,0,0,0,0,0,0,0,0,0,0,0,0,0,0
354277963,1200.0,0.27365103,1265.966,0.0,8926,0,547.9852,8799,545,0,0,2,0.061938856,0,0,1,1,1,1,51,0,1,0,0,0,0,0,0,0,0,0,0,0,0,0,0,0,0,0
355098025,1200.0,0.39491013,1143.5948,0.0,8943,0,610.9074,8825,545,0,0,2,0.061756372,0,0,1,1,1,1,51,0,1,0,0,0,0,0,0,0,0,0,0,0,0,0,0,0,0,0
356117941,1200.0,0.39491013,854.45544,0.0,8975,0,633.6634,8853,545,0,0,2,0.06156105,0,0,1,1,1,1,51,0,1,0,0,0,0,0,0,0,0,0,0,0,0,0,0,0,0,0
357168135,1200.0,0.39491013,1259.9988,0.0,8998,0,501.9995,8871,554,0,0,2,0.06245068,0,0,1,1,1,1,51,0,1,0,0,0,0,0,0,0,0,0,0,0,0,0,0,0,0,0
358087941,1200.0,0.39491013,947.97906,0.0,9017,0,593.9869,8898,556,0,0,2,0.062485952,0,0,1,1,1,1,51,0,1,0,0,0,0,0,0,0,0,0,0,0,0,0,0,0,0,0
359108022,1200.0,0.39491013,1293.0488,0.0,9046,0,519.79376,8920,561,0,0,2,0.06289238,0,0,1,1,1,1,51,0,1,0,0,0,0,0,0,0,0,0,0,0,0,0,0,0,0,0
