timestamp,timestamp_sample,yaw_composite,yaw_variance,yaw[0],yaw[1],yaw[2],yaw[3],yaw[4],innov_vn[0],innov_vn[1],innov_vn[2],innov_vn[3],innov_vn[4],innov_ve[0],innov_ve[1],innov_ve[2],innov_ve[3],innov_ve[4],weight[0],weight[1],weight[2],weight[3],weight[4],yaw_composite_valid
201032332,200841730,-2.5722396,3.396197,-2.5196695,-1.2865808,-0.019157285,1.2682848,2.5324583,0.00931845,0.009928559,0.013110758,0.0144491205,0.01203357,-0.086178936,-0.08925761,-0.089664295,-0.08670075,-0.08458565,0.2129935,0.20320982,0.18924452,0.19002093,0.20453127,0
202032309,201841729,-2.7572615,3.4534013,-2.5242052,-1.2866089,-0.014508033,1.2710876,2.5295513,-0.06657477,-0.06843391,-0.06856866,-0.066709936,-0.065509796,0.05023636,0.04976532,0.047805175,0.04709861,0.048642047,0.2122248,0.20083447,0.18856022,0.19190262,0.20647791,0
203032338,202841729,-2.730338,3.4097033,-2.5245268,-1.2913159,-0.017136993,1.2743254,2.5340362,0.013358258,0.012644814,0.011681901,0.011848352,0.012899876,0.08676921,0.08752135,0.08706534,0.08599471,0.08584681,0.21465707,0.20136194,0.18655743,0.19007634,0.20734715,0
204032311,203841729,-2.7300723,3.3595636,-2.5260904,-1.2988462,-0.020325447,1.2800674,2.5404665,0.0022902116,0.0007798113,-0.0017869063,-0.0017240234,0.00084137544,-0.01636786,-0.014255329,-0.015059879,-0.017791882,-0.018494902,0.21835834,0.20165402,0.18323964,0.18759567,0.20915227,0
205032389,204841729,-2.496241,3.2444787,-2.5170794,-1.3068941,-0.034767237,1.2802203,2.5546825,-0.007380377,-0.0066657728,-0.012001883,-0.016081342,-0.0129121635,0.0008951583,0.0065459693,0.009153113,0.0046090703,-0.00042373838,0.22436135,0.20755796,0.1810724,0.18048215,0.20652618,0
206032303,205841729,-1.9259717,1.0063032,-2.2672744,-1.4678547,-0.3679394,1.3691051,3.0114014,-0.07893941,-0.06520696,-0.12002336,-0.19391073,-0.13912776,-0.0587401,-0.0028857235,0.04782359,-0.012146199,-0.08156809,0.40593883,0.3781176,0.0845978,0.024645904,0.106699936,0
207032338,206841729,-1.9057267,0.2864446,-2.0920029,-1.5933253,-0.7236509,1.6144636,-2.813698,0.062274165,0.05594549,0.09552596,0.2028598,0.10114315,0.087809086,0.047450848,-0.010562044,0.07452218,0.12624893,0.5335127,0.40570918,0.015108931,0.0003490782,0.045320183,0
208032330,207841729,-1.9764719,0.21489237,-2.1591067,-1.7091312,-0.8893036,1.6065125,-2.8075106,-0.037265673,-0.045650363,-0.04693699,0.0096538365,-0.019375652,0.027221065,0.016963627,-0.006685837,-0.004834667,0.033531178,0.5557048,0.39768934,0.008905776,7.777733e-05,0.037622314,0
209032640,208841729,-2.2641764,0.166224,-2.3470266,-1.9561696,-1.1586747,1.7231984,-2.87869,0.11127938,0.14360277,0.19807708,0.10704325,0.07586151,0.105600715,0.10079299,0.12961401,0.24588606,0.13342261,0.6557749,0.28526258,0.0016711546,1.388578e-05,0.05727747,0
210032567,209841729,-1.9785852,0.035433423,-1.9944988,-1.8943113,-1.668677,2.706089,-2.1474292,-0.013653636,0.01153326,0.07253134,-0.091670394,-0.049131513,0.05127573,0.0387398,0.020964384,0.40668637,0.07537925,0.64864755,0.3435522,0.00011753286,1.1863884e-06,0.0076816143,1
212032723,211841729,-1.9790674,0.016645227,-1.9908713,-1.9489185,-1.8533622,-2.8284073,-2.0544806,0.1784643,0.175089,0.1668905,0.21280575,0.18336654,0.1206131,0.123725176,0.1302476,0.038368702,0.11565375,0.69711107,0.2943034,3.3022316e-05,4.4284457e-06,0.008548027,1
213032572,212841729,-1.9953325,0.013111785,-2.0054688,-1.9684955,-1.8843086,-2.7511253,-2.0614824,-0.027354896,-0.03808981,-0.06351572,0.11897892,-0.011454344,0.14453554,0.1506679,0.16299653,-0.05194354,0.13447404,0.70152414,0.28980622,2.9448121e-05,2.065309e-06,0.008638229,1
214032524,213841729,-1.9852167,0.006139212,-1.9863209,-1.9676337,-1.925269,-2.3751655,-2.0144606,-0.07549802,-0.080241434,-0.09125871,0.014140625,-0.06832846,0.054615855,0.05639416,0.060065866,-0.0015979409,0.051790416,0.7188606,0.2720452,1.8363193e-05,1.5815518e-06,0.009074269,1
215032778,214841729,-1.9528149,0.0057722786,-1.9574002,-1.9403275,-1.90167,-2.3141918,-1.9830761,0.072524086,0.07246122,0.07229888,0.07304102,0.07262749,-0.03497105,-0.034739263,-0.03423898,-0.03980723,-0.035302103,0.7103947,0.28127205,2.065878e-05,1.4150632e-05,0.00829847,1
216032724,215841729,-1.9841404,0.005860793,-1.9887276,-1.9716926,-1.9331058,-2.3448846,-2.0143535,-0.12831013,-0.12813772,-0.12773289,-0.13098589,-0.12855005,-0.008468062,-0.008665219,-0.009119943,-0.0036290288,-0.008146569,0.70981073,0.28189826,2.0834255e-05,1.3042786e-05,0.00825708,1
217032745,216841729,-1.9959096,0.0056209806,-2.0002582,-1.9840229,-1.9472649,-2.3397775,-2.0246751,-0.082070746,-0.08130846,-0.07950067,-0.09405383,-0.08318601,0.011782557,0.010784537,0.008559957,0.035142377,0.0133203715,0.7111615,0.28048542,2.0230265e-05,8.830483e-06,0.008323876,1
218032725,217841729,-1.97392,0.0055748774,-1.9781268,-1.9624605,-1.9270219,-2.3059738,-2.0016732,0.12739486,0.12929362,0.13371259,0.09187503,0.1245502,0.1776715,0.1766552,0.17445666,0.20553312,0.17926966,0.7107196,0.28099176,2.0244008e-05,5.773198e-06,0.008262535,1
219032578,218841729,-1.958113,0.0039947145,-1.9614105,-1.9499938,-1.9238098,-2.2040734,-1.9787511,0.18633235,0.18526563,0.18279216,0.20788053,0.18796313,-0.026461005,-0.02608037,-0.025289655,-0.037127256,-0.02703619,0.6931273,0.29991737,5.5853056e-05,4.0323448e-05,0.0068591777,1
220032582,219841729,-1.9636469,0.0039532897,-1.966916,-1.9556494,-1.930296,-2.2044728,-1.9837809,-0.009976685,-0.010196269,-0.010718882,-0.0061544776,-0.009635866,0.09001267,0.09036064,0.091115,0.082321286,0.08950567,0.6923434,0.30077556,5.640757e-05,3.0504805e-05,0.006794092,1
221032364,220841729,-1.970657,0.003981829,-1.9754527,-1.9644214,-1.9391271,-2.2099166,-1.9922029,0.011895478,0.0101340115,0.0060564578,0.047819883,0.014582038,-0.015044153,-0.014528275,-0.013461709,-0.030256152,-0.015834332,0.69343305,0.29962626,5.547384e-05,3.1687465e-05,0.0068535777,1
222032307,221841729,-1.9231552,0.0038227022,-1.9223485,-1.912049,-1.8884076,-2.1415575,-1.9379975,-0.062284127,-0.06320827,-0.0653535,-0.04358605,-0.060870223,-0.12182009,-0.12143186,-0.1206153,-0.1320382,-0.122400254,0.6918108,0.30138776,5.640926e-05,1.657196e-05,0.00672851,1
223032317,222841729,-1.9430516,0.0038830785,-1.9526734,-1.9423263,-1.9190826,-2.170806,-1.9681355,-0.11146132,-0.11090483,-0.10960145,-0.121560395,-0.11228266,-0.0033705235,-0.0040293187,-0.0054995865,0.0118331015,-0.0023620129,0.6909883,0.3022606,5.705143e-05,1.4496418e-05,0.0066795507,1
224032278,223841729,-1.906875,0.0039458363,-1.9080455,-1.8978926,-1.8745798,-2.1241713,-1.9234743,0.10363922,0.10389138,0.10444869,0.09712897,0.103258274,-0.08326545,-0.082732454,-0.08154723,-0.09364015,-0.08403799,0.6920122,0.30117536,5.6139786e-05,1.552955e-05,0.006740661,1
225032340,224841729,-1.9912045,0.0040239836,-2.0006773,-1.9904684,-1.9675115,-2.2160165,-2.015946,-0.077225395,-0.07735675,-0.077654645,-0.07389122,-0.07700798,-0.071974896,-0.07216925,-0.07262639,-0.06810223,-0.07167128,0.6913767,0.3018488,5.6611094e-05,1.3992812e-05,0.0067038597,1
226032609,225841732,-1.9687574,0.004101258,-1.9717212,-1.9615344,-1.9386436,-2.1864727,-1.9869479,-0.040408246,-0.040222432,-0.039766163,-0.04227402,-0.04066176,-0.027402401,-0.028236639,-0.03011373,-0.009436815,-0.026139744,0.69203097,0.30115357,5.605125e-05,1.4813847e-05,0.006744577,1
227032311,226841729,-1.9519736,0.0041547036,-1.9585149,-1.9483999,-1.9256788,-2.1716783,-1.9736305,0.07596727,0.07644528,0.07755025,0.06641912,0.07525689,0.11635403,0.1161554,0.11571106,0.12175836,0.116676,0.6937874,0.29929087,5.4578606e-05,1.7132383e-05,0.0068499474,1
228032277,227841729,-2.0158818,0.0042231404,-2.0159402,-2.0058818,-1.9832631,-2.228146,-2.0309858,0.040144004,0.04041838,0.041057497,0.035118863,0.039746158,0.060575195,0.060285382,0.05962903,0.06740121,0.06102966,0.6928465,0.30029142,5.5320575e-05,1.5047097e-05,0.006791776,1
229032317,228841729,-1.9073644,0.004243676,-1.9215986,-1.9117111,-1.8895167,-2.1301172,-1.9363683,-0.034521043,-0.03426595,-0.033673584,-0.03933525,-0.034892023,0.0933294,0.09311582,0.09263019,0.0985063,0.09366906,0.6912439,0.30199653,5.6570123e-05,1.1568594e-05,0.006691462,1
230032315,229841728,-1.9292156,0.0042915763,-1.9355837,-1.9257841,-1.9037855,-2.1422348,-1.9502233,-0.024518464,-0.024578344,-0.024720691,-0.02320771,-0.024413493,0.063566566,0.063591,0.06362647,0.06305275,0.063545875,0.69291556,0.30022597,5.5149663e-05,1.3180886e-05,0.006790135,1
231032308,230841729,-1.968874,0.004387721,-1.9688703,-1.959069,-1.937054,-2.175628,-1.98352,-0.012837257,-0.012917183,-0.013099119,-0.010687288,-0.0126981735,0.03649144,0.036334734,0.035963856,0.03971429,0.036740378,0.6931287,0.299998,5.4967404e-05,1.3519537e-05,0.0068048653,1
232032287,231841729,-1.9649496,0.004464129,-1.9666631,-1.9568954,-1.9349583,-2.17274,-1.9812615,0.012308635,0.012817256,0.013993412,0.002077818,0.011550419,-0.0066211447,-0.0068172105,-0.0072543807,-0.0012443289,-0.00630356,0.6926936,0.30045894,5.529618e-05,1.2712652e-05,0.00677943,1
233032571,232841729,-1.9472427,0.0045591467,-1.9500741,-1.9403455,-1.9185036,-2.155315,-1.9646088,0.02129006,0.021296922,0.02133492,0.02281819,0.021305785,0.081251115,0.080555215,0.0789825,0.09591639,0.082303464,0.6920302,0.3011627,5.581278e-05,1.1636191e-05,0.006739592,1
235032416,234841729,-1.9303292,0.004618217,-1.9355689,-1.9261788,-1.9045938,-2.1353798,-1.9498492,0.08425694,0.08450927,0.08506809,0.077771,0.08387572,0.031924516,0.032480486,0.033715714,0.021005848,0.03111763,0.69337225,0.29974312,5.458717e-05,1.2076443e-05,0.006818027,1
237032323,236841729,-1.9648017,0.0047268244,-1.9656607,-1.9563032,-1.935294,-2.1630878,-1.9796445,0.07809926,0.07813545,0.078226924,0.07816039,0.07806401,-0.043585353,-0.043918863,-0.04468012,-0.03641334,-0.043071784,0.6944567,0.29859474,5.3655385e-05,1.2653741e-05,0.006882256,1
238032291,237841729,-1.9301426,0.0048096874,-1.9273028,-1.9180688,-1.8968328,-2.123689,-1.9413506,-0.015360832,-0.015228884,-0.014922336,-0.01768114,-0.015545012,-0.093149245,-0.093321614,-0.09371927,-0.08913508,-0.092873976,0.6952642,0.29773515,5.299876e-05,1.3766449e-05,0.0069337995,1
239032308,238841729,-1.9210707,0.0048924387,-1.9252129,-1.916026,-1.8948978,-2.120596,-1.9391881,0.0055922344,0.005295351,0.0046101063,0.012199372,0.0060605854,-0.053248994,-0.053350396,-0.053603113,-0.051649325,-0.05308766,0.6954178,0.29757282,5.2854004e-05,1.3709265e-05,0.0069426917,1
240032308,239841729,-1.9744688,0.0042465287,-1.9840016,-1.9760258,-1.957633,-2.1542552,-1.9961659,0.026334405,0.02688837,0.028045118,0.006953299,0.025437713,0.1540862,0.15793464,0.16654383,0.07470477,0.14838034,0.6947534,0.29831296,5.292011e-05,7.507792e-06,0.006873173,1
241032311,240841729,-1.979182,0.003867632,-1.9817486,-1.9748547,-1.9588715,-2.1296833,-1.9923117,0.016189575,0.016417742,0.016963601,0.012634993,0.015863419,0.024921328,0.024175152,0.02249524,0.041101307,0.026052449,0.68859404,0.30485946,5.7531375e-05,3.3293188e-06,0.0064856433,1
242032281,241841729,-1.9580281,0.003598704,-1.9564046,-1.9500619,-1.935308,-2.0926871,-1.9661468,0.031738997,0.03173572,0.03175485,0.033898294,0.03177452,-0.03691379,-0.03821519,-0.041141853,-0.009463417,-0.034959942,0.69131815,0.3019899,5.5093118e-05,3.5140442e-06,0.0066331606,1
243032316,242841729,-1.9481727,0.0034970066,-1.953664,-1.9475529,-1.933806,-2.0827932,-1.9628059,0.05502782,0.055236537,0.0557321,0.051392578,0.054726187,0.032471213,0.03194793,0.030767338,0.043881476,0.033267792,0.693558,0.299627,5.3179654e-05,3.822969e-06,0.0067580356,1
244032288,243841729,-1.960682,0.003022189,-1.958707,-1.9537889,-1.9422424,-2.0648823,-1.966313,0.18328488,0.18325603,0.18321478,0.18599606,0.18336022,0.069928944,0.06827258,0.06455763,0.104763,0.072405435,0.6960723,0.29698518,5.0921757e-05,6.1449455e-06,0.006885629,1
245032351,244841729,-1.9469126,0.0029544542,-1.9459559,-1.9412643,-1.9302183,-2.0474255,-1.9532272,-0.00457108,-0.004516244,-0.0044190884,-0.0072237253,-0.0046527386,-0.06597038,-0.064569086,-0.06145511,-0.09518371,-0.06803541,0.6943308,0.29884028,5.2170624e-05,4.6699547e-06,0.006772214,1
246032283,245841729,-1.9594358,0.0027034935,-1.963588,-1.9594079,-1.9495057,-2.0543563,-1.9701018,-0.024409384,-0.024266288,-0.023945495,-0.028327763,-0.024625644,-0.006897729,-0.0059893467,-0.003972914,-0.02570895,-0.0082311565,0.6922558,0.30104944,5.3618656e-05,3.0809997e-06,0.00663803,1
247032363,246841729,-1.950734,0.002638786,-1.9610344,-1.9571162,-1.9477962,-2.0463626,-1.9671636,-0.022337794,-0.022225678,-0.02198726,-0.026103258,-0.022509336,-0.0011591762,0.00034600496,0.0036963075,-0.032564566,-0.003381431,0.6922168,0.3010959,5.3572614e-05,2.7960546e-06,0.0066308547,1
248032539,247841729,-1.9722047,0.0024095236,-1.9731841,-1.9698204,-1.9617425,-2.0468605,-1.9784893,0.0071725845,0.0071029663,0.006939888,0.009600997,0.0073059797,-0.012760069,-0.013732437,-0.015924837,0.007781256,-0.011295918,0.6918808,0.3014572,5.365096e-05,2.2314782e-06,0.0066061555,1
249032305,248841729,-1.963059,0.002180865,-1.9567039,-1.9537551,-1.946606,-2.0215871,-1.9613885,0.12570572,0.12571666,0.12574711,0.12620579,0.1257093,-0.06564702,-0.06653528,-0.068537064,-0.046817236,-0.06430888,0.69456327,0.29862136,5.144182e-05,2.8173451e-06,0.006761124,1
250032310,249841729,-1.9461894,0.002178038,-1.9499177,-1.9471229,-1.9403195,-2.0115275,-1.9543698,0.20097315,0.20098364,0.2010063,0.20101213,0.20097268,-0.11354346,-0.113797836,-0.11438208,-0.10805428,-0.11314905,0.69518644,0.2979553,5.0925744e-05,1.2213466e-05,0.006795109,1
251032321,250841729,-1.9396874,0.0022548304,-1.9425288,-1.9397542,-1.932991,-2.0037465,-1.9469541,0.06591594,0.06598532,0.066144824,0.064207256,0.06581718,-0.060646832,-0.06023018,-0.059314176,-0.0692261,-0.061249927,0.69459355,0.29858539,5.136701e-05,1.1390334e-05,0.0067582126,1
252032277,251841729,-1.9535033,0.002261539,-1.9539543,-1.9512843,-1.944757,-2.0129747,-1.9582244,0.078443736,0.07853742,0.07875918,0.0762586,0.07830593,-0.039838146,-0.039510753,-0.03879398,-0.046524893,-0.040308304,0.69401944,0.299196,5.1767758e-05,1.0385927e-05,0.006722368,1
253032317,252841729,-1.9789939,0.0023449434,-1.9800708,-1.9772621,-1.9708813,-2.0396566,-1.9843044,-0.006706178,-0.006650336,-0.006518908,-0.00783886,-0.0067809895,0.040912326,0.040909838,0.04088876,0.04113874,0.040932808,0.69424844,0.2989534,5.1591258e-05,1.057377e-05,0.0067359707,1
254032514,253841729,-1.938075,0.002417171,-1.9388756,-1.9361075,-1.9298345,-1.9975334,-1.9430408,-0.022164643,-0.022168994,-0.022188067,-0.02204609,-0.022143424,-0.20519839,-0.20506585,-0.20478483,-0.20786357,-0.20538014,0.693856,0.2993684,5.1873583e-05,1.00349225e-05,0.006713765,1
255032539,254841729,-1.954193,0.0024451425,-1.9549204,-1.9523915,-1.946182,-2.0109658,-1.9589802,0.007678805,0.0076243877,0.007487146,0.00932119,0.007785417,-0.09779512,-0.09832393,-0.09952249,-0.08657258,-0.09699224,0.69465345,0.29852223,5.1241965e-05,1.0740294e-05,0.006762254,1
256032278,255841729,-1.9951497,0.002484763,-1.9969643,-1.9943184,-1.9882977,-2.0531242,-2.000956,0.0124307275,0.01246196,0.012532383,0.0118393,0.012396187,0.10079383,0.10080553,0.10081486,0.100711726,0.10079401,0.69479555,0.2983341,5.1105366e-05,4.6660734e-05,0.006772667,1
258032290,257841729,-1.9346119,0.0026654664,-1.9382501,-1.9356092,-1.9296285,-1.9941727,-1.9422197,0.07269447,0.07270787,0.072732985,0.072424375,0.0726876,-0.011661064,-0.011527859,-0.011246741,-0.014315231,-0.011842221,0.6948121,0.2983186,5.1080115e-05,4.6539542e-05,0.006771782,1
259032308,258841731,-1.9589472,0.0027054076,-1.9593072,-1.9568868,-1.9509292,-2.0130236,-1.9631989,0.084788635,0.08460896,0.08415185,0.08886692,0.08509579,0.2208693,0.22094208,0.22108719,0.21935129,0.22077614,0.6941904,0.2989834,5.156179e-05,4.2917873e-05,0.006731764,1
260032321,259841729,-1.9596194,0.002776439,-1.9595082,-1.9569592,-1.9511882,-2.0134559,-1.9633359,0.058328673,0.058322504,0.058301136,0.05863762,0.058354422,-0.11543894,-0.11555582,-0.11583251,-0.11285365,-0.115249336,0.69503915,0.29807395,5.0848637e-05,4.6981175e-05,0.006789072,1
261032344,260841729,-2.001785,0.0028558925,-2.009139,-2.0066094,-2.0008597,-2.062775,-2.0129485,0.17191777,0.17203115,0.17230815,0.16951816,0.17174903,0.067899525,0.06785154,0.067729354,0.06911582,0.0679878,0.69540644,0.297682,5.0560502e-05,4.880429e-05,0.0068121105,1
262032283,261841729,-1.9662557,0.0029221883,-1.9641336,-1.9616178,-1.9559234,-2.0173597,-1.9679102,0.0009929836,0.0012371838,0.001840502,-0.004392326,0.0006111562,0.0767203,0.0767867,0.07692021,0.07562238,0.07664013,0.6960124,0.29703403,5.008136e-05,5.2048064e-05,0.0068513677,1
263032313,262841729,-1.9394798,0.0029186585,-1.9388081,-1.9363579,-1.9308338,-1.9905549,-1.9424777,0.0073996186,0.0076851696,0.008391999,0.0010320842,0.0069488436,-0.014319003,-0.0141580105,-0.013814062,-0.017378807,-0.014539167,0.69645435,0.29655987,4.967567e-05,5.416452e-05,0.0068819183,1
264032269,263841729,-1.9243536,0.0029662405,-1.9269903,-1.9247518,-1.9192209,-1.9767574,-1.9306028,-0.11648872,-0.116467595,-0.11642207,-0.11684626,-0.11650704,-0.0673794,-0.06738818,-0.06742418,-0.06704283,-0.06734933,0.6967615,0.2962316,4.9428527e-05,5.5632598e-05,0.0069018477,1
265032318,264841729,-1.9904019,0.0029554684,-1.9917487,-1.9894376,-1.9842262,-2.0405898,-1.9952153,-0.02307184,-0.022715874,-0.021829478,-0.030904755,-0.023637839,0.027843714,0.02777934,0.02762413,0.029537678,0.027957022,0.6963531,0.29667398,4.9760463e-05,5.2058058e-05,0.0068711443,1
266032514,265841729,-1.9725746,0.0030171988,-1.9732225,-1.9709561,-1.9658629,-2.021048,-1.9766148,0.05102745,0.05096655,0.050807,0.0525486,0.051142987,0.0059224367,0.005823612,0.005589843,0.0080833435,0.0060834885,0.6960555,0.29699528,4.998977e-05,4.9807593e-05,0.0068494724,1
267032544,266841729,-1.9776428,0.0029888072,-1.9782727,-1.9760721,-1.971145,-2.024605,-1.9815545,-0.06865927,-0.069032826,-0.06997879,-0.060191803,-0.068032,-0.06330079,-0.063265264,-0.0632059,-0.06412053,-0.06333852,0.6958415,0.2972306,5.0193008e-05,4.775324e-05,0.006829931,1
268032331,267841729,-1.9484904,0.0029719418,-1.9462296,-1.9440943,-1.9393486,-1.9910029,-1.9493927,-0.012422239,-0.012617903,-0.013116831,-0.007953251,-0.012086773,0.0048911646,0.0049415007,0.005034253,0.0038721412,0.00483308,0.695367,0.29774094,5.057751e-05,4.4619985e-05,0.0067968704,1
269032558,268841729,-1.9596002,0.003063895,-1.9602095,-1.958088,-1.9533696,-2.004702,-1.9633522,-0.010688741,-0.010745514,-0.010895543,-0.009313673,-0.010580055,0.16785887,0.16787156,0.16788298,0.16770086,0.16785672,0.69515115,0.29796997,5.073245e-05,4.355646e-05,0.0067845574,1
270032514,269841729,-1.3039267,0.003105633,-1.3045224,-1.3024576,-1.2979327,-1.3475423,-1.3075417,0.017055586,0.017170995,0.017453186,0.014556661,0.016882643,-0.049586535,-0.049541593,-0.049458742,-0.05032319,-0.049634993,0.6941957,0.2989882,5.1466075e-05,3.886922e-05,0.0067256587,1
271032314,270841729,-0.38844198,0.0031685417,-0.2951873,-0.29315567,-0.28870583,-0.33746058,-0.29815823,-0.0540964,-0.053859286,-0.05327099,-0.059295133,-0.054467857,-0.011451095,-0.0114685,-0.0115196705,-0.010836601,-0.011408806,0.6939906,0.29920372,5.159343e-05,3.795462e-05,0.0067159827,1
272032303,271841729,0.61593014,0.0032745085,0.6976526,0.69955623,0.7040418,0.65648204,0.694698,-0.018492438,-0.018388398,-0.01813455,-0.020732284,-0.01864694,-0.02117322,-0.02114126,-0.02108648,-0.021649059,-0.021202978,0.69392544,0.2992717,5.1633702e-05,3.7614114e-05,0.006713537,1
273032353,272841729,1.5576909,0.0034301109,1.6561788,1.6581925,1.6625434,1.6145357,1.6532646,0.08797964,0.08798397,0.087987974,0.0879844,0.0879875,0.0064189434,0.0064168647,0.006398052,0.0065903813,0.0064372495,0.69407356,0.2991167,5.152763e-05,3.810623e-05,0.0067200707,1
274032338,273841729,2.5070417,0.0035870841,2.5863452,2.5883074,2.5927176,2.5449722,2.583415,0.05604743,0.056028992,0.05597546,0.05656611,0.05609312,-0.057120726,-0.057120096,-0.057133935,-0.057010915,-0.057105742,0.6940017,0.29919413,5.158762e-05,3.776434e-05,0.006714941,1
275032271,274841729,-2.7940245,0.00375412,-2.700657,-2.698687,-2.6943204,-2.7419693,-2.7035658,-0.04159921,-0.041546226,-0.04142171,-0.042685777,-0.04166836,0.00921832,0.009262497,0.009341303,0.008481401,0.009172738,0.6939957,0.29919997,5.1589628e-05,3.7755588e-05,0.0067149745,1
276032544,275841729,-1.6908232,0.003937879,-1.6914028,-1.6893932,-1.6850479,-1.732958,-1.6943123,-0.0057769325,-0.005831425,-0.00597653,-0.0044499794,-0.0056709033,0.07318844,0.07321386,0.07325229,0.07277691,0.073168576,0.694376,0.29879823,5.1304098e-05,3.9216055e-05,0.0067352303,1
277032507,276841729,-0.6977557,0.0041067074,-0.69831085,-0.6963829,-0.69195884,-0.7394166,-0.70123935,-0.014403425,-0.014409341,-0.014431931,-0.014194664,-0.014378637,-0.054511033,-0.054443784,-0.054313265,-0.05577503,-0.05459269,0.6943241,0.2988542,5.1348157e-05,3.8952792e-05,0.0067313816,1
278032578,277841729,-0.06290016,0.0042264685,-0.06341569,-0.061621312,-0.057112917,-0.103675105,-0.06635159,-0.04659906,-0.046597794,-0.046602115,-0.04655616,-0.046586484,-0.13681301,-0.13674213,-0.13660333,-0.13815182,-0.13690029,0.6942028,0.2989837,5.143663e-05,3.8418904e-05,0.0067236484,1
279032302,278841729,-0.12947525,0.004313471,-0.1371611,-0.1353659,-0.13086604,-0.17738852,-0.14009205,-0.055853557,-0.055887446,-0.05597931,-0.054993615,-0.055783596,-0.028898275,-0.028901761,-0.0289233,-0.028721713,-0.02887858,0.6942308,0.29895496,5.1419163e-05,3.8490212e-05,0.0067243995,1
281032682,280841729,-0.18224588,0.0044930656,-0.18282124,-0.18082811,-0.1765133,-0.2240416,-0.18570723,0.22122023,0.22127171,0.22139372,0.22013158,0.22115071,-0.0067543834,-0.006670326,-0.006503254,-0.00833524,-0.0068598837,0.6941659,0.29902706,5.1466646e-05,3.811248e-05,0.006717488,1
282032713,281841729,-0.19489527,0.0045731193,-0.19546814,-0.1934828,-0.1891818,-0.23654844,-0.1983457,-0.043367237,-0.04336475,-0.043366265,-0.043343112,-0.043355327,-0.0038951747,-0.0038251895,-0.003689753,-0.0052018035,-0.003979504,0.6942514,0.29893747,5.141076e-05,3.8378977e-05,0.0067213387,1
283032521,282841729,-0.17798555,0.0046557114,-0.17777398,-0.17598496,-0.1715113,-0.21781492,-0.1806897,-0.0686836,-0.06861208,-0.06844153,-0.07016673,-0.06878073,0.048398748,0.048431605,0.048484124,0.047923416,0.04837218,0.6943514,0.2988345,5.1355022e-05,3.8650498e-05,0.006724006,1
284032711,283841729,-0.7481312,0.0047360114,-0.7486697,-0.7468048,-0.742494,-0.7885867,-0.75151837,-0.052533224,-0.05248393,-0.052369207,-0.053641275,-0.052597955,-0.14768389,-0.14740409,-0.14681828,-0.15328243,-0.14806888,0.69371945,0.29951033,5.1866493e-05,3.5844114e-05,0.0066825696,1
285032504,284841729,-1.8410144,0.0049328,-1.9463559,-1.9444438,-1.940246,-1.986186,-1.9491571,0.05890268,0.058838665,0.05866322,0.060430378,0.059034348,-0.12346259,-0.12322414,-0.12273784,-0.12817708,-0.12377782,0.69378424,0.29944295,5.1826722e-05,3.596859e-05,0.0066850055,1
286032578,285841729,-1.8410144,0.0049328,-1.9532778,-1.9513667,-1.947168,-1.9931026,-1.9560792,0.05890268,0.058838665,0.05866322,0.060430378,0.059034348,-0.12346259,-0.12322414,-0.12273784,-0.12817708,-0.12377782,0.69378424,0.29944295,5.1826722e-05,3.596859e-05,0.0066850055,1
287032533,286841729,-1.8410144,0.0049328,-1.8525507,-1.8508097,-1.8464745,-1.891437,-1.8553773,0.05890268,0.058838665,0.05866322,0.060430378,0.059034348,-0.12346259,-0.12322414,-0.12273784,-0.12817708,-0.12377782,0.69378424,0.29944295,5.1826722e-05,3.596859e-05,0.0066850055,1
288032566,287841729,-1.8410144,0.0049328,-1.8847058,-1.8829612,-1.8786304,-1.9236081,-1.8875313,0.05890268,0.058838665,0.05866322,0.060430378,0.059034348,-0.12346259,-0.12322414,-0.12273784,-0.12817708,-0.12377782,0.69378424,0.29944295,5.1826722e-05,3.596859e-05,0.0066850055,1
289032506,288841729,-1.8410144,0.0049328,-1.9188508,-1.917102,-1.9127761,-1.9577719,-1.9216746,0.05890268,0.058838665,0.05866322,0.060430378,0.059034348,-0.12346259,-0.12322414,-0.12273784,-0.12817708,-0.12377782,0.69378424,0.29944295,5.1826722e-05,3.596859e-05,0.0066850055,1
290032545,289841729,-1.8410144,0.0049328,-1.961017,-1.9592627,-1.9549433,-1.9999624,-1.9638387,0.05890268,0.058838665,0.05866322,0.060430378,0.059034348,-0.12346259,-0.12322414,-0.12273784,-0.12817708,-0.12377782,0.69378424,0.29944295,5.1826722e-05,3.596859e-05,0.0066850055,1
291032289,290841729,-1.8410144,0.0049328,-1.994639,-1.9927334,-1.988528,-2.034441,-1.9974427,0.05890268,0.058838665,0.05866322,0.060430378,0.059034348,-0.12346259,-0.12322414,-0.12273784,-0.12817708,-0.12377782,0.69378424,0.29944295,5.1826722e-05,3.596859e-05,0.0066850055,1
292032323,291841730,-1.8410144,0.0049328,-2.018104,-2.0162022,-2.011993,-2.057889,-2.0209088,0.05890268,0.058838665,0.05866322,0.060430378,0.059034348,-0.12346259,-0.12322414,-0.12273784,-0.12817708,-0.12377782,0.69378424,0.29944295,5.1826722e-05,3.596859e-05,0.0066850055,1
293032314,292841729,-1.8410144,0.0049328,-1.9530416,-1.95113,-1.946931,-1.992873,-1.9558436,0.05890268,0.058838665,0.05866322,0.060430378,0.059034348,-0.12346259,-0.12322414,-0.12273784,-0.12817708,-0.12377782,0.69378424,0.29944295,5.1826722e-05,3.596859e-05,0.0066850055,1
294032323,293841729,-1.8410144,0.0049328,-1.9905233,-1.9887654,-1.9844515,-2.0294805,-1.9933431,0.05890268,0.058838665,0.05866322,0.060430378,0.059034348,-0.12346259,-0.12322414,-0.12273784,-0.12817708,-0.12377782,0.69378424,0.29944295,5.1826722e-05,3.596859e-05,0.0066850055,1
295032287,294841732,-1.8410144,0.0049328,-1.9493421,-1.9475898,-1.9432694,-1.9882718,-1.9521633,0.05890268,0.058838665,0.05866322,0.060430378,0.059034348,-0.12346259,-0.12322414,-0.12273784,-0.12817708,-0.12377782,0.69378424,0.29944295,5.1826722e-05,3.596859e-05,0.0066850055,1
296032320,295841729,-1.8410144,0.0049328,-1.9573414,-1.9555881,-1.9512688,-1.9962753,-1.960162,0.05890268,0.058838665,0.05866322,0.060430378,0.059034348,-0.12346259,-0.12322414,-0.12273784,-0.12817708,-0.12377782,0.69378424,0.29944295,5.1826722e-05,3.596859e-05,0.0066850055,1
297032278,296841729,-1.8410144,0.0049328,-1.8955798,-1.8938344,-1.8895066,-1.9344777,-1.8984026,0.05890268,0.058838665,0.05866322,0.060430378,0.059034348,-0.12346259,-0.12322414,-0.12273784,-0.12817708,-0.12377782,0.69378424,0.29944295,5.1826722e-05,3.596859e-05,0.0066850055,1
307342593,307151729,0.0,2.4674013,-2.5132742,-1.2566371,0.0,1.2566371,2.5132742,0.0,0.0,0.0,0.0,0.0,0.0,0.0,0.0,0.0,0.0,0.2,0.2,0.2,0.2,0.2,0
307352319,307161730,0.0,2.4674013,-2.5133328,-1.2566957,-5.856677e-05,1.2565786,2.5132158,0.0,0.0,0.0,0.0,0.0,0.0,0.0,0.0,0.0,0.0,0.2,0.2,0.2,0.2,0.2,0
308342514,308151729,-2.4279342,2.4123998,-2.5075622,-1.3660363,-0.07862418,1.3707536,2.6617253,0.19511443,0.17689764,0.18441862,0.20833355,0.21200502,-0.1325687,-0.14497519,-0.1673877,-0.16472924,-0.1436855,0.29201064,0.2314574,0.13604337,0.12823743,0.21225122,0
309342515,309151728,-1.9888427,0.012360144,-2.0007453,-1.8791126,-1.604188,1.6156713,-2.2147152,0.14340532,0.26582325,0.5030128,-1.8931198,-0.08206785,0.007597685,0.11858082,0.45011002,1.4384102,-0.19231415,0.8934376,0.10650237,5.5226633e-06,5.5226633e-06,4.89227e-05,1
310342786,310151729,-1.9073044,0.0051497365,-1.9153864,-1.8741887,-1.7877278,1.5596437,-1.990919,-0.28649402,-0.28963518,-0.29111934,-0.64952636,-0.27762413,0.0054323673,-0.010921001,-0.04467702,1.2456439,0.030087471,0.80381423,0.19609736,6.303837e-05,7.311384e-06,1.8098382e-05,1
311342504,311151729,-1.9777807,0.0037698199,-1.9814632,-1.9487311,-1.8820142,1.4871639,-2.0445094,-0.42660606,-0.4394623,-0.46382153,0.8222058,-0.3999033,-0.057291865,-0.077519774,-0.1189971,-0.64597917,-0.022691369,0.8732503,0.12666643,1.7724846e-05,1.7724846e-05,4.7748184e-05,1
312342556,312151729,-1.9777807,0.0037698199,-1.9444112,-1.9117236,-1.8450307,1.524099,-2.0075278,-0.42660606,-0.4394623,-0.46382153,0.8222058,-0.3999033,-0.057291865,-0.077519774,-0.1189971,-0.64597917,-0.022691369,0.8732503,0.12666643,1.7724846e-05,1.7724846e-05,4.7748184e-05,1
313342518,313151728,-1.9777807,0.0037698199,-1.9170278,-1.883209,-1.816003,1.5514375,-1.9780844,-0.42660606,-0.4394623,-0.46382153,0.8222058,-0.3999033,-0.057291865,-0.077519774,-0.1189971,-0.64597917,-0.022691369,0.8732503,0.12666643,1.7724846e-05,1.7724846e-05,4.7748184e-05,1
314342582,314151729,-1.9777807,0.0037698199,-1.9108778,-1.8770524,-1.809842,1.557616,-1.9719226,-0.42660606,-0.4394623,-0.46382153,0.8222058,-0.3999033,-0.057291865,-0.077519774,-0.1189971,-0.64597917,-0.022691369,0.8732503,0.12666643,1.7724846e-05,1.7724846e-05,4.7748184e-05,1
315342299,315151728,-1.9777807,0.0037698199,-1.9143773,-1.8805542,-1.8133401,1.5541481,-1.9754285,-0.42660606,-0.4394623,-0.46382153,0.8222058,-0.3999033,-0.057291865,-0.077519774,-0.1189971,-0.64597917,-0.022691369,0.8732503,0.12666643,1.7724846e-05,1.7724846e-05,4.7748184e-05,1
316342339,316151729,-1.9777807,0.0037698199,-1.9647448,-1.9309863,-1.8638097,1.5036608,-2.025868,-0.42660606,-0.4394623,-0.46382153,0.8222058,-0.3999033,-0.057291865,-0.077519774,-0.1189971,-0.64597917,-0.022691369,0.8732503,0.12666643,1.7724846e-05,1.7724846e-05,4.7748184e-05,1
317342284,317151729,-1.9777807,0.0037698199,-1.9348462,-1.9021654,-1.8354856,1.5334679,-1.9980001,-0.42660606,-0.4394623,-0.46382153,0.8222058,-0.3999033,-0.057291865,-0.077519774,-0.1189971,-0.64597917,-0.022691369,0.8732503,0.12666643,1.7724846e-05,1.7724846e-05,4.7748184e-05,1
318342326,318151729,-1.9777807,0.0037698199,-1.9557132,-1.9219415,-1.8547415,1.512899,-2.016811,-0.42660606,-0.4394623,-0.46382153,0.8222058,-0.3999033,-0.057291865,-0.077519774,-0.1189971,-0.64597917,-0.022691369,0.8732503,0.12666643,1.7724846e-05,1.7724846e-05,4.7748184e-05,1
319342548,319151729,-1.9777807,0.0037698199,-2.0003438,-1.9666363,-1.8994793,1.4681122,-2.0615087,-0.42660606,-0.4394623,-0.46382153,0.8222058,-0.3999033,-0.057291865,-0.077519774,-0.1189971,-0.64597917,-0.022691369,0.8732503,0.12666643,1.7724846e-05,1.7724846e-05,4.7748184e-05,1
320342534,320151729,-1.9777807,0.0037698199,-1.9779114,-1.9451716,-1.8784602,1.4904526,-2.041007,-0.42660606,-0.4394623,-0.46382153,0.8222058,-0.3999033,-0.057291865,-0.077519774,-0.1189971,-0.64597917,-0.022691369,0.8732503,0.12666643,1.7724846e-05,1.7724846e-05,4.7748184e-05,1
321342291,321151728,-1.9777807,0.0037698199,-1.8447748,-1.8108652,-1.7435678,1.6242402,-1.9057349,-0.42660606,-0.4394623,-0.46382153,0.8222058,-0.3999033,-0.057291865,-0.077519774,-0.1189971,-0.64597917,-0.022691369,0.8732503,0.12666643,1.7724846e-05,1.7724846e-05,4.7748184e-05,1
322342328,322151729,-1.9777807,0.0037698199,-1.9206939,-1.886875,-1.8196418,1.5480486,-1.9817431,-0.42660606,-0.4394623,-0.46382153,0.8222058,-0.3999033,-0.057291865,-0.077519774,-0.1189971,-0.64597917,-0.022691369,0.8732503,0.12666643,1.7724846e-05,1.7724846e-05,4.7748184e-05,1
323342327,323151729,-1.9777807,0.0037698199,-1.9999418,-1.9671675,-1.9004284,1.4685339,-2.0630074,-0.42660606,-0.4394623,-0.46382153,0.8222058,-0.3999033,-0.057291865,-0.077519774,-0.1189971,-0.64597917,-0.022691369,0.8732503,0.12666643,1.7724846e-05,1.7724846e-05,4.7748184e-05,1
325342290,325151729,-1.9777807,0.0037698199,-1.9498405,-1.9171356,-1.8504407,1.5184733,-2.0129855,-0.42660606,-0.4394623,-0.46382153,0.8222058,-0.3999033,-0.057291865,-0.077519774,-0.1189971,-0.64597917,-0.022691369,0.8732503,0.12666643,1.7724846e-05,1.7724846e-05,4.7748184e-05,1
326342320,326151729,-1.9777807,0.0037698199,-1.9697946,-1.9360467,-1.8688734,1.4986761,-2.0309095,-0.42660606,-0.4394623,-0.46382153,0.8222058,-0.3999033,-0.057291865,-0.077519774,-0.1189971,-0.64597917,-0.022691369,0.8732503,0.12666643,1.7724846e-05,1.7724846e-05,4.7748184e-05,1
327342299,327151729,-1.9777807,0.0037698199,-1.9648347,-1.9310814,-1.8639067,1.5036325,-2.0259404,-0.42660606,-0.4394623,-0.46382153,0.8222058,-0.3999033,-0.057291865,-0.077519774,-0.1189971,-0.64597917,-0.022691369,0.8732503,0.12666643,1.7724846e-05,1.7724846e-05,4.7748184e-05,1
328342332,328151729,-1.9777807,0.0037698199,-1.9634084,-1.9296527,-1.8624758,1.505063,-2.0245132,-0.42660606,-0.4394623,-0.46382153,0.8222058,-0.3999033,-0.057291865,-0.077519774,-0.1189971,-0.64597917,-0.022691369,0.8732503,0.12666643,1.7724846e-05,1.7724846e-05,4.7748184e-05,1
329342319,329151729,-1.9777807,0.0037698199,-1.9704219,-1.9376869,-1.8709602,1.4980615,-2.0335374,-0.42660606,-0.4394623,-0.46382153,0.8222058,-0.3999033,-0.057291865,-0.077519774,-0.1189971,-0.64597917,-0.022691369,0.8732503,0.12666643,1.7724846e-05,1.7724846e-05,4.7748184e-05,1
330342439,330151729,-1.9777807,0.0037698199,-1.9837687,-1.9510089,-1.8842616,1.4847603,-2.0468771,-0.42660606,-0.4394623,-0.46382153,0.8222058,-0.3999033,-0.057291865,-0.077519774,-0.1189971,-0.64597917,-0.022691369,0.8732503,0.12666643,1.7724846e-05,1.7724846e-05,4.7748184e-05,1
331342291,331151728,-1.9777807,0.0037698199,-1.994434,-1.9607522,-1.8936474,1.4738876,-2.0555212,-0.42660606,-0.4394623,-0.46382153,0.8222058,-0.3999033,-0.057291865,-0.077519774,-0.1189971,-0.64597917,-0.022691369,0.8732503,0.12666643,1.7724846e-05,1.7724846e-05,4.7748184e-05,1
332342325,332151729,-1.9777807,0.0037698199,-1.9576229,-1.9238877,-1.8567433,1.5108658,-2.018654,-0.42660606,-0.4394623,-0.46382153,0.8222058,-0.3999033,-0.057291865,-0.077519774,-0.1189971,-0.64597917,-0.022691369,0.8732503,0.12666643,1.7724846e-05,1.7724846e-05,4.7748184e-05,1
332622315,332431729,-1.9777807,0.0037698199,-1.9716805,-1.9379655,-1.8708357,1.4967519,-2.0327315,-0.42660606,-0.4394623,-0.46382153,0.8222058,-0.3999033,-0.057291865,-0.077519774,-0.1189971,-0.64597917,-0.022691369,0.8732503,0.12666643,1.7724846e-05,1.7724846e-05,4.7748184e-05,1
