timestamp,timestamp_sample,control_mode_flags,output_tracking_error[0],output_tracking_error[1],output_tracking_error[2],filter_fault_flags,pos_horiz_accuracy,pos_vert_accuracy,mag_test_ratio,vel_test_ratio,pos_test_ratio,hgt_test_ratio,tas_test_ratio,hagl_test_ratio,beta_test_ratio,time_slip,accel_device_id,gyro_device_id,baro_device_id,mag_device_id,mag_inclination_deg,mag_inclination_ref_deg,mag_strength_gs,mag_strength_ref_gs,gps_check_fail_flags,innovation_check_flags,solution_status_flags,reset_count_vel_ne,reset_count_vel_d,reset_count_pos_ne,reset_count_pod_d,reset_count_quat,pre_flt_fail_innov_heading,pre_flt_fail_innov_vel_horiz,pre_flt_fail_innov_vel_vert,pre_flt_fail_innov_height,pre_flt_fail_mag_field_disturbed,health_flags,timeout_flags
200065980,199875671,171865803351,0.00010094864,0.0036277196,0.004597912,0,0.24088447,0.2277252,0.0074188947,0.030491548,0.011484206,0.013217531,0.0,nan,0.0,0.0,3407882,3407882,6780433,466953,73.4078,73.66653,0.50984734,0.5250894,0,0,895,3,2,3,2,2,0,0,0,0,0,0,0
200075980,199885671,171865803351,0.00010595814,0.0035136228,0.0045271027,0,0.24148962,0.22812012,0.0074188947,0.030491548,0.011484206,0.013217531,0.0,nan,0.0,0.0,3407882,3407882,6780433,466953,73.4078,73.66653,0.50984734,0.5250894,0,0,895,3,2,3,2,2,0,0,0,0,0,0,0
200265971,200075671,171865803351,0.00012460434,0.002324554,0.0035444922,0,0.24097995,0.22787458,0.008019309,0.015685149,0.010917138,0.012484434,0.0,nan,0.0,0.0,3407882,3407882,6780433,466953,73.44838,73.66653,0.5107255,0.5250894,0,0,895,3,2,3,2,2,0,0,0,0,0,0,0
200465974,200275671,171865803351,0.00012381702,0.0023282443,0.0038168777,0,0.24112357,0.22803912,0.014776089,0.02616967,0.00999742,0.011309497,0.0,nan,0.0,0.0,3407882,3407882,6780433,466953,73.280266,73.66653,0.5092353,0.5250894,0,0,895,3,2,3,2,2,0,0,0,0,0,0,0
200666249,200475671,171865803351,0.0003505298,0.0019817892,0.0028141558,0,0.24126552,0.22820462,0.02128235,0.029617218,0.011725925,0.017342415,0.0,nan,0.0,0.0,3407882,3407882,6780433,466953,73.1181,73.66653,0.5107499,0.5250894,0,0,895,3,2,3,2,2,0,0,0,0,0,0,0
200866004,200675671,171865803351,0.00028008336,0.0042323256,0.0045545306,0,0.2414099,0.22788936,0.021080537,0.037350684,0.012354066,0.011225437,0.0,nan,0.0,0.0,3407882,3407882,6780433,466953,73.09151,73.66653,0.51032025,0.5250894,0,0,895,3,2,3,2,2,0,0,0,0,0,0,0
201066032,200875672,171865803351,0.00024626034,0.0011291447,0.0015747615,0,0.241549,0.228054,0.02804744,0.014865772,0.010208195,0.012820582,0.0,nan,0.0,0.0,3407882,3407882,6780433,466953,72.98813,73.66653,0.5104686,0.5250894,0,0,895,3,2,3,2,2,0,0,0,0,0,0,0
201265987,201075703,171865803351,0.00072834163,0.0051180064,0.0064133145,0,0.24166517,0.22821291,0.026363837,0.04282984,0.011505628,0.014127964,0.0,nan,0.0,0.0,3407882,3407882,6780433,466953,73.022545,73.66653,0.5105702,0.5250894,0,0,895,3,2,3,2,2,0,0,0,0,0,0,0
201465989,201275671,171865803351,0.00087942794,0.003382203,0.005070105,0,0.2418013,0.22837108,0.017290005,0.03135238,0.009193951,0.0125452,0.0,nan,0.0,0.0,3407882,3407882,6780433,466953,73.05752,73.66653,0.5100579,0.5250894,0,0,895,3,2,3,2,2,0,0,0,0,0,0,0
201666274,201475671,171865803351,0.0006423584,0.0022988112,0.005034368,0,0.2419381,0.22853182,0.014932852,0.025155388,0.009606979,0.010324689,0.0,nan,0.0,0.0,3407882,3407882,6780433,466953,73.17058,73.66653,0.5106698,0.5250894,0,0,895,3,2,3,2,2,0,0,0,0,0,0,0
201865987,201675673,171865803351,0.00055587414,0.0013427385,0.0036144897,0,0.24207102,0.22868687,0.019474009,0.012054942,0.009086507,0.009458199,0.0,nan,0.0,0.0,3407882,3407882,6780433,466953,73.24936,73.66653,0.51053065,0.5250894,0,0,895,3,2,3,2,2,0,0,0,0,0,0,0
202065976,201875671,171865803351,0.00026562254,0.0038458754,0.0068758037,0,0.24219972,0.22883794,0.02627543,0.03632746,0.00935222,0.014583556,0.0,nan,0.0,0.0,3407882,3407882,6780433,466953,72.95908,73.66653,0.5099138,0.5250894,0,0,895,3,2,3,2,2,0,0,0,0,0,0,0
202265994,202075671,171865803351,0.0010112283,0.0036897683,0.005443767,0,0.2422983,0.22897618,0.0143073695,0.046130415,0.0067326757,0.009198081,0.0,nan,0.0,0.0,3407882,3407882,6780433,466953,73.34052,73.66653,0.5107542,0.5250894,0,0,895,3,2,3,2,2,0,0,0,0,0,0,0
202465969,202275693,171865803351,0.00096331915,0.0028013075,0.004848088,0,0.24241664,0.22911999,0.027863132,0.04242411,0.0069096005,0.008979983,0.0,nan,0.0,0.0,3407882,3407882,6780433,466953,73.05377,73.66653,0.5099489,0.5250894,0,0,895,3,2,3,2,2,0,0,0,0,0,0,0
202666235,202475672,171865803351,0.00090978586,0.0037586638,0.005201846,0,0.24253328,0.22925763,0.012183831,0.01598751,0.007595963,0.011869223,0.0,nan,0.0,0.0,3407882,3407882,6780433,466953,73.245995,73.66653,0.5107981,0.5250894,0,0,895,3,2,3,2,2,0,0,0,0,0,0,0
202865977,202675671,171865803351,0.00049584074,0.0013736369,0.0030412795,0,0.24264945,0.22939348,0.020670729,0.015871402,0.006440055,0.0215468,0.0,nan,0.0,0.0,3407882,3407882,6780433,466953,73.02592,73.66653,0.50987923,0.5250894,0,0,895,3,2,3,2,2,0,0,0,0,0,0,0
203066000,202875671,171865803351,0.00041276022,0.0038796954,0.004851375,0,0.24275623,0.22952542,0.01540666,0.022592917,0.0058095288,0.014546629,0.0,nan,0.0,0.0,3407882,3407882,6780433,466953,73.28083,73.66653,0.51053005,0.5250894,0,0,895,3,2,3,2,2,0,0,0,0,0,0,0
203265993,203075681,171865803351,0.00046546344,0.0024267451,0.003314,0,0.24284191,0.22964785,0.022564583,0.006255425,0.006766722,0.011596784,0.0,nan,0.0,0.0,3407882,3407882,6780433,466953,72.99951,73.66653,0.50999546,0.5250894,0,0,895,3,2,3,2,2,0,0,0,0,0,0,0
203466026,203275698,171865803351,0.0007193305,0.0031746519,0.00453952,0,0.24294809,0.229286,0.021171026,0.0306009,0.0049296804,0.011842255,0.0,nan,0.0,0.0,3407882,3407882,6780433,466953,73.19043,73.66653,0.510808,0.5250894,0,0,895,3,2,3,2,2,0,0,0,0,0,0,0
203666288,203475671,171865803351,0.0005870653,0.0006850815,0.0011911351,0,0.24305378,0.22941697,0.023419019,0.016886681,0.0047101607,0.019663882,0.0,nan,0.0,0.0,3407882,3407882,6780433,466953,72.94682,73.66653,0.509822,0.5250894,0,0,895,3,2,3,2,2,0,0,0,0,0,0,0
203865985,203675705,171865803351,0.00036527924,0.00081267057,0.0025216485,0,0.24316838,0.22955891,0.016538475,0.025436841,0.0050668665,0.008652966,0.0,nan,0.0,0.0,3407882,3407882,6780433,466953,73.159966,73.66653,0.50972337,0.5250894,0,0,895,3,2,3,2,2,0,0,0,0,0,0,0
204066090,203875671,171865803351,0.0006580579,0.0042478074,0.007749147,0,0.24328347,0.2296993,0.01901769,0.035270665,0.005481631,0.014319433,0.0,nan,0.0,0.0,3407882,3407882,6780433,466953,73.102135,73.66653,0.5091941,0.5250894,0,0,895,3,2,3,2,2,0,0,0,0,0,0,0
204265967,204075671,171799743191,0.00049995084,0.0063127177,0.009805757,0,0.24336529,0.2298335,0.018033478,0.028273903,0.0027829828,0.013353994,0.0,nan,0.0,0.0,3407882,3407882,6780433,466953,73.12246,73.66653,0.50900996,0.5250894,0,0,831,3,2,3,2,2,0,0,0,0,0,0,0
204465968,204275671,171799743191,0.00046290812,0.004383465,0.006667188,0,0.24347389,0.22997126,0.021934941,0.038060755,0.0035394605,0.012629337,0.0,nan,0.0,0.0,3407882,3407882,6780433,466953,73.10141,73.66653,0.5086352,0.5250894,0,0,831,3,2,3,2,2,0,0,0,0,0,0,0
204666241,204475671,171799743191,0.0005894149,0.0046916017,0.0056451615,0,0.2435711,0.23010409,0.024012785,0.016794952,0.0034129804,0.013254872,0.0,nan,0.0,0.0,3407882,3407882,6780433,466953,72.985855,73.66653,0.50769717,0.5250894,0,0,831,3,2,3,2,2,0,0,0,0,0,0,0
205065977,204875671,171799743191,0.0005731788,0.0019301529,0.0036504013,0,0.243768,0.23035854,0.037705965,0.025253002,0.0028365236,0.013545336,0.0,nan,0.0,0.0,3407882,3407882,6780433,466953,72.97396,73.66653,0.50543344,0.5250894,0,0,831,3,2,3,2,2,0,0,0,0,0,0,0
205265985,205075671,171799743191,0.0005745707,0.0045633595,0.007630135,0,0.24383833,0.23047294,0.055630203,0.024275323,0.0039317654,0.013122734,0.0,nan,0.0,0.0,3407882,3407882,6780433,466953,72.77082,73.66653,0.50309956,0.5250894,0,0,831,3,2,3,2,2,0,0,0,0,0,0,0
205466009,205275708,171799743191,0.0005488861,0.0019481577,0.005768022,0,0.2439326,0.23060758,0.07615507,0.034230918,0.0032238052,0.012737501,0.0,nan,0.0,0.0,3407882,3407882,6780433,466953,72.47848,73.66653,0.5005814,0.5250894,0,0,831,3,2,3,2,2,0,0,0,0,0,0,0
205666286,205475671,171799743191,0.0016038973,0.002623831,0.0052340426,0,0.24401835,0.23073757,0.09759431,0.04470212,0.0053098155,0.015833588,0.0,nan,0.0,0.0,3407882,3407882,6780433,466953,72.58708,73.66653,0.4971027,0.5250894,0,0,831,3,2,3,2,2,0,0,0,0,0,0,0
205866012,205675671,171799743191,0.0067195985,0.004730703,0.005773186,0,0.24411625,0.23036982,0.09884676,0.033392377,0.0030594284,0.009778939,0.0,nan,0.0,0.0,3407882,3407882,6780433,466953,72.63719,73.66653,0.49671298,0.5250894,0,0,831,3,2,3,2,2,0,0,0,0,0,0,0
206066023,205875671,171799743191,0.01365115,0.006707081,0.008171826,0,0.24420764,0.2304931,0.09879773,0.035188716,0.0052356184,0.009359264,0.0,nan,0.0,0.0,3407882,3407882,6780433,466953,72.51167,73.66653,0.49686357,0.5250894,0,0,831,3,2,3,2,2,0,0,0,0,0,0,0
206265965,206075671,171799743191,0.012184386,0.0069138687,0.010048176,0,0.24428909,0.2306051,0.10700904,0.045872796,0.0030119815,0.00902556,0.0,nan,0.0,0.0,3407882,3407882,6780433,466953,72.68386,73.66653,0.49513456,0.5250894,0,0,831,3,2,3,2,2,0,0,0,0,0,0,0
206666244,206475707,171799743191,0.0015824687,0.010128143,0.013954956,0,0.24449515,0.23083025,0.11224677,0.051974736,0.0058436613,0.00982054,0.0,nan,0.0,0.0,3407882,3407882,6780433,466953,72.75816,73.66653,0.494247,0.5250894,0,0,831,3,2,3,2,2,0,0,0,0,0,0,0
206865968,206675671,171799743191,0.00210089,0.005500538,0.0069922507,0,0.24458651,0.23093098,0.10013494,0.062587395,0.0033700531,0.011756703,0.0,nan,0.0,0.0,3407882,3407882,6780433,466953,72.697685,73.66653,0.49617013,0.5250894,0,0,831,3,2,3,2,2,0,0,0,0,0,0,0
207065991,206875672,171799743191,0.0042012394,0.008211954,0.011359413,0,0.24467322,0.23103368,0.101130374,0.050167724,0.0016463803,0.00976133,0.0,nan,0.0,0.0,3407882,3407882,6780433,466953,72.7538,73.66653,0.49589846,0.5250894,0,0,831,3,2,3,2,2,0,0,0,0,0,0,0
207265992,207075671,171799743191,0.01091004,0.010656278,0.012871495,0,0.2447401,0.23112231,0.10494376,0.07231803,0.0038894874,0.018017726,0.0,nan,0.0,0.0,3407882,3407882,6780433,466953,72.73127,73.66653,0.49522802,0.5250894,0,0,831,3,2,3,2,2,0,0,0,0,0,0,0
207465992,207275671,171799743191,0.0007363921,0.005928962,0.007367514,0,0.244829,0.23121452,0.10115621,0.055698495,0.0019526052,0.012043072,0.0,nan,0.0,0.0,3407882,3407882,6780433,466953,72.69717,73.66653,0.49585813,0.5250894,0,0,831,3,2,3,2,2,0,0,0,0,0,0,0
207666254,207475671,171799743191,0.001154208,0.005133125,0.0064114784,0,0.24492477,0.2313013,0.095112,0.072456524,0.004228034,0.013848865,0.0,nan,0.0,0.0,3407882,3407882,6780433,466953,72.61569,73.66653,0.49693248,0.5250894,0,0,831,3,2,3,2,2,0,0,0,0,0,0,0
207865986,207675671,171799743191,0.010093407,0.0072735227,0.008276558,0,0.24502961,0.23138997,0.09576004,0.07185353,0.001851147,0.0120918015,0.0,nan,0.0,0.0,3407882,3407882,6780433,466953,72.53111,73.66653,0.49699685,0.5250894,0,0,831,3,2,3,2,2,0,0,0,0,0,0,0
208065993,207875671,171799743191,0.007493027,0.0028788885,0.0034886086,0,0.24513015,0.23147634,0.09610881,0.04467922,0.001266403,0.016235251,0.0,nan,0.0,0.0,3407882,3407882,6780433,466953,72.354675,73.66653,0.4972176,0.5250894,0,0,831,3,2,3,2,2,0,0,0,0,0,0,0
208265970,208075671,171808131799,0.00085210794,0.009332956,0.013228024,0,0.24520946,0.23155439,inf,0.051687524,0.002701734,0.0116983615,0.0,nan,0.0,0.0,3407882,3407882,6780433,466953,72.46823,73.66653,0.4979266,0.5250894,0,0,831,3,2,3,2,3,0,0,0,0,0,0,0
208465996,208275671,171808131751,0.009215976,0.0052840384,0.008541866,0,0.24532208,0.2311347,0.03438206,0.048402775,0.00086760306,0.0153765995,0.0,nan,0.0,0.0,3407882,3407882,6780433,466953,72.37828,73.66653,0.4979405,0.5250894,0,0,831,3,2,3,2,3,0,0,0,0,0,0,0
208666183,208475671,171808131751,0.0023238037,0.003875704,0.011032557,0,0.24542733,0.23121272,0.02185188,0.053413082,0.003967522,0.016424429,0.0,nan,0.0,0.0,3407882,3407882,6780433,466953,72.37913,73.66653,0.4970216,0.5250894,0,0,831,3,2,3,2,3,0,0,0,0,0,0,0
208865966,208675671,171808131751,0.014024121,0.01298015,0.021398807,0,0.24552222,0.23128839,0.015139994,0.05507661,0.00059991423,0.023525,0.0,nan,0.0,0.0,3407882,3407882,6780433,466953,72.35137,73.66653,0.4972914,0.5250894,0,0,831,3,2,3,2,3,0,0,0,0,0,0,0
209065974,208875674,171808131751,0.0020381652,0.0058147307,0.017420439,0,0.24560766,0.23135525,0.009991875,0.03352027,0.0047838795,0.024318933,0.0,nan,0.0,0.0,3407882,3407882,6780433,466953,72.47626,73.66653,0.49747434,0.5250894,0,0,831,3,2,3,2,3,0,0,0,0,0,0,0
209265985,209075671,171808131751,0.02407334,0.012238766,0.015403833,0,0.24567541,0.2314128,0.006422512,0.030696305,0.004072129,0.018932398,0.0,nan,0.0,0.0,3407882,3407882,6780433,466953,72.43457,73.66653,0.49756438,0.5250894,0,0,831,3,2,3,2,3,0,0,0,0,0,0,0
209465983,209275671,171808131751,0.020568272,0.008972994,0.016403332,0,0.24577439,0.23148082,0.006225701,0.058874264,0.0067341183,0.017456915,0.0,nan,0.0,0.0,3407882,3407882,6780433,466953,72.50256,73.66653,0.4973608,0.5250894,0,0,831,3,2,3,2,3,0,0,0,0,0,0,0
209666192,209475671,171808131751,0.016395893,0.014753601,0.0112586515,0,0.24588601,0.23154777,0.006931482,0.055532068,0.008702706,0.019371081,0.0,nan,0.0,0.0,3407882,3407882,6780433,466953,72.60209,73.66653,0.49676037,0.5250894,0,0,831,3,2,3,2,3,0,0,0,0,0,0,0
209865998,209675677,171808131751,0.010569739,0.008632956,0.00939802,0,0.24599636,0.23160721,0.011225877,0.027781758,0.011000089,0.019719064,0.0,nan,0.0,0.0,3407882,3407882,6780433,466953,72.47569,73.66653,0.4966392,0.5250894,0,0,831,3,2,3,2,3,0,0,0,0,0,0,0
210065992,209875671,171808131751,0.01028451,0.006159175,0.013049415,0,0.24610586,0.23166579,0.006453709,0.0157943,0.01325429,0.0349034,0.0,nan,0.0,0.0,3407882,3407882,6780433,466953,72.744095,73.66653,0.4962845,0.5250894,0,0,831,3,2,3,2,3,0,0,0,0,0,0,0
210265979,210075671,171808131751,0.01893925,0.021153824,0.016543081,0,0.246179,0.23170975,0.00702583,0.059092525,0.015976598,0.02625192,0.0,nan,0.0,0.0,3407882,3407882,6780433,466953,72.69998,73.66653,0.49612164,0.5250894,0,0,831,3,2,3,2,3,0,0,0,0,0,0,0
210465967,210275671,171808131751,0.009122728,0.004586456,0.0067536836,0,0.2462848,0.23176211,0.0051322407,0.04353807,0.0149953505,0.02127266,0.0,nan,0.0,0.0,3407882,3407882,6780433,466953,72.492805,73.66653,0.49721074,0.5250894,0,0,831,3,2,3,2,3,0,0,0,0,0,0,0
210665968,210475671,171808131751,0.00030403383,0.006374481,0.010564502,0,0.24638626,0.23180832,0.0041963416,0.045210708,0.016847847,0.021871535,0.0,nan,0.0,0.0,3407882,3407882,6780433,466953,72.622826,73.66653,0.4967769,0.5250894,0,0,831,3,2,3,2,3,0,0,0,0,0,0,0
210865975,210675671,171808131751,0.0036149358,0.011156956,0.012091559,0,0.24648602,0.23185574,0.0112919975,0.028492687,0.01689618,0.028472424,0.0,nan,0.0,0.0,3407882,3407882,6780433,466953,72.75494,73.66653,0.4968885,0.5250894,0,0,831,3,2,3,2,3,0,0,0,0,0,0,0
211266027,211075671,171808131751,0.006998993,0.011012855,0.014293156,0,0.24664798,0.23143943,0.011728261,0.03947304,0.018389782,0.019546593,0.0,nan,0.0,0.0,3407882,3407882,6780433,466953,72.53391,73.66653,0.49566016,0.5250894,0,0,831,3,2,3,2,3,0,0,0,0,0,0,0
211465984,211275671,171808131751,0.0014353186,0.005211158,0.011474565,0,0.24674389,0.23149242,0.011071158,0.028829655,0.019273221,0.018236725,0.0,nan,0.0,0.0,3407882,3407882,6780433,466953,72.49318,73.66653,0.49564812,0.5250894,0,0,831,3,2,3,2,3,0,0,0,0,0,0,0
211665981,211475671,171808131751,0.003484514,0.007620295,0.013130495,0,0.24683648,0.2315438,0.019982086,0.046561476,0.018377949,0.022385504,0.0,nan,0.0,0.0,3407882,3407882,6780433,466953,72.63951,73.66653,0.49397764,0.5250894,0,0,831,3,2,3,2,3,0,0,0,0,0,0,0
211865993,211675671,171808131751,0.0010434425,0.011677031,0.01802616,0,0.246913,0.2315949,0.009590752,0.05806119,0.016879726,0.022190835,0.0,nan,0.0,0.0,3407882,3407882,6780433,466953,72.541504,73.66653,0.4957352,0.5250894,0,0,831,3,2,3,2,3,0,0,0,0,0,0,0
212065992,211875671,171808131751,0.0021234527,0.015219661,0.021391347,0,0.24698167,0.23164724,0.028089462,0.09490641,0.014779619,0.015052684,0.0,nan,0.0,0.0,3407882,3407882,6780433,466953,72.66772,73.66653,0.5014223,0.5250894,0,0,831,3,2,3,2,3,0,0,0,0,0,0,0
212265973,212075673,171808131751,0.0014679515,0.0051042037,0.0067329113,0,0.24702011,0.23170051,0.03878752,0.121332295,0.010655097,0.0072900886,0.0,nan,0.0,0.0,3407882,3407882,6780433,466953,72.80991,73.66653,0.50305825,0.5250894,0,0,831,3,2,3,2,3,0,0,0,0,0,0,0
212465974,212275671,171808131751,0.00019132165,0.010033899,0.019098796,0,0.24707292,0.23177887,0.011824846,0.09625522,0.014465263,0.013480855,0.0,nan,0.0,0.0,3407882,3407882,6780433,466953,72.642204,73.66653,0.4977367,0.5250894,0,0,831,3,2,3,2,3,0,0,0,0,0,0,0
212665966,212475671,171808131751,0.00072744227,0.014697406,0.02914578,0,0.24713327,0.23187682,0.019015053,0.11122024,0.0120118745,0.013272674,0.0,nan,0.0,0.0,3407882,3407882,6780433,466953,72.639,73.66653,0.49476188,0.5250894,0,0,831,3,2,3,2,3,0,0,0,0,0,0,0
213065977,212875671,171808131751,0.0011341505,0.013883553,0.022918584,0,0.24737866,0.23218265,0.021387504,0.026173221,0.0015480024,0.015121008,0.0,nan,0.0,0.0,3407882,3407882,6780433,466953,72.56845,73.66653,0.496581,0.5250894,0,0,831,3,2,3,2,3,0,0,0,0,0,0,0
213265997,213075671,171808131751,0.00074974453,0.015364054,0.019640671,0,0.2477196,0.2324592,0.020476406,0.07894296,0.002017579,0.012122207,0.0,nan,0.0,0.0,3407882,3407882,6780433,466953,72.523346,73.66653,0.49826387,0.5250894,0,0,831,3,2,3,2,3,0,0,0,0,0,0,0
213466016,213275671,171808131751,0.0069306605,0.018293958,0.012547453,0,0.24791862,0.2321805,0.025338292,0.07757424,0.005613534,0.00876614,0.0,nan,0.0,0.0,3407882,3407882,6780433,466953,72.43014,73.66653,0.49527416,0.5250894,0,0,831,3,2,3,2,3,0,0,0,0,0,0,0
213666013,213475671,171808131751,0.0027069233,0.005173749,0.0031368001,0,0.24807505,0.23240307,0.027423248,0.050489105,0.011727641,0.0110425465,0.0,nan,0.0,0.0,3407882,3407882,6780433,466953,72.63998,73.66653,0.49737126,0.5250894,0,0,831,3,2,3,2,3,0,0,0,0,0,0,0
213866012,213675671,171808131751,0.0023177704,0.0068607447,0.012262234,0,0.24827385,0.23265578,0.015097893,0.030048613,0.015353991,0.016337492,0.0,nan,0.0,0.0,3407882,3407882,6780433,466953,72.53487,73.66653,0.49643835,0.5250894,0,0,831,3,2,3,2,3,0,0,0,0,0,0,0
214065991,213875671,171808131751,0.003258566,0.010050152,0.022344299,0,0.24850987,0.23293431,0.01610225,0.045252025,0.019647637,0.012298575,0.0,nan,0.0,0.0,3407882,3407882,6780433,466953,72.54483,73.66653,0.49631745,0.5250894,0,0,831,3,2,3,2,3,0,0,0,0,0,0,0
214265968,214075671,171808131751,0.0028339438,0.016106492,0.03149818,0,0.2489645,0.2333067,0.016346756,0.06932224,0.021546798,0.02134814,0.0,nan,0.0,0.0,3407882,3407882,6780433,466953,72.62032,73.66653,0.49587724,0.5250894,0,0,831,3,2,3,2,3,0,0,0,0,0,0,0
214466167,214275671,171808131751,0.0031573402,0.020596188,0.029594459,0,0.24939826,0.2336915,0.016533969,0.14222012,0.023088796,0.026508093,0.0,nan,0.0,0.0,3407882,3407882,6780433,466953,72.42526,73.66653,0.49581406,0.5250894,0,0,831,3,2,3,2,3,0,0,0,0,0,0,0
214665967,214475672,171808131751,0.0040018465,0.014696228,0.029144807,0,0.25016308,0.23421042,0.015015935,0.047488566,0.021991804,0.023550762,0.0,nan,0.0,0.0,3407882,3407882,6780433,466953,72.54698,73.66653,0.4963811,0.5250894,0,0,831,3,2,3,2,3,0,0,0,0,0,0,0
214865970,214675671,171808131751,0.0021551081,0.011770622,0.03264444,0,0.25116393,0.23482803,0.01250612,0.107141055,0.020952962,0.02955199,0.0,nan,0.0,0.0,3407882,3407882,6780433,466953,72.6165,73.66653,0.49615473,0.5250894,0,0,831,3,2,3,2,3,0,0,0,0,0,0,0
215065969,214875671,171808131751,0.00044424614,0.010008791,0.031975947,0,0.25198653,0.23541582,0.010474307,0.041348826,0.019654036,0.031504657,0.0,nan,0.0,0.0,3407882,3407882,6780433,466953,72.659164,73.66653,0.49547762,0.5250894,0,0,831,3,2,3,2,3,0,0,0,0,0,0,0
215265983,215075671,171808131751,0.0010008808,0.010207897,0.032370865,0,0.2531135,0.23613048,0.0049576857,0.045220025,0.019214295,0.032226924,0.0,nan,0.0,0.0,3407882,3407882,6780433,466953,72.60369,73.66653,0.4960446,0.5250894,0,0,831,3,2,3,2,3,0,0,0,0,0,0,0
215466182,215275671,171808131751,0.0024590143,0.018537868,0.03950758,0,0.2546773,0.23701578,0.007306546,0.093195036,0.019901128,0.02033743,0.0,nan,0.0,0.0,3407882,3407882,6780433,466953,72.60125,73.66653,0.4957683,0.5250894,0,0,831,3,2,3,2,3,0,0,0,0,0,0,0
215665983,215475671,171808131751,0.0014435896,0.014571657,0.033992928,0,0.25576755,0.23777473,0.021817852,0.048017945,0.01950418,0.014951464,0.0,nan,0.0,0.0,3407882,3407882,6780433,466953,72.8085,73.66653,0.49681106,0.5250894,0,0,831,3,2,3,2,3,0,0,0,0,0,0,0
215865986,215675671,171808131751,0.0005034498,0.011269667,0.027881352,0,0.2567864,0.23853907,0.012101442,0.030270882,0.018619515,0.020821096,0.0,nan,0.0,0.0,3407882,3407882,6780433,466953,72.588455,73.66653,0.4954519,0.5250894,0,0,831,3,2,3,2,3,0,0,0,0,0,0,0
216066022,215875671,171808131751,0.00052005734,0.010479087,0.026246823,0,0.25829077,0.23892403,0.006676773,0.06442391,0.017206585,0.028048031,0.0,nan,0.0,0.0,3407882,3407882,6780433,466953,72.626205,73.66653,0.4960327,0.5250894,0,0,831,3,2,3,2,3,0,0,0,0,0,0,0
216265997,216075671,171808131751,0.002053662,0.01670279,0.0319779,0,0.25969866,0.23985426,0.016275367,0.045357995,0.018030724,0.034057632,0.0,nan,0.0,0.0,3407882,3407882,6780433,466953,72.58699,73.66653,0.49564204,0.5250894,0,0,831,3,2,3,2,3,0,0,0,0,0,0,0
216466136,216275671,171807083175,0.0014381894,0.0108178,0.030846702,0,0.2602419,0.24053417,0.014752981,0.037207916,0.012840312,0.03307508,0.0,nan,0.0,0.0,3407882,3407882,6780433,466953,72.436676,73.66653,0.49693456,0.5250894,0,0,831,3,2,3,2,3,0,0,0,0,0,0,0
216665967,216475671,171807083175,0.0007623752,0.010397601,0.030125849,0,0.2604621,0.24110977,0.0125658,0.027302444,0.011277274,0.029500961,0.0,nan,0.0,0.0,3407882,3407882,6780433,466953,72.481,73.66653,0.49518946,0.5250894,0,0,831,3,2,3,2,3,0,0,0,0,0,0,0
216865968,216675671,171807083175,0.00048205914,0.011498205,0.03091293,0,0.2602664,0.24153778,0.007929342,0.041551486,0.0068989773,0.02601278,0.0,nan,0.0,0.0,3407882,3407882,6780433,466953,72.686325,73.66653,0.49481377,0.5250894,0,0,831,3,2,3,2,3,0,0,0,0,0,0,0
217065972,216875671,171807083175,0.0006062715,0.013144835,0.03518203,0,0.26008305,0.24194561,0.024124756,0.09040406,0.008218003,0.030670872,0.0,nan,0.0,0.0,3407882,3407882,6780433,466953,73.020424,73.66653,0.49466786,0.5250894,0,0,831,3,2,3,2,3,0,0,0,0,0,0,0
217265987,217075671,171807083175,0.0004468676,0.010338405,0.031726405,0,0.25982535,0.24229684,0.0118023185,0.0469464,0.010346397,0.026917292,0.0,nan,0.0,0.0,3407882,3407882,6780433,466953,72.68754,73.66653,0.49470952,0.5250894,0,0,831,3,2,3,2,3,0,0,0,0,0,0,0
217466174,217275671,171807083175,0.00055806845,0.016590636,0.036425266,0,0.2596137,0.24259599,0.014693221,0.12392135,0.011276731,0.028429192,0.0,nan,0.0,0.0,3407882,3407882,6780433,466953,72.67337,73.66653,0.4942379,0.5250894,0,0,831,3,2,3,2,3,0,0,0,0,0,0,0
217665991,217475671,171807083175,0.0009628059,0.021745441,0.04340647,0,0.25942668,0.24284442,0.01114245,0.07788041,0.011551746,0.024859307,0.0,nan,0.0,0.0,3407882,3407882,6780433,466953,72.51321,73.66653,0.4951282,0.5250894,0,0,831,3,2,3,2,3,0,0,0,0,0,0,0
217865982,217675671,171807083175,0.000550036,0.010659112,0.026020374,0,0.25924936,0.2430326,0.021461496,0.05285294,0.012553978,0.022954062,0.0,nan,0.0,0.0,3407882,3407882,6780433,466953,72.4248,73.66653,0.49468318,0.5250894,0,0,831,3,2,3,2,3,0,0,0,0,0,0,0
218066014,217875671,171807083175,0.00036782978,0.011675352,0.023478484,0,0.25908127,0.24318019,0.026607463,0.0841895,0.012476735,0.022522217,0.0,nan,0.0,0.0,3407882,3407882,6780433,466953,72.30416,73.66653,0.49283433,0.5250894,0,0,831,3,2,3,2,3,0,0,0,0,0,0,0
218265987,218075671,171807083175,0.0005791074,0.011578922,0.015829645,0,0.25889984,0.24329603,0.028686486,0.0939531,0.011546754,0.025224295,0.0,nan,0.0,0.0,3407882,3407882,6780433,466953,72.41111,73.66653,0.49495506,0.5250894,0,0,831,3,2,3,2,3,0,0,0,0,0,0,0
218466187,218275672,171807083175,0.0009258995,0.0116310725,0.013658204,0,0.25874966,0.24281909,0.037168965,0.0779378,0.016823918,0.020727944,0.0,nan,0.0,0.0,3407882,3407882,6780433,466953,72.896736,73.66653,0.49499384,0.5250894,0,0,831,3,2,3,2,3,0,0,0,0,0,0,0
218665998,218475672,171807083175,0.0032597096,0.016872803,0.018006748,0,0.25859582,0.24290644,0.027249508,0.121034734,0.014188719,0.021485858,0.0,nan,0.0,0.0,3407882,3407882,6780433,466953,72.956345,73.66653,0.4947894,0.5250894,0,0,831,3,2,3,2,3,0,0,0,0,0,0,0
218865968,218675670,171807083175,0.004494675,0.020288639,0.025511462,0,0.25860617,0.24303481,0.04510012,0.093828976,0.015482978,0.030139465,0.0,nan,0.0,0.0,3407882,3407882,6780433,466953,73.133804,73.66653,0.49447858,0.5250894,0,0,831,3,2,3,2,3,0,0,0,0,0,0,0
219065980,218875671,171807083175,0.004147975,0.01690052,0.023904283,0,0.25850046,0.24309257,0.003556346,0.097992465,0.01932467,0.03838604,0.0,nan,0.0,0.0,3407882,3407882,6780433,466953,72.63822,73.66653,0.4960463,0.5250894,0,0,831,3,2,3,2,3,0,0,0,0,0,0,0
219265966,219075671,171807083175,0.0024567896,0.016740348,0.028114434,0,0.258406,0.24313387,0.017327713,0.077550925,0.014917519,0.033059265,0.0,nan,0.0,0.0,3407882,3407882,6780433,466953,72.58033,73.66653,0.49905875,0.5250894,0,0,831,3,2,3,2,3,0,0,0,0,0,0,0
219466179,219275671,171807083175,0.0012657462,0.021750674,0.035973854,0,0.25850677,0.24323696,0.0067799515,0.11674553,0.021008892,0.035942975,0.0,nan,0.0,0.0,3407882,3407882,6780433,466953,72.75317,73.66653,0.49483314,0.5250894,0,0,831,3,2,3,2,3,0,0,0,0,0,0,0
219665984,219475671,171807083175,0.0014688665,0.021376327,0.03629268,0,0.25846562,0.24327368,0.009822724,0.08732365,0.01732589,0.03658047,0.0,nan,0.0,0.0,3407882,3407882,6780433,466953,72.89935,73.66653,0.4969796,0.5250894,0,0,831,3,2,3,2,3,0,0,0,0,0,0,0
219865985,219675671,171807083175,0.0006639102,0.017195668,0.030547976,0,0.2585314,0.24334152,0.006668098,0.06614056,0.020434037,0.03554611,0.0,nan,0.0,0.0,3407882,3407882,6780433,466953,72.704094,73.66653,0.4947601,0.5250894,0,0,831,3,2,3,2,3,0,0,0,0,0,0,0
220066000,219875671,171807083175,0.0004641799,0.015161073,0.02719698,0,0.2585895,0.24340203,0.0059288936,0.0685002,0.019531889,0.038039394,0.0,nan,0.0,0.0,3407882,3407882,6780433,466953,72.57267,73.66653,0.49638376,0.5250894,0,0,831,3,2,3,2,3,0,0,0,0,0,0,0
220265990,220075671,171807083175,0.00048110145,0.014150298,0.025578631,0,0.25869972,0.24347682,0.012263017,0.034148198,0.020182854,0.024124714,0.0,nan,0.0,0.0,3407882,3407882,6780433,466953,72.70444,73.66653,0.49382076,0.5250894,0,0,831,3,2,3,2,3,0,0,0,0,0,0,0
220466139,220275671,171807083175,0.00020513593,0.005052594,0.008070975,0,0.2586926,0.24350174,0.012617962,0.06400129,0.016505698,0.037176967,0.0,nan,0.0,0.0,3407882,3407882,6780433,466953,72.869415,73.66653,0.4939612,0.5250894,0,0,831,3,2,3,2,3,0,0,0,0,0,0,0
220665967,220475671,171807083175,0.000355259,0.012846501,0.019635202,0,0.25872406,0.24353652,0.007422206,0.12477885,0.017379852,0.04132828,0.0,nan,0.0,0.0,3407882,3407882,6780433,466953,72.670815,73.66653,0.49531323,0.5250894,0,0,831,3,2,3,2,3,0,0,0,0,0,0,0
221066011,220875671,171807083175,0.0004991528,0.013112958,0.02150389,0,0.2588656,0.24304083,0.012843956,0.0858317,0.015414846,0.033446446,0.0,nan,0.0,0.0,3407882,3407882,6780433,466953,72.69634,73.66653,0.49444157,0.5250894,0,0,831,3,2,3,2,3,0,0,0,0,0,0,0
221266000,221075671,171807083175,0.00023778623,0.006545421,0.014869054,0,0.2588438,0.24304831,0.011922565,0.09090806,0.012563417,0.032488458,0.0,nan,0.0,0.0,3407882,3407882,6780433,466953,72.78214,73.66653,0.4951198,0.5250894,0,0,831,3,2,3,2,3,0,0,0,0,0,0,0
221466174,221275671,171807083175,0.00029440242,0.0107014105,0.021081487,0,0.25883806,0.24305154,0.016398897,0.0797663,0.011731492,0.029297281,0.0,nan,0.0,0.0,3407882,3407882,6780433,466953,72.75253,73.66653,0.49370083,0.5250894,0,0,831,3,2,3,2,3,0,0,0,0,0,0,0
221665985,221475671,171807083175,0.0003597249,0.011280802,0.021144621,0,0.25881472,0.24303077,0.014405963,0.08181805,0.014703872,0.033506077,0.0,nan,0.0,0.0,3407882,3407882,6780433,466953,72.63436,73.66653,0.4943564,0.5250894,0,0,831,3,2,3,2,3,0,0,0,0,0,0,0
221865991,221675671,171807083175,0.0004925747,0.0075506843,0.018886955,0,0.25877318,0.24298769,0.014305157,0.0999192,0.013858085,0.035576127,0.0,nan,0.0,0.0,3407882,3407882,6780433,466953,72.71737,73.66653,0.49403965,0.5250894,0,0,831,3,2,3,2,3,0,0,0,0,0,0,0
222065990,221875671,171807083175,0.0014181479,0.014524556,0.025531942,0,0.25871965,0.2429266,0.019777281,0.13903256,0.011411217,0.02954323,0.0,nan,0.0,0.0,3407882,3407882,6780433,466953,72.6432,73.66653,0.49318713,0.5250894,0,0,831,3,2,3,2,3,0,0,0,0,0,0,0
222266005,222075671,171807083175,0.0013331178,0.011551531,0.026243972,0,0.25863302,0.24284802,0.012732568,0.11788432,0.011502015,0.033002034,0.0,nan,0.0,0.0,3407882,3407882,6780433,466953,72.74045,73.66653,0.4944894,0.5250894,0,0,831,3,2,3,2,3,0,0,0,0,0,0,0
222466170,222275671,171807083175,0.0006378655,0.006050138,0.020008724,0,0.25857124,0.24276213,0.0027003007,0.06719148,0.011547483,0.02750595,0.0,nan,0.0,0.0,3407882,3407882,6780433,466953,72.69507,73.66653,0.49521717,0.5250894,0,0,831,3,2,3,2,3,0,0,0,0,0,0,0
222665966,222475671,171807083175,0.0011077223,0.008731405,0.01870786,0,0.2585009,0.24266888,0.005950463,0.09659405,0.014662596,0.02816222,0.0,nan,0.0,0.0,3407882,3407882,6780433,466953,72.855064,73.66653,0.49438474,0.5250894,0,0,831,3,2,3,2,3,0,0,0,0,0,0,0
222865974,222675672,171807083175,0.0008298602,0.0088072475,0.018211668,0,0.25842467,0.24256243,0.00718579,0.07323402,0.0139492415,0.027494024,0.0,nan,0.0,0.0,3407882,3407882,6780433,466953,72.728134,73.66653,0.4945964,0.5250894,0,0,831,3,2,3,2,3,0,0,0,0,0,0,0
223065979,222875671,171807083175,0.0009026669,0.011800405,0.02053932,0,0.25834057,0.24245183,0.0037067938,0.093470074,0.01375134,0.03616472,0.0,nan,0.0,0.0,3407882,3407882,6780433,466953,72.72359,73.66653,0.4953219,0.5250894,0,0,831,3,2,3,2,3,0,0,0,0,0,0,0
223265968,223075671,171807083175,0.00031457067,0.0074231513,0.014956136,0,0.25824258,0.24232647,0.0047779814,0.071793206,0.017494077,0.030645236,0.0,nan,0.0,0.0,3407882,3407882,6780433,466953,72.7559,73.66653,0.4950989,0.5250894,0,0,831,3,2,3,2,3,0,0,0,0,0,0,0
223466175,223275671,171807083175,0.00033105508,0.009208121,0.016298508,0,0.25817138,0.24220811,0.0061857486,0.0861379,0.018164694,0.031206418,0.0,nan,0.0,0.0,3407882,3407882,6780433,466953,72.58563,73.66653,0.49616006,0.5250894,0,0,831,3,2,3,2,3,0,0,0,0,0,0,0
223666012,223475671,171807083175,0.00026102402,0.0043691257,0.011304536,0,0.2580977,0.24151397,0.008985042,0.092056,0.016623797,0.030839536,0.0,nan,0.0,0.0,3407882,3407882,6780433,466953,72.62954,73.66653,0.4954882,0.5250894,0,0,831,3,2,3,2,3,0,0,0,0,0,0,0
223866023,223675671,171807083175,0.00025888853,0.0064296112,0.014056285,0,0.25801742,0.24138811,0.01304749,0.07730751,0.016909996,0.036751814,0.0,nan,0.0,0.0,3407882,3407882,6780433,466953,72.67309,73.66653,0.49422187,0.5250894,0,0,831,3,2,3,2,3,0,0,0,0,0,0,0
224065990,223875671,171807083175,0.00033772519,0.010164895,0.016794138,0,0.25793076,0.24125807,0.010490695,0.0687206,0.01855356,0.028260127,0.0,nan,0.0,0.0,3407882,3407882,6780433,466953,72.52742,73.66653,0.4952561,0.5250894,0,0,831,3,2,3,2,3,0,0,0,0,0,0,0
224265986,224075671,171807083175,7.929192e-05,0.001649314,0.004573867,0,0.25782055,0.24111776,0.008940942,0.081902,0.015042727,0.026570307,0.0,nan,0.0,0.0,3407882,3407882,6780433,466953,72.622375,73.66653,0.49493963,0.5250894,0,0,831,3,2,3,2,3,0,0,0,0,0,0,0
224465964,224275671,171807083175,0.00021584568,0.0029422173,0.0037128292,0,0.25774172,0.24099365,0.012285931,0.05345337,0.015307172,0.02472342,0.0,nan,0.0,0.0,3407882,3407882,6780433,466953,72.52443,73.66653,0.4960299,0.5250894,0,0,831,3,2,3,2,3,0,0,0,0,0,0,0
224665975,224475671,171807083175,0.00023255931,0.010286694,0.014966135,0,0.2576694,0.24088205,0.005287615,0.11062268,0.018293435,0.027544534,0.0,nan,0.0,0.0,3407882,3407882,6780433,466953,72.69867,73.66653,0.49590442,0.5250894,0,0,831,3,2,3,2,3,0,0,0,0,0,0,0
224865970,224675671,171807083175,0.00021823085,0.0038747473,0.006578086,0,0.25760457,0.24078657,0.0020277475,0.07702523,0.013690269,0.028486185,0.0,nan,0.0,0.0,3407882,3407882,6780433,466953,72.64173,73.66653,0.49632746,0.5250894,0,0,831,3,2,3,2,3,0,0,0,0,0,0,0
225065981,224875671,171807083175,0.00035383084,0.010722781,0.0135056535,0,0.25792643,0.2408565,0.011390439,0.0885402,0.013752473,0.027853562,0.0,nan,0.0,0.0,3407882,3407882,6780433,466953,72.61672,73.66653,0.49684352,0.5250894,0,0,831,3,2,3,2,3,0,0,0,0,0,0,0
225265970,225075671,171807083175,0.00028642893,0.0023193217,0.0032873666,0,0.25784034,0.24077697,0.0068091652,0.079715446,0.016792355,0.022244811,0.0,nan,0.0,0.0,3407882,3407882,6780433,466953,72.63432,73.66653,0.49595883,0.5250894,0,0,831,3,2,3,2,3,0,0,0,0,0,0,0
225465984,225275671,171807083175,0.00030949296,0.0104543995,0.01410963,0,0.25778273,0.24070813,0.013921262,0.08746144,0.01734296,0.025737433,0.0,nan,0.0,0.0,3407882,3407882,6780433,466953,72.56291,73.66653,0.49533248,0.5250894,0,0,831,3,2,3,2,3,0,0,0,0,0,0,0
225665985,225475671,171807083175,0.00014780818,0.0025711488,0.005257288,0,0.25772747,0.24063857,0.01723695,0.09080786,0.016803358,0.028211696,0.0,nan,0.0,0.0,3407882,3407882,6780433,466953,72.80648,73.66653,0.4945405,0.5250894,0,0,831,3,2,3,2,3,0,0,0,0,0,0,0
225865986,225675672,171807083175,0.00028149417,0.007725929,0.012211265,0,0.2576767,0.2405697,0.0026271804,0.0637447,0.019109659,0.019987991,0.0,nan,0.0,0.0,3407882,3407882,6780433,466953,72.65877,73.66653,0.49597177,0.5250894,0,0,831,3,2,3,2,3,0,0,0,0,0,0,0
226066024,225875695,171807083175,0.00017119329,0.0026221005,0.0027386462,0,0.25763592,0.23994757,0.0032183588,0.09937124,0.016878622,0.02753954,0.0,nan,0.0,0.0,3407882,3407882,6780433,466953,72.78663,73.66653,0.4951262,0.5250894,0,0,831,3,2,3,2,3,0,0,0,0,0,0,0
226266014,226075671,171807083175,0.00027478265,0.008706046,0.01285413,0,0.25758845,0.23988779,0.02717561,0.04723855,0.021497596,0.024129141,0.0,nan,0.0,0.0,3407882,3407882,6780433,466953,72.88983,73.66653,0.49160558,0.5250894,0,0,831,3,2,3,2,3,0,0,0,0,0,0,0
226465978,226275671,171807083175,0.00028081363,0.006876706,0.009490431,0,0.25757006,0.23984656,0.03360811,0.08115819,0.018216757,0.023372326,0.0,nan,0.0,0.0,3407882,3407882,6780433,466953,72.529144,73.66653,0.49547273,0.5250894,0,0,831,3,2,3,2,3,0,0,0,0,0,0,0
226665972,226475671,171807083175,0.00030665446,0.008796155,0.011488178,0,0.2575644,0.23981307,0.010296632,0.08195188,0.021120096,0.022890672,0.0,nan,0.0,0.0,3407882,3407882,6780433,466953,72.599236,73.66653,0.49655664,0.5250894,0,0,831,3,2,3,2,3,0,0,0,0,0,0,0
226865972,226675671,171807083175,0.0006879867,0.016826078,0.023129651,0,0.25755975,0.23978639,0.0044210292,0.091833,0.01535265,0.019579852,0.0,nan,0.0,0.0,3407882,3407882,6780433,466953,72.549385,73.66653,0.49614447,0.5250894,0,0,831,3,2,3,2,3,0,0,0,0,0,0,0
227065982,226875671,171807083175,0.00051523367,0.010925745,0.017474657,0,0.25756446,0.23975685,0.0054148794,0.040712014,0.016310537,0.02129028,0.0,nan,0.0,0.0,3407882,3407882,6780433,466953,72.65634,73.66653,0.4965598,0.5250894,0,0,831,3,2,3,2,3,0,0,0,0,0,0,0
227465985,227275674,171807083175,0.00040982716,0.0062038354,0.012821351,0,0.25753084,0.23967707,0.025982747,0.061927088,0.019865392,0.026526464,0.0,nan,0.0,0.0,3407882,3407882,6780433,466953,72.23289,73.66653,0.4967746,0.5250894,0,0,831,3,2,3,2,3,0,0,0,0,0,0,0
227665988,227475671,171807083175,0.00020621074,0.0024632686,0.0074933516,0,0.2575135,0.23962702,0.018952338,0.09462073,0.016169153,0.03202463,0.0,nan,0.0,0.0,3407882,3407882,6780433,466953,72.67642,73.66653,0.4987217,0.5250894,0,0,831,3,2,3,2,3,0,0,0,0,0,0,0
227865984,227675671,171807083175,0.00041253568,0.0073768203,0.01099755,0,0.25748965,0.23956957,0.008902784,0.07943686,0.018805386,0.02781593,0.0,nan,0.0,0.0,3407882,3407882,6780433,466953,72.48636,73.66653,0.49707937,0.5250894,0,0,831,3,2,3,2,3,0,0,0,0,0,0,0
228066003,227875671,171807083175,0.0005507321,0.010323353,0.015475411,0,0.25745532,0.2395017,0.011741944,0.08236179,0.020703556,0.02000738,0.0,nan,0.0,0.0,3407882,3407882,6780433,466953,72.51163,73.66653,0.49797288,0.5250894,0,0,831,3,2,3,2,3,0,0,0,0,0,0,0
228265983,228075671,171807083175,0.00020426878,0.0035715518,0.0058751535,0,0.2573894,0.23941597,0.049086202,0.05432166,0.017565466,0.02293611,0.0,nan,0.0,0.0,3407882,3407882,6780433,466953,72.660614,73.66653,0.48854762,0.5250894,0,0,831,3,2,3,2,3,0,0,0,0,0,0,0
228465966,228275671,171807083175,0.0005721042,0.0089622,0.011172942,0,0.25733382,0.2393357,0.021704871,0.07255774,0.016864935,0.02261011,0.0,nan,0.0,0.0,3407882,3407882,6780433,466953,72.530945,73.66653,0.49536473,0.5250894,0,0,831,3,2,3,2,3,0,0,0,0,0,0,0
228665998,228475671,171807083175,0.0006483034,0.0067096357,0.011786872,0,0.25727868,0.23869759,0.011796325,0.10582597,0.014407183,0.019201474,0.0,nan,0.0,0.0,3407882,3407882,6780433,466953,72.46347,73.66653,0.4973684,0.5250894,0,0,831,3,2,3,2,3,0,0,0,0,0,0,0
228865994,228675671,171807083175,0.0004136848,0.0050979275,0.006269269,0,0.2572134,0.23860575,0.013189569,0.069624305,0.01435767,0.019886907,0.0,nan,0.0,0.0,3407882,3407882,6780433,466953,72.625175,73.66653,0.4941743,0.5250894,0,0,831,3,2,3,2,3,0,0,0,0,0,0,0
229065988,228875671,171807083175,0.00049202616,0.009739737,0.015064119,0,0.2571405,0.23850963,0.009264946,0.09252766,0.01712496,0.02203865,0.0,nan,0.0,0.0,3407882,3407882,6780433,466953,72.57944,73.66653,0.4971376,0.5250894,0,0,831,3,2,3,2,3,0,0,0,0,0,0,0
229266135,229075671,171807083175,0.00036742727,0.0065358933,0.009254863,0,0.25704414,0.23840182,0.05660531,0.032850716,0.014078503,0.022965088,0.0,nan,0.0,0.0,3407882,3407882,6780433,466953,73.042854,73.66653,0.4888379,0.5250894,0,0,831,3,2,3,2,3,0,0,0,0,0,0,0
229465984,229275671,171807083175,0.000435389,0.00502689,0.0058347685,0,0.25696716,0.238299,0.016741293,0.06645153,0.017968616,0.021832898,0.0,nan,0.0,0.0,3407882,3407882,6780433,466953,72.4965,73.66653,0.49587926,0.5250894,0,0,831,3,2,3,2,3,0,0,0,0,0,0,0
229665984,229475671,171807083175,0.0002464767,0.0037915586,0.0065558646,0,0.25688457,0.23819233,0.008837579,0.08184892,0.016251843,0.018896453,0.0,nan,0.0,0.0,3407882,3407882,6780433,466953,72.548546,73.66653,0.49757418,0.5250894,0,0,831,3,2,3,2,3,0,0,0,0,0,0,0
229865982,229675671,171807083175,0.0003311169,0.0043566287,0.0054611154,0,0.2568019,0.2380865,0.006610389,0.099180624,0.01864935,0.017473245,0.0,nan,0.0,0.0,3407882,3407882,6780433,466953,72.50773,73.66653,0.49559438,0.5250894,0,0,831,3,2,3,2,3,0,0,0,0,0,0,0
230065996,229875671,171807083175,0.00029166348,0.0053161387,0.009707244,0,0.2567122,0.23797855,0.011767557,0.054366447,0.017776387,0.021729467,0.0,nan,0.0,0.0,3407882,3407882,6780433,466953,72.57152,73.66653,0.497199,0.5250894,0,0,831,3,2,3,2,3,0,0,0,0,0,0,0
230266181,230075671,171807083175,0.00024749484,0.0035399685,0.0053830817,0,0.25660828,0.2378639,0.047785245,0.051962644,0.016374106,0.020088179,0.0,nan,0.0,0.0,3407882,3407882,6780433,466953,72.83765,73.66653,0.4882216,0.5250894,0,0,831,3,2,3,2,3,0,0,0,0,0,0,0
230465983,230275671,171807083175,0.00035951327,0.00463153,0.0060344753,0,0.25651872,0.23775296,0.013688345,0.054622438,0.017422592,0.01824398,0.0,nan,0.0,0.0,3407882,3407882,6780433,466953,72.45469,73.66653,0.49619547,0.5250894,0,0,831,3,2,3,2,3,0,0,0,0,0,0,0
230665973,230475671,171807083175,0.00029656626,0.0013531836,0.0041129636,0,0.2564262,0.2376425,0.005523221,0.044917475,0.018177494,0.019392397,0.0,nan,0.0,0.0,3407882,3407882,6780433,466953,72.644005,73.66653,0.49656296,0.5250894,0,0,831,3,2,3,2,3,0,0,0,0,0,0,0
230865969,230675671,171807083175,0.00030883343,0.0023617998,0.004961752,0,0.25632498,0.23753083,0.009519476,0.079317555,0.01743574,0.035124198,0.0,nan,0.0,0.0,3407882,3407882,6780433,466953,72.64399,73.66653,0.49750337,0.5250894,0,0,831,3,2,3,2,3,0,0,0,0,0,0,0
231065977,230875671,171807083175,0.0003829038,0.004984416,0.006630554,0,0.25622404,0.23741992,0.009229434,0.10950152,0.019374182,0.023138745,0.0,nan,0.0,0.0,3407882,3407882,6780433,466953,72.679016,73.66653,0.497113,0.5250894,0,0,831,3,2,3,2,3,0,0,0,0,0,0,0
231266184,231075671,171807083175,0.00033998242,0.008898603,0.012091272,0,0.25610203,0.23676178,0.020793838,0.05582398,0.016601754,0.018625313,0.0,nan,0.0,0.0,3407882,3407882,6780433,466953,72.470215,73.66653,0.49704745,0.5250894,0,0,831,3,2,3,2,3,0,0,0,0,0,0,0
231465973,231275671,171807083175,0.00030089426,0.002470819,0.0043915175,0,0.25599855,0.23665406,0.009378773,0.061346196,0.019440377,0.018437402,0.0,nan,0.0,0.0,3407882,3407882,6780433,466953,72.59315,73.66653,0.49742255,0.5250894,0,0,831,3,2,3,2,3,0,0,0,0,0,0,0
231665989,231475671,171807083175,0.00027077223,0.006553957,0.008817242,0,0.25589162,0.23654458,0.008975779,0.08845703,0.015859958,0.023047298,0.0,nan,0.0,0.0,3407882,3407882,6780433,466953,72.58254,73.66653,0.49738842,0.5250894,0,0,831,3,2,3,2,3,0,0,0,0,0,0,0
231865984,231675671,171807083175,0.00032160844,0.0070962566,0.010911454,0,0.25578225,0.23643719,0.004408539,0.06186161,0.019255731,0.030021943,0.0,nan,0.0,0.0,3407882,3407882,6780433,466953,72.659,73.66653,0.49647895,0.5250894,0,0,831,3,2,3,2,3,0,0,0,0,0,0,0
232065991,231875671,171807083175,0.00031854867,0.0038750293,0.0075598205,0,0.25567144,0.23632489,0.006946277,0.06826645,0.018852342,0.020230137,0.0,nan,0.0,0.0,3407882,3407882,6780433,466953,72.711296,73.66653,0.49694154,0.5250894,0,0,831,3,2,3,2,3,0,0,0,0,0,0,0
232266179,232075671,171807083175,0.00024530196,0.0065027745,0.010261688,0,0.25554454,0.23620717,0.0050835046,0.05364328,0.016231053,0.019955687,0.0,nan,0.0,0.0,3407882,3407882,6780433,466953,72.62202,73.66653,0.49636945,0.5250894,0,0,831,3,2,3,2,3,0,0,0,0,0,0,0
232465989,232275671,171807083175,0.0002676347,0.003637352,0.007555184,0,0.25543404,0.23609239,0.0025349872,0.060481116,0.015991356,0.02738288,0.0,nan,0.0,0.0,3407882,3407882,6780433,466953,72.60205,73.66653,0.4957654,0.5250894,0,0,831,3,2,3,2,3,0,0,0,0,0,0,0
232665968,232475671,171807083175,0.0002426866,0.0045933495,0.011568799,0,0.25532603,0.2359799,0.011455595,0.045882944,0.01570133,0.024154242,0.0,nan,0.0,0.0,3407882,3407882,6780433,466953,72.52995,73.66653,0.4959222,0.5250894,0,0,831,3,2,3,2,3,0,0,0,0,0,0,0
232865967,232675671,171807083175,0.00040360313,0.010896438,0.015902305,0,0.2552172,0.23586597,0.003795352,0.09219655,0.013100713,0.022615256,0.0,nan,0.0,0.0,3407882,3407882,6780433,466953,72.59085,73.66653,0.49560294,0.5250894,0,0,831,3,2,3,2,3,0,0,0,0,0,0,0
233065980,232875671,171807083175,0.0002619445,0.00458735,0.006611009,0,0.25510487,0.23575225,0.010368553,0.04184634,0.015612808,0.027795859,0.0,nan,0.0,0.0,3407882,3407882,6780433,466953,72.58172,73.66653,0.49711525,0.5250894,0,0,831,3,2,3,2,3,0,0,0,0,0,0,0
233266165,233075671,171807083175,0.0003459511,0.0058557033,0.009214993,0,0.25497136,0.23563212,0.007492367,0.054594576,0.016390441,0.018517515,0.0,nan,0.0,0.0,3407882,3407882,6780433,466953,72.69449,73.66653,0.49609807,0.5250894,0,0,831,3,2,3,2,3,0,0,0,0,0,0,0
233465970,233275671,171807083175,0.00041056945,0.003640936,0.0056619504,0,0.2548615,0.23552038,0.0060567143,0.045927417,0.01687523,0.021311259,0.0,nan,0.0,0.0,3407882,3407882,6780433,466953,72.52959,73.66653,0.49596,0.5250894,0,0,831,3,2,3,2,3,0,0,0,0,0,0,0
233666026,233475671,171807083175,0.0006471912,0.0067205206,0.0096523175,0,0.25475454,0.23488207,0.015905274,0.044827327,0.017124424,0.02081526,0.0,nan,0.0,0.0,3407882,3407882,6780433,466953,72.4051,73.66653,0.49769112,0.5250894,0,0,831,3,2,3,2,3,0,0,0,0,0,0,0
233866012,233675671,171807083175,0.0006698413,0.008771177,0.012659433,0,0.25464827,0.23477352,0.005649631,0.06389298,0.015775787,0.018356334,0.0,nan,0.0,0.0,3407882,3407882,6780433,466953,72.38883,73.66653,0.49647263,0.5250894,0,0,831,3,2,3,2,3,0,0,0,0,0,0,0
234266213,234075671,171807083175,0.00028615305,0.004204699,0.0059101065,0,0.25441208,0.23455644,0.009590488,0.065383114,0.014438743,0.016632393,0.0,nan,0.0,0.0,3407882,3407882,6780433,466953,72.51837,73.66653,0.49664557,0.5250894,0,0,831,3,2,3,2,3,0,0,0,0,0,0,0
234865989,234675671,171807083175,0.0003742556,0.0032913375,0.004579194,0,0.25411367,0.23425534,0.0061053317,0.065871865,0.011385408,0.020718256,0.0,nan,0.0,0.0,3407882,3407882,6780433,466953,72.55877,73.66653,0.49587172,0.5250894,0,0,831,3,2,3,2,3,0,0,0,0,0,0,0
235065973,234875671,171807083175,0.0002641007,0.004539395,0.0051053544,0,0.2540134,0.23415592,0.05802068,0.029710216,0.009672221,0.024680847,0.0,nan,0.0,0.0,3407882,3407882,6780433,466953,73.0105,73.66653,0.48606366,0.5250894,0,0,831,3,2,3,2,3,0,0,0,0,0,0,0
235266170,235075671,171807083175,0.00038500482,0.0028801614,0.0030965672,0,0.25388905,0.23405015,0.023892809,0.041154705,0.009146218,0.01881353,0.0,nan,0.0,0.0,3407882,3407882,6780433,466953,72.38818,73.66653,0.49972844,0.5250894,0,0,831,3,2,3,2,3,0,0,0,0,0,0,0
235465966,235275671,171807083175,0.00021562568,0.005104971,0.00789818,0,0.25379804,0.23395206,0.010348916,0.035942577,0.0090667205,0.018092625,0.0,nan,0.0,0.0,3407882,3407882,6780433,466953,72.55234,73.66653,0.49458084,0.5250894,0,0,831,3,2,3,2,3,0,0,0,0,0,0,0
235665981,235475671,171807083175,0.00022652397,0.0071259458,0.011972022,0,0.25370643,0.23386078,0.006936211,0.029232398,0.009753413,0.01307801,0.0,nan,0.0,0.0,3407882,3407882,6780433,466953,72.48599,73.66653,0.49540746,0.5250894,0,0,831,3,2,3,2,3,0,0,0,0,0,0,0
235865989,235675671,171807083175,0.00030186406,0.007269979,0.011458238,0,0.25361872,0.23376629,0.0022493517,0.07186096,0.008162536,0.013522751,0.0,nan,0.0,0.0,3407882,3407882,6780433,466953,72.638855,73.66653,0.49530527,0.5250894,0,0,831,3,2,3,2,3,0,0,0,0,0,0,0
236065992,235875671,171807083175,8.8018205e-05,0.0064327926,0.009998012,0,0.25353265,0.23367567,0.053658094,0.022991778,0.008766621,0.012663489,0.0,nan,0.0,0.0,3407882,3407882,6780433,466953,72.97558,73.66653,0.48679826,0.5250894,0,0,831,3,2,3,2,3,0,0,0,0,0,0,0
236266200,236075671,171807083175,9.302159e-05,0.0037516144,0.007009911,0,0.25342292,0.23306252,0.013361008,0.056638557,0.009495335,0.022643723,0.0,nan,0.0,0.0,3407882,3407882,6780433,466953,72.55486,73.66653,0.49590036,0.5250894,0,0,831,3,2,3,2,3,0,0,0,0,0,0,0
236466013,236275671,171807083175,0.00011199585,0.0025229831,0.006313411,0,0.253336,0.23296626,0.0063347076,0.026003942,0.011355865,0.013089322,0.0,nan,0.0,0.0,3407882,3407882,6780433,466953,72.582855,73.66653,0.49620616,0.5250894,0,0,831,3,2,3,2,3,0,0,0,0,0,0,0
236665965,236475671,171807083175,9.539898e-05,0.004758042,0.011014636,0,0.2532452,0.23287101,0.0027793553,0.033286706,0.0085674375,0.014242585,0.0,nan,0.0,0.0,3407882,3407882,6780433,466953,72.590416,73.66653,0.4961912,0.5250894,0,0,831,3,2,3,2,3,0,0,0,0,0,0,0
236865974,236675671,171807083175,0.00011327912,0.0043012197,0.010104966,0,0.25314865,0.23276968,0.005442008,0.03789848,0.009693298,0.013629828,0.0,nan,0.0,0.0,3407882,3407882,6780433,466953,72.62146,73.66653,0.495862,0.5250894,0,0,831,3,2,3,2,3,0,0,0,0,0,0,0
237065973,236875671,171807083175,0.00022410491,0.0054363078,0.011540771,0,0.25305405,0.23266436,0.04860285,0.050757617,0.009404837,0.018010262,0.0,nan,0.0,0.0,3407882,3407882,6780433,466953,72.90225,73.66653,0.4877597,0.5250894,0,0,831,3,2,3,2,3,0,0,0,0,0,0,0
237266135,237075671,171807083175,0.00016967596,0.0026144295,0.007906556,0,0.25292853,0.2325506,0.015695132,0.04171254,0.009294529,0.01435573,0.0,nan,0.0,0.0,3407882,3407882,6780433,466953,72.51081,73.66653,0.4968,0.5250894,0,0,831,3,2,3,2,3,0,0,0,0,0,0,0
237465970,237275671,171807083175,0.00022024235,0.0035383261,0.005588147,0,0.25282338,0.23244041,0.00252547,0.062032126,0.0087960735,0.018682834,0.0,nan,0.0,0.0,3407882,3407882,6780433,466953,72.6465,73.66653,0.49582314,0.5250894,0,0,831,3,2,3,2,3,0,0,0,0,0,0,0
237865983,237675671,171807083175,0.00038094187,0.00388316,0.00621067,0,0.25261033,0.23221587,0.0065488266,0.040240817,0.010291565,0.016784294,0.0,nan,0.0,0.0,3407882,3407882,6780433,466953,72.74964,73.66653,0.49520075,0.5250894,0,0,831,3,2,3,2,3,0,0,0,0,0,0,0
238066001,237875671,171807083175,0.00032953976,0.0048025176,0.005339075,0,0.25250667,0.23210502,0.011053849,0.06583099,0.010455083,0.019402437,0.0,nan,0.0,0.0,3407882,3407882,6780433,466953,72.659805,73.66653,0.4942189,0.5250894,0,0,831,3,2,3,2,3,0,0,0,0,0,0,0
238266193,238075671,171807083175,0.00020151534,0.0019327597,0.003345996,0,0.2523764,0.23198071,0.0066568293,0.03261541,0.0086301705,0.022508819,0.0,nan,0.0,0.0,3407882,3407882,6780433,466953,72.70391,73.66653,0.49585587,0.5250894,0,0,831,3,2,3,2,3,0,0,0,0,0,0,0
238465985,238275671,171807083175,0.0004123467,0.0066471864,0.00852899,0,0.2522717,0.23186658,0.0057059997,0.057153292,0.00807605,0.012825142,0.0,nan,0.0,0.0,3407882,3407882,6780433,466953,72.76449,73.66653,0.49595588,0.5250894,0,0,831,3,2,3,2,3,0,0,0,0,0,0,0
238665999,238475671,171807083175,0.00019340838,0.005456067,0.008771345,0,0.25216284,0.23125136,0.012866252,0.044999912,0.0068587656,0.017998062,0.0,nan,0.0,0.0,3407882,3407882,6780433,466953,72.81649,73.66653,0.496491,0.5250894,0,0,831,3,2,3,2,3,0,0,0,0,0,0,0
238865997,238675671,171807083175,0.00024742068,0.0018522511,0.0048199855,0,0.2520524,0.2311358,0.0127738435,0.018288815,0.008978908,0.013185782,0.0,nan,0.0,0.0,3407882,3407882,6780433,466953,72.796425,73.66653,0.4975964,0.5250894,0,0,831,3,2,3,2,3,0,0,0,0,0,0,0
239065998,238875671,171807083175,0.00038886617,0.0055698664,0.011197023,0,0.25194234,0.2310234,0.022635888,0.06819674,0.006687451,0.01551079,0.0,nan,0.0,0.0,3407882,3407882,6780433,466953,72.58626,73.66653,0.49274048,0.5250894,0,0,831,3,2,3,2,3,0,0,0,0,0,0,0
239265965,239075671,171807083175,0.00019799275,0.0009273151,0.004451554,0,0.251814,0.23090442,0.0038869989,0.04153594,0.009282437,0.025097357,0.0,nan,0.0,0.0,3407882,3407882,6780433,466953,72.522606,73.66653,0.4962767,0.5250894,0,0,831,3,2,3,2,3,0,0,0,0,0,0,0
239465972,239275671,171807083175,0.0003445462,0.009801746,0.015980234,0,0.25170836,0.23079601,0.052489266,0.06234652,0.0052503766,0.017960982,0.0,nan,0.0,0.0,3407882,3407882,6780433,466953,72.58367,73.66653,0.5042224,0.5250894,0,0,831,3,2,3,2,3,0,0,0,0,0,0,0
239665984,239475671,171807083175,0.00082651584,0.012413488,0.02506355,0,0.25160146,0.23068812,0.025465788,0.06821184,0.0022529326,0.028675646,0.0,nan,0.0,0.0,3407882,3407882,6780433,466953,72.21071,73.66653,0.500646,0.5250894,0,0,831,3,2,3,2,3,0,0,0,0,0,0,0
239865982,239675671,171807083175,0.00057778513,0.009793459,0.02028255,0,0.25148186,0.23058417,0.025238318,0.093141176,0.0034099624,0.021398505,0.0,nan,0.0,0.0,3407882,3407882,6780433,466953,71.54368,73.66653,0.50043744,0.5250894,0,0,831,3,2,3,2,3,0,0,0,0,0,0,0
240065996,239875671,171807083175,0.0006346649,0.00991596,0.01868454,0,0.2513544,0.23048086,0.018826647,0.05137323,0.011693046,0.023899084,0.0,nan,0.0,0.0,3407882,3407882,6780433,466953,71.96561,73.66653,0.49824983,0.5250894,0,0,831,3,2,3,2,3,0,0,0,0,0,0,0
240265985,240075671,171807083175,0.0001653637,0.0046915105,0.008282141,0,0.2512161,0.23036914,0.014098351,0.030170977,0.014655741,0.026579455,0.0,nan,0.0,0.0,3407882,3407882,6780433,466953,72.04781,73.66653,0.49880984,0.5250894,0,0,831,3,2,3,2,3,0,0,0,0,0,0,0
240465998,240275671,171807083175,0.00096253795,0.0070301024,0.013737607,0,0.251102,0.2302641,0.012604324,0.06865867,0.014311751,0.025501147,0.0,nan,0.0,0.0,3407882,3407882,6780433,466953,72.13099,73.66653,0.49760404,0.5250894,0,0,831,3,2,3,2,3,0,0,0,0,0,0,0
240665971,240475671,171807083175,0.00027514022,0.010219235,0.02110645,0,0.25099486,0.23016243,0.012960785,0.0625953,0.017596629,0.02711163,0.0,nan,0.0,0.0,3407882,3407882,6780433,466953,72.35507,73.66653,0.4972995,0.5250894,0,0,831,3,2,3,2,3,0,0,0,0,0,0,0
240865968,240675671,171807083175,0.0008042174,0.011428593,0.023084939,0,0.25088942,0.23006217,0.011759452,0.07271835,0.01479496,0.027118681,0.0,nan,0.0,0.0,3407882,3407882,6780433,466953,72.411736,73.66653,0.4966741,0.5250894,0,0,831,3,2,3,2,3,0,0,0,0,0,0,0
241065974,240875671,171807083175,0.0007146545,0.006819785,0.020403348,0,0.25077778,0.2299642,0.00879852,0.0625462,0.010293599,0.02287127,0.0,nan,0.0,0.0,3407882,3407882,6780433,466953,72.58403,73.66653,0.4973654,0.5250894,0,0,831,3,2,3,2,3,0,0,0,0,0,0,0
241265997,241075671,171807083175,0.000452894,0.008983705,0.02251801,0,0.25064352,0.22936583,0.018881997,0.06504386,0.008385431,0.023668516,0.0,nan,0.0,0.0,3407882,3407882,6780433,466953,72.40016,73.66653,0.4957481,0.5250894,0,0,831,3,2,3,2,3,0,0,0,0,0,0,0
241466001,241275671,171807083175,0.0002599878,0.009951243,0.022422655,0,0.250525,0.22926432,0.0061156587,0.0675912,0.009726276,0.027098764,0.0,nan,0.0,0.0,3407882,3407882,6780433,466953,72.71822,73.66653,0.4951737,0.5250894,0,0,831,3,2,3,2,3,0,0,0,0,0,0,0
241665986,241475671,171807083175,7.263237e-05,0.005117351,0.014433064,0,0.2504006,0.2291643,0.007019249,0.042521413,0.008615365,0.02343495,0.0,nan,0.0,0.0,3407882,3407882,6780433,466953,72.784584,73.66653,0.49569654,0.5250894,0,0,831,3,2,3,2,3,0,0,0,0,0,0,0
241865984,241675671,171807083175,0.00015513359,0.004669834,0.011456218,0,0.25027153,0.22906393,0.0052136425,0.04156027,0.009331452,0.021904124,0.0,nan,0.0,0.0,3407882,3407882,6780433,466953,72.79735,73.66653,0.49488297,0.5250894,0,0,831,3,2,3,2,3,0,0,0,0,0,0,0
242065998,241875671,171807083175,0.00012166123,0.0049710474,0.009855778,0,0.25013518,0.22895905,0.011067402,0.047238104,0.009248585,0.025848325,0.0,nan,0.0,0.0,3407882,3407882,6780433,466953,72.79155,73.66653,0.4961288,0.5250894,0,0,831,3,2,3,2,3,0,0,0,0,0,0,0
242265985,242075671,171807083175,0.00059377647,0.0037568447,0.0052725817,0,0.24997951,0.2288458,0.00536332,0.050769266,0.008198698,0.028560532,0.0,nan,0.0,0.0,3407882,3407882,6780433,466953,72.73561,73.66653,0.495425,0.5250894,0,0,831,3,2,3,2,3,0,0,0,0,0,0,0
242665982,242475671,171807083175,0.0008231673,0.0047153546,0.008399581,0,0.24971145,0.22862718,0.01070621,0.005956076,0.009470631,0.024510106,0.0,nan,0.0,0.0,3407882,3407882,6780433,466953,72.91679,73.66653,0.49512613,0.5250894,0,0,831,3,2,3,2,3,0,0,0,0,0,0,0
242865968,242675671,171807083175,0.0010573162,0.007489458,0.012596634,0,0.24957472,0.22851375,0.00498668,0.021375926,0.008800079,0.02402168,0.0,nan,0.0,0.0,3407882,3407882,6780433,466953,72.73041,73.66653,0.49589968,0.5250894,0,0,831,3,2,3,2,3,0,0,0,0,0,0,0
243066179,242875671,171807083175,0.00071474543,0.00411542,0.008928714,0,0.24944228,0.2284009,0.004846493,0.03714221,0.009211493,0.020268729,0.0,nan,0.0,0.0,3407882,3407882,6780433,466953,72.78114,73.66653,0.49595413,0.5250894,0,0,831,3,2,3,2,3,0,0,0,0,0,0,0
243265974,243075671,171807083175,0.00068685034,0.007329738,0.013582385,0,0.24929334,0.22827905,0.008514982,0.012509819,0.009184251,0.0217139,0.0,nan,0.0,0.0,3407882,3407882,6780433,466953,72.69075,73.66653,0.49598408,0.5250894,0,0,831,3,2,3,2,3,0,0,0,0,0,0,0
243465965,243275671,171807083175,0.0011168105,0.011515562,0.02448423,0,0.24916723,0.22816405,0.080111146,0.14259888,0.017542426,0.02492098,0.0,nan,0.0,0.0,3407882,3407882,6780433,466953,71.758675,73.66653,0.4917332,0.5250894,0,0,831,3,2,3,2,3,0,0,0,0,0,0,0
243665988,243475671,171807083175,0.00095881196,0.0026564677,0.009938947,0,0.24905473,0.22805114,0.04346347,0.04259099,0.016533332,0.02230018,0.0,nan,0.0,0.0,3407882,3407882,6780433,466953,73.953896,73.66653,0.49470934,0.5250894,0,0,831,3,2,3,2,3,0,0,0,0,0,0,0
243866011,243675671,171807083175,0.0014360289,0.007203212,0.00720186,0,0.24894357,0.22745815,0.030174632,0.082622565,0.021629404,0.020588601,0.0,nan,0.0,0.0,3407882,3407882,6780433,466953,73.44955,73.66653,0.4930996,0.5250894,0,0,831,3,2,3,2,3,0,0,0,0,0,0,0
244066254,243875671,171807083175,0.0014493418,0.0038594918,0.008635316,0,0.24884379,0.22734255,0.020896286,0.045782037,0.02440838,0.029845256,0.0,nan,0.0,0.0,3407882,3407882,6780433,466953,73.18565,73.66653,0.49441487,0.5250894,0,0,831,3,2,3,2,3,0,0,0,0,0,0,0
244265991,244075671,171807083175,0.0007826737,0.01052576,0.017319055,0,0.2487316,0.22722664,0.010948386,0.055392835,0.026456665,0.031203337,0.0,nan,0.0,0.0,3407882,3407882,6780433,466953,72.9033,73.66653,0.49517515,0.5250894,0,0,831,3,2,3,2,3,0,0,0,0,0,0,0
244465983,244275671,171807083175,0.0008313275,0.0059588067,0.01164827,0,0.24863997,0.22711559,0.0069211964,0.053724185,0.021244941,0.030410763,0.0,nan,0.0,0.0,3407882,3407882,6780433,466953,72.73563,73.66653,0.49651664,0.5250894,0,0,831,3,2,3,2,3,0,0,0,0,0,0,0
244665972,244475671,171807083175,0.0003034993,0.0069136336,0.013862862,0,0.24854355,0.22700319,0.012586009,0.020655563,0.01978603,0.030205775,0.0,nan,0.0,0.0,3407882,3407882,6780433,466953,72.62894,73.66653,0.49697185,0.5250894,0,0,831,3,2,3,2,3,0,0,0,0,0,0,0
244865966,244675671,171807083175,0.00045615606,0.010906799,0.018113455,0,0.24843873,0.2268907,0.008451026,0.06448438,0.016982934,0.032624245,0.0,nan,0.0,0.0,3407882,3407882,6780433,466953,72.52669,73.66653,0.49687165,0.5250894,0,0,831,3,2,3,2,3,0,0,0,0,0,0,0
245066171,244875671,171807083175,0.00034396417,0.0030187392,0.0063891243,0,0.24832971,0.22677599,0.010432634,0.050704792,0.011854602,0.02712245,0.0,nan,0.0,0.0,3407882,3407882,6780433,466953,72.57279,73.66653,0.49660337,0.5250894,0,0,831,3,2,3,2,3,0,0,0,0,0,0,0
245265967,245075671,171807083175,0.00012862205,0.0007818863,0.0017713585,0,0.24819303,0.22665279,0.009143488,0.021308767,0.0073022973,0.020548861,0.0,nan,0.0,0.0,3407882,3407882,6780433,466953,72.48224,73.66653,0.49639586,0.5250894,0,0,831,3,2,3,2,3,0,0,0,0,0,0,0
245665987,245475671,171807083175,0.00036019072,0.0031236247,0.0054743863,0,0.2479412,0.2264215,0.0039728726,0.030223945,0.007578788,0.018878167,0.0,nan,0.0,0.0,3407882,3407882,6780433,466953,72.387024,73.66653,0.497598,0.5250894,0,0,831,3,2,3,2,3,0,0,0,0,0,0,0
245865986,245675671,171807083175,0.0009575424,0.0053275493,0.008653204,0,0.24781492,0.22630632,0.0057448754,0.037562713,0.0066183526,0.02487535,0.0,nan,0.0,0.0,3407882,3407882,6780433,466953,72.3606,73.66653,0.49773663,0.5250894,0,0,831,3,2,3,2,3,0,0,0,0,0,0,0
246066183,245875671,171807083175,0.0007081712,0.002018127,0.0023925812,0,0.24769638,0.22619608,0.0070964987,0.071341515,0.0075184214,0.016565181,0.0,nan,0.0,0.0,3407882,3407882,6780433,466953,72.33815,73.66653,0.497402,0.5250894,0,0,831,3,2,3,2,3,0,0,0,0,0,0,0
246266015,246075671,171807083175,0.000666318,0.0058088875,0.01090242,0,0.24756065,0.22561514,0.008231784,0.06404197,0.010658931,0.016970789,0.0,nan,0.0,0.0,3407882,3407882,6780433,466953,72.46824,73.66653,0.49787045,0.5250894,0,0,831,3,2,3,2,3,0,0,0,0,0,0,0
246466015,246275671,171807083175,0.00034958762,0.0044196886,0.009852526,0,0.24745505,0.22551085,0.003473698,0.031872537,0.009881477,0.017161455,0.0,nan,0.0,0.0,3407882,3407882,6780433,466953,72.49594,73.66653,0.49671727,0.5250894,0,0,831,3,2,3,2,3,0,0,0,0,0,0,0
246665989,246475671,171807083175,0.00040821862,0.009646826,0.016756449,0,0.24735968,0.22540842,0.00342943,0.05700379,0.013437752,0.021784354,0.0,nan,0.0,0.0,3407882,3407882,6780433,466953,72.493645,73.66653,0.49694663,0.5250894,0,0,831,3,2,3,2,3,0,0,0,0,0,0,0
246865971,246675671,171807083175,0.0010503317,0.0087966,0.019056482,0,0.24726313,0.2253087,0.042299055,0.06451556,0.016979223,0.017444389,0.0,nan,0.0,0.0,3407882,3407882,6780433,466953,72.5354,73.66653,0.49469334,0.5250894,0,0,831,3,2,3,2,3,0,0,0,0,0,0,0
247066164,246875671,171807083175,0.0012608563,0.01076142,0.020894032,0,0.24717695,0.22521359,0.031476926,0.03694109,0.02433242,0.014506794,0.0,nan,0.0,0.0,3407882,3407882,6780433,466953,71.51967,73.66653,0.5020589,0.5250894,0,0,831,3,2,3,2,3,0,0,0,0,0,0,0
247465977,247275671,171807083175,0.0008726028,0.010530398,0.019302547,0,0.24701118,0.2250271,0.025783043,0.017664118,0.031158647,0.013705263,0.0,nan,0.0,0.0,3407882,3407882,6780433,466953,71.89972,73.66653,0.49714604,0.5250894,0,0,831,3,2,3,2,3,0,0,0,0,0,0,0
247665966,247475671,171807083175,0.00082949596,0.0075076264,0.014152568,0,0.24694847,0.22494315,0.007818586,0.05335209,0.02753653,0.014925512,0.0,nan,0.0,0.0,3407882,3407882,6780433,466953,72.55877,73.66653,0.4962432,0.5250894,0,0,831,3,2,3,2,3,0,0,0,0,0,0,0
247865999,247675671,171807083175,0.00021194844,0.006409183,0.013978922,0,0.2468888,0.22486202,0.013201389,0.060549792,0.027072052,0.010390077,0.0,nan,0.0,0.0,3407882,3407882,6780433,466953,72.55205,73.66653,0.49534592,0.5250894,0,0,831,3,2,3,2,3,0,0,0,0,0,0,0
