timestamp,timestamp_sample,gps_hvel[0],gps_hvel[1],gps_vvel,gps_hpos[0],gps_hpos[1],gps_vpos,ev_hvel[0],ev_hvel[1],ev_vvel,ev_hpos[0],ev_hpos[1],ev_vpos,rng_vpos,baro_vpos,aux_hvel[0],aux_hvel[1],flow[0],flow[1],terr_flow[0],terr_flow[1],heading,mag_field[0],mag_field[1],mag_field[2],gravity[0],gravity[1],gravity[2],drag[0],drag[1],airspeed,beta,hagl,hagl_rate
200523944,200333649,0.014626613,-0.044257272,0.0035286434,0.0127866715,0.049290955,-0.17915535,0.0,0.0,0.0,0.0,0.0,0.0,0.0,0.15459657,0.0,0.0,0.0,0.0,0.0,0.0,0.0004195571,-0.00048885826,-0.0041466057,0.0004195571,0.0021368805,0.00026342645,-1.680851e-05,0.0,0.0,0.0,0.0,0.0,0.0
201024180,200833649,-0.010988258,-0.05285511,0.0016167276,-0.00063125417,0.04824215,-0.16937661,0.0,0.0,0.0,0.0,0.0,0.0,0.0,0.27267623,0.0,0.0,0.0,0.0,0.0,0.0,0.0008300245,-0.00064872886,-0.0042645633,0.0008300245,0.016483206,-0.00092580914,-0.00036978722,0.0,0.0,0.0,0.0,0.0,0.0
201524177,201333648,0.043116964,-0.031789232,0.010060605,0.016971728,0.044169545,-0.17332506,0.0,0.0,0.0,0.0,0.0,0.0,0.0,0.014072657,0.0,0.0,0.0,0.0,0.0,0.0,0.0009817183,-0.0012689703,-0.0033845976,0.0009817183,-0.0027303826,-0.0033093654,-0.00011461973,0.0,0.0,0.0,0.0,0.0,0.0
202024199,201833648,-0.07594354,0.027822513,0.074421085,-0.00079085305,0.04863465,-0.1185348,0.0,0.0,0.0,0.0,0.0,0.0,0.0,0.2773037,0.0,0.0,0.0,0.0,0.0,0.0,0.0014286041,-0.00032367522,-0.004055105,0.0014286041,0.007267504,0.016085835,0.0004271865,0.0,0.0,0.0,0.0,0.0,0.0
202524167,202333648,0.05357275,-0.033041343,0.054791823,0.019565374,0.03128445,-0.12308931,0.0,0.0,0.0,0.0,0.0,0.0,0.0,0.18040824,0.0,0.0,0.0,0.0,0.0,0.0,0.00022575259,-0.002011953,-0.0029464886,0.00022575259,-0.004931687,-0.0117366575,-0.0005143881,0.0,0.0,0.0,0.0,0.0,0.0
203024164,202833648,-0.00986827,0.08160854,-0.0077762455,0.007319765,0.039274335,-0.14458466,0.0,0.0,0.0,0.0,0.0,0.0,0.0,0.24824142,0.0,0.0,0.0,0.0,0.0,0.0,6.195903e-05,-0.002453727,-0.002281256,6.195903e-05,0.0059392797,-0.0008308254,-0.00012165308,0.0,0.0,0.0,0.0,0.0,0.0
203524159,203333648,0.040413927,-0.03604167,0.029705953,0.019403655,0.02077818,-0.12548542,0.0,0.0,0.0,0.0,0.0,0.0,0.0,0.1587038,0.0,0.0,0.0,0.0,0.0,0.0,-0.0002976656,-0.0019622045,-0.001371257,-0.0002976656,-0.00468563,0.006702088,0.00030052662,0.0,0.0,0.0,0.0,0.0,0.0
204024165,203833648,0.017304339,-0.025490474,-0.037492186,0.018617947,0.01125288,-0.14400244,0.0,0.0,0.0,0.0,0.0,0.0,0.0,0.08209658,0.0,0.0,0.0,0.0,0.0,0.0,0.0017113388,-0.0015464853,-0.0028387606,0.0017113388,0.017946951,-0.0020962842,-0.00045704842,0.0,0.0,0.0,0.0,0.0,0.0
204524164,204333648,-0.015879106,0.050043356,-0.022862453,0.013699481,0.013632894,-0.12383366,0.0,0.0,0.0,0.0,0.0,0.0,0.0,0.32758427,0.0,0.0,0.0,0.0,0.0,0.0,0.0026212633,-0.001550853,-0.003004454,0.0026212633,-0.0012606038,0.028296009,0.0007804036,0.0,0.0,0.0,0.0,0.0,0.0
205024197,204833648,-0.019986764,0.015711945,-0.026509702,-0.002559998,0.01095891,-0.11594725,0.0,0.0,0.0,0.0,0.0,0.0,0.0,0.25790572,0.0,0.0,0.0,0.0,0.0,0.0,0.00558877,-0.0018942914,-0.0032398403,0.00558877,0.0028942218,0.036514994,0.00077462196,0.0,0.0,0.0,0.0,0.0,0.0
205524170,205333648,0.0439532,-0.002287209,0.011847893,0.009043538,0.011752129,-0.07571268,0.0,0.0,0.0,0.0,0.0,0.0,0.0,0.2599914,0.0,0.0,0.0,0.0,0.0,0.0,0.011568725,-0.0023209378,-0.0053883865,0.011568725,-0.012770883,0.025451962,0.0005285144,0.0,0.0,0.0,0.0,0.0,0.0
206024166,205833648,-0.023129001,-0.057298727,-0.10245641,-0.028632956,0.0116016865,-0.024419546,0.0,0.0,0.0,0.0,0.0,0.0,0.0,0.25188255,0.0,0.0,0.0,0.0,0.0,0.0,0.014745563,-0.0016823626,-0.0033849925,0.014745563,0.004243167,0.031160448,-0.00065249205,0.0,0.0,0.0,0.0,0.0,0.0
207024195,206833649,0.09538599,0.10002659,-0.20367736,-0.00029066205,0.018859506,0.054667473,0.0,0.0,0.0,0.0,0.0,0.0,0.0,0.41171575,0.0,0.0,0.0,0.0,0.0,0.0,0.015203208,-0.0014099786,-0.0026449412,0.015203208,0.1555096,0.0029287376,-0.015539169,0.0,0.0,0.0,0.0,0.0,0.0
207524180,207333648,0.020336762,-0.05463176,-0.13432765,-0.012270272,0.0064002275,0.09465456,0.0,0.0,0.0,0.0,0.0,0.0,0.0,0.2627852,0.0,0.0,0.0,0.0,0.0,0.0,0.0147847235,-0.0017423162,-0.003041409,0.0147847235,0.11776165,0.0010309331,-0.007862687,0.0,0.0,0.0,0.0,0.0,0.0
208024194,207833648,-0.03661236,0.057999767,-0.13343304,-0.0016405731,0.0139859915,0.12877607,0.0,0.0,0.0,0.0,0.0,0.0,0.0,0.31687355,0.0,0.0,0.0,0.0,0.0,0.0,0.014450312,0.00068681804,-0.004799053,0.014450312,0.0050140256,-0.040538803,-0.0009549856,0.0,0.0,0.0,0.0,0.0,0.0
208524109,208333651,0.0590498,-0.07223554,-0.10716033,-0.003585996,0.002590537,0.15877724,0.0,0.0,0.0,0.0,0.0,0.0,0.0,0.2094369,0.0,0.0,0.0,0.0,0.0,0.0,0.0047195256,0.0002975956,-0.0009343177,0.0047195256,-0.04066083,0.025050275,-0.0008582473,0.0,0.0,0.0,0.0,0.0,0.0
209024103,208833648,0.1067673,0.017571367,-0.07259953,0.016109476,0.016748786,0.19912577,0.0,0.0,0.0,0.0,0.0,0.0,0.0,0.3908682,0.0,0.0,0.0,0.0,0.0,0.0,0.0013921559,-0.0016042285,-0.0012549013,0.0013921559,-0.038722165,0.08156816,-0.00059878826,0.0,0.0,0.0,0.0,0.0,0.0
209524137,209333648,0.1058251,-0.022057652,-0.042497516,0.034234047,0.033136487,0.20842123,0.0,0.0,0.0,0.0,0.0,0.0,0.0,0.07427788,0.0,0.0,0.0,0.0,0.0,0.0,0.001548022,-3.3666147e-05,0.001431182,0.001548022,-0.104830615,-0.09186559,0.0042322874,0.0,0.0,0.0,0.0,0.0,0.0
210024141,209833648,-0.027438164,0.026215553,-0.017907143,0.03178397,0.06067264,0.22182894,0.0,0.0,0.0,0.0,0.0,0.0,0.0,0.7467551,0.0,0.0,0.0,0.0,0.0,0.0,0.0009818673,-0.000503412,0.00088874996,0.0009818673,-0.090580925,-0.023698783,0.012979507,0.0,0.0,0.0,0.0,0.0,0.0
210524105,210333648,-0.05547875,-0.058553815,-0.06790125,0.04056239,0.0744133,0.18851233,0.0,0.0,0.0,0.0,0.0,0.0,0.0,0.47146797,0.0,0.0,0.0,0.0,0.0,0.0,0.0012795255,0.0003115132,0.0012795255,-0.00062841177,-0.0920403,-0.009618844,0.009304345,0.0,0.0,0.0,0.0,0.0,0.0
211524005,211333648,-0.004107833,-0.01986456,-0.09179628,0.04690385,0.09047747,0.17117977,0.0,0.0,0.0,0.0,0.0,0.0,0.0,0.38845253,0.0,0.0,0.0,0.0,0.0,0.0,0.0016762316,0.0009779623,0.00049482286,0.0016762316,0.17048189,0.12375836,-0.036720037,0.0,0.0,0.0,0.0,0.0,0.0
212023950,211833648,-0.03427744,-0.062058926,-0.07849491,0.036854506,0.06851387,0.17773151,0.0,0.0,0.0,0.0,0.0,0.0,0.0,0.122302055,0.0,0.0,0.0,0.0,0.0,0.0,0.0021291003,0.0014928652,0.0021291003,-0.00302881,0.024878748,-0.040467005,-0.0017995238,0.0,0.0,0.0,0.0,0.0,0.0
212523938,212333648,-0.01617229,0.06357193,0.20382327,0.034434795,0.06212902,-0.00625515,0.0,0.0,0.0,0.0,0.0,0.0,0.0,0.5968294,0.0,0.0,0.0,0.0,0.0,0.0,0.001729019,-0.00011980999,0.001729019,-0.00021141768,0.17974314,0.043351498,-0.019564092,0.0,0.0,0.0,0.0,0.0,0.0
213023944,212833648,0.019327462,0.050876617,0.115266204,0.021270275,0.016495705,-0.042193413,0.0,0.0,0.0,0.0,0.0,0.0,0.0,0.4768629,0.0,0.0,0.0,0.0,0.0,0.0,0.0026423857,-0.0024396358,0.0026423857,0.0026381016,0.09916929,-0.12224422,0.0012974739,0.0,0.0,0.0,0.0,0.0,0.0
213523936,213333648,-0.117329836,0.082386136,0.032709897,-0.03462124,-0.05982876,-0.12176609,0.0,0.0,0.0,0.0,0.0,0.0,0.0,0.07422733,0.0,0.0,0.0,0.0,0.0,0.0,0.0036669374,0.0014261939,0.0020242557,0.0036669374,0.14039516,-0.11694038,-0.0026624799,0.0,0.0,0.0,0.0,0.0,0.0
214023938,213833648,-0.09425337,0.009321809,-0.019976437,-0.046599865,-0.110980034,-0.13701248,0.0,0.0,0.0,0.0,0.0,0.0,0.0,-0.0,0.0,0.0,0.0,0.0,0.0,0.0,0.0022199675,0.00021055155,0.0022199675,0.0021624565,0.16016166,-0.026784789,-0.0009828806,0.0,0.0,0.0,0.0,0.0,0.0
214523942,214333648,0.22705302,-0.08457072,0.0028145313,-0.010664463,-0.14921951,-0.15028,0.0,0.0,0.0,0.0,0.0,0.0,0.0,-0.0,0.0,0.0,0.0,0.0,0.0,0.0,0.0019220412,0.0014192075,0.0008653626,0.0019220412,0.08079902,0.03745035,0.00035059452,0.0,0.0,0.0,0.0,0.0,0.0
215023967,214833648,-0.0014612302,0.05289359,-0.13665408,-0.026670933,-0.12565231,-0.29998684,0.0,0.0,0.0,0.0,0.0,0.0,0.0,-0.0,0.0,0.0,0.0,0.0,0.0,0.0,0.0014668852,0.000908711,0.0014668852,0.001098007,0.04585964,-0.020119976,-0.0031673312,0.0,0.0,0.0,0.0,0.0,0.0
215523940,215333648,-0.15993543,-0.009729654,-0.17083985,-0.036546707,-0.12074947,-0.3471098,0.0,0.0,0.0,0.0,0.0,0.0,0.0,-0.0,0.0,0.0,0.0,0.0,0.0,0.0,0.0011221766,-0.0002861498,-0.0001661405,0.0011221766,-0.05235364,-0.0021966286,-0.0011079907,0.0,0.0,0.0,0.0,0.0,0.0
216023938,215833648,-0.010874733,0.057692587,-0.1433624,-0.018889427,-0.108181,-0.38045883,0.0,0.0,0.0,0.0,0.0,0.0,0.0,-0.0,0.0,0.0,0.0,0.0,0.0,0.0,0.0008301651,0.0008301651,-0.00040069222,4.1365623e-05,-0.08543883,-0.055857703,-0.0022241473,0.0,0.0,0.0,0.0,0.0,0.0
216523965,216333648,-0.042269636,0.10176493,-0.13107866,-0.008189201,-0.07714844,-0.39625645,0.0,0.0,0.0,0.0,0.0,0.0,0.0,-0.44945717,0.0,0.0,0.0,0.0,0.0,0.0,0.0020255279,0.0020255279,-0.0015970618,-0.00046676397,0.1406304,-0.085852206,-0.03991419,0.0,0.0,0.0,0.0,0.0,0.0
217023936,216833648,0.04031098,-0.07272929,-0.1305641,0.048189163,-0.061667442,-0.48889542,0.0,0.0,0.0,0.0,0.0,0.0,0.0,-0.26429272,0.0,0.0,0.0,0.0,0.0,0.0,0.0022140443,-0.0020008483,-0.0004767999,0.0022140443,0.13151488,0.08506924,-0.024858236,0.0,0.0,0.0,0.0,0.0,0.0
217523940,217333648,0.19368315,0.085107215,-0.19662839,0.06059265,-0.046471596,-0.54953384,0.0,0.0,0.0,0.0,0.0,0.0,0.0,-0.15872383,0.0,0.0,0.0,0.0,0.0,0.0,0.0020730793,0.00023292145,0.002047114,0.0020730793,-0.13476983,-0.100514874,-0.013346612,0.0,0.0,0.0,0.0,0.0,0.0
218023942,217833648,0.04234758,0.012258634,-0.108019054,0.04735899,-0.059293747,-0.4549818,0.0,0.0,0.0,0.0,0.0,0.0,0.0,-0.23770905,0.0,0.0,0.0,0.0,0.0,0.0,0.0035294387,0.0035294387,-0.0003822893,0.0032002926,0.18093827,0.2312212,-0.08474618,0.0,0.0,0.0,0.0,0.0,0.0
218523938,218333648,0.014167845,0.01513803,-0.13238028,0.09593153,0.026975632,-0.43049812,0.0,0.0,0.0,0.0,0.0,0.0,0.0,0.01599884,0.0,0.0,0.0,0.0,0.0,0.0,0.0009805262,-0.003949904,-0.0031516105,0.0009805262,0.12318328,-0.059572563,-0.052502453,0.0,0.0,0.0,0.0,0.0,0.0
219023939,218833648,-0.012387514,0.26340044,-0.19846216,0.094917774,0.07675743,-0.46694088,0.0,0.0,0.0,0.0,0.0,0.0,0.0,0.5605364,0.0,0.0,0.0,0.0,0.0,0.0,0.0028231367,-0.0022726166,0.0028231367,0.0010391772,0.3123062,-0.059022184,-0.056679964,0.0,0.0,0.0,0.0,0.0,0.0
219523940,219333648,0.21918565,-0.0018303394,-0.14206812,0.12562561,0.009988785,-0.4796772,0.0,0.0,0.0,0.0,0.0,0.0,0.0,0.16674614,0.0,0.0,0.0,0.0,0.0,0.0,0.002076082,0.0005021277,0.002076082,0.00086575747,0.19799244,-0.01804656,-0.036691844,0.0,0.0,0.0,0.0,0.0,0.0
220023940,219833648,0.068006575,-0.08042228,-0.09906614,0.116196156,-0.009970665,-0.4721918,0.0,0.0,0.0,0.0,0.0,0.0,0.0,0.46404648,0.0,0.0,0.0,0.0,0.0,0.0,0.0010489747,0.00016145827,0.0010489747,-4.7892332e-05,0.16333121,0.10978874,-0.034413815,0.0,0.0,0.0,0.0,0.0,0.0
221023936,220833648,0.01062268,0.0014146566,-0.17595202,0.08971834,-0.034578323,-0.53131485,0.0,0.0,0.0,0.0,0.0,0.0,0.0,0.27283,0.0,0.0,0.0,0.0,0.0,0.0,0.0012119412,-0.00044904742,0.0012119412,-9.834766e-06,-0.13409415,-0.07792756,-0.015180409,0.0,0.0,0.0,0.0,0.0,0.0
221523974,221333648,-0.010169819,-0.014887929,-0.14233872,0.07309437,-0.07366562,-0.5470123,0.0,0.0,0.0,0.0,0.0,0.0,0.0,0.03377247,0.0,0.0,0.0,0.0,0.0,0.0,0.0024735332,-0.0008939686,0.0015001148,0.0024735332,0.09720719,-0.092463344,-0.010445893,0.0,0.0,0.0,0.0,0.0,0.0
222023938,221833648,-0.018609576,-0.052540824,-0.20626807,0.062434196,-0.094789505,-0.56636333,0.0,0.0,0.0,0.0,0.0,0.0,0.0,0.22715855,0.0,0.0,0.0,0.0,0.0,0.0,0.0017363876,-0.00054632174,0.0017363876,0.0011285543,0.1661673,0.011821153,-0.015305221,0.0,0.0,0.0,0.0,0.0,0.0
222523953,222333648,-0.024150163,0.00031153113,-0.17199036,0.07441521,-0.08256817,-0.51187706,0.0,0.0,0.0,0.0,0.0,0.0,0.0,0.09732723,0.0,0.0,0.0,0.0,0.0,0.0,0.0006085932,-0.00027538976,-0.0012575611,0.0006085932,-0.14606827,0.009260021,0.0012189746,0.0,0.0,0.0,0.0,0.0,0.0
223023936,222833648,-0.11022881,-0.015824482,-0.18203825,0.07371235,-0.06402874,-0.50497437,0.0,0.0,0.0,0.0,0.0,0.0,0.0,0.299057,0.0,0.0,0.0,0.0,0.0,0.0,0.00057433546,-0.0014522015,0.00057433546,0.00054708123,-0.09416747,0.044685602,-0.0009096861,0.0,0.0,0.0,0.0,0.0,0.0
223523937,223333648,0.009730741,-0.05284608,-0.19722992,0.11258602,-0.059823036,-0.4816637,0.0,0.0,0.0,0.0,0.0,0.0,0.0,-0.049476624,0.0,0.0,0.0,0.0,0.0,0.0,0.00017606234,0.00017606234,-0.00046695024,0.0001398027,0.027119542,0.054486707,-0.0015860796,0.0,0.0,0.0,0.0,0.0,0.0
224023940,223833648,0.06841619,-0.077766165,-0.1928393,0.10961151,-0.060191154,-0.4611473,0.0,0.0,0.0,0.0,0.0,0.0,0.0,-0.05336857,0.0,0.0,0.0,0.0,0.0,0.0,0.0013002753,-0.0009577242,0.0011852086,0.0013002753,0.08697446,0.08010894,-0.0082656145,0.0,0.0,0.0,0.0,0.0,0.0
224523940,224333648,-0.043079916,0.09853153,-0.101816416,0.09210205,-0.04672718,-0.42165184,0.0,0.0,0.0,0.0,0.0,0.0,0.0,-0.12473965,0.0,0.0,0.0,0.0,0.0,0.0,0.0007118853,0.0007118853,0.0003439933,-0.00013101101,-0.1353362,0.04143719,-0.006810963,0.0,0.0,0.0,0.0,0.0,0.0
225023939,224833648,-0.0877892,0.045411292,-0.189278,0.0897851,-0.04660797,-0.40760136,0.0,0.0,0.0,0.0,0.0,0.0,0.0,-0.2195673,0.0,0.0,0.0,0.0,0.0,0.0,0.00047361897,0.00047361897,-3.5762787e-05,-0.00047457218,0.026157884,0.0100221075,-0.0007444024,0.0,0.0,0.0,0.0,0.0,0.0
226023944,225833648,-0.11882444,0.038168877,-0.14351395,0.08564901,-0.026515007,-0.36390877,0.0,0.0,0.0,0.0,0.0,0.0,0.0,-0.011695862,0.0,0.0,0.0,0.0,0.0,0.0,6.7949295e-06,-0.00072654523,-0.0009827688,6.7949295e-06,0.019716777,0.07074572,0.0002836585,0.0,0.0,0.0,0.0,0.0,0.0
226523967,226333648,-0.096112005,0.04468275,-0.17729391,0.104251385,-0.028850555,-0.3517542,0.0,0.0,0.0,0.0,0.0,0.0,0.0,-0.2034607,0.0,0.0,0.0,0.0,0.0,0.0,0.00040316256,0.00040316256,4.8339367e-05,2.169609e-05,-0.027623508,-0.069714144,-0.00034826994,0.0,0.0,0.0,0.0,0.0,0.0
227023939,226833648,0.045571163,0.089697525,-0.10945007,0.1104579,-0.01723671,-0.33484077,0.0,0.0,0.0,0.0,0.0,0.0,0.0,-0.03260231,0.0,0.0,0.0,0.0,0.0,0.0,0.0021304227,0.0021304227,-0.00042200089,0.0003361702,0.06680852,-0.0076684747,-0.0070109367,0.0,0.0,0.0,0.0,0.0,0.0
227523935,227333648,0.076203026,0.082620546,-0.098927125,0.112987995,-0.015668869,-0.35812378,0.0,0.0,0.0,0.0,0.0,0.0,0.0,0.43745613,0.0,0.0,0.0,0.0,0.0,0.0,0.0011984757,0.0011984757,-0.0024579614,-0.00081303716,-0.026899612,-0.0015878081,0.0010585785,0.0,0.0,0.0,0.0,0.0,0.0
228023942,227833648,0.066738404,0.057509303,-0.11385822,0.107578754,-0.0060243607,-0.32462502,0.0,0.0,0.0,0.0,0.0,0.0,0.0,0.0371418,0.0,0.0,0.0,0.0,0.0,0.0,0.0024075327,0.0024075327,-0.0016205609,-0.0018449426,0.04406648,-0.049333587,-0.0036409497,0.0,0.0,0.0,0.0,0.0,0.0
228523938,228333648,0.04684477,0.017646223,-0.1419994,0.09410477,-2.2888184e-05,-0.33644867,0.0,0.0,0.0,0.0,0.0,0.0,0.0,-0.22783661,0.0,0.0,0.0,0.0,0.0,0.0,0.0012139231,0.00091903703,0.0012139231,0.0006468296,-0.10947463,-0.20078258,-0.0063402057,0.0,0.0,0.0,0.0,0.0,0.0
229023938,228833648,0.0059235394,0.08272891,-0.12792186,0.085035324,0.01474762,-0.27959442,0.0,0.0,0.0,0.0,0.0,0.0,0.0,-0.2515583,0.0,0.0,0.0,0.0,0.0,0.0,0.0006978493,0.0006978493,-0.00065493584,-0.0012481213,-0.09096439,0.17797947,-0.0098744035,0.0,0.0,0.0,0.0,0.0,0.0
229523940,229333648,0.03896483,0.040988773,-0.14669599,0.102228165,-0.0014638901,-0.28721428,0.0,0.0,0.0,0.0,0.0,0.0,0.0,0.13427353,0.0,0.0,0.0,0.0,0.0,0.0,0.001391679,0.000582112,0.0012934059,0.001391679,0.008995824,-0.035306223,-0.00062680244,0.0,0.0,0.0,0.0,0.0,0.0
230023940,229833648,0.004767865,0.02461934,-0.11723448,0.09744215,-0.008487701,-0.2690792,0.0,0.0,0.0,0.0,0.0,0.0,0.0,0.20227432,0.0,0.0,0.0,0.0,0.0,0.0,0.0022767256,0.0022767256,0.0007504076,-0.0005993247,0.020952728,0.008243836,-0.0011931062,0.0,0.0,0.0,0.0,0.0,0.0
230523942,230333648,0.009597681,-0.040638264,-0.08474487,0.09795761,-0.02540207,-0.28983307,0.0,0.0,0.0,0.0,0.0,0.0,0.0,0.019960403,0.0,0.0,0.0,0.0,0.0,0.0,0.00035208464,0.00012674369,0.00035208464,-0.00067821145,0.046191964,0.025982276,-0.0033878088,0.0,0.0,0.0,0.0,0.0,0.0
231023942,230833648,-0.004616171,0.052094944,-0.13754645,0.10316467,-0.021471977,-0.27347946,0.0,0.0,0.0,0.0,0.0,0.0,0.0,0.19716644,0.0,0.0,0.0,0.0,0.0,0.0,0.0005948092,0.0005948092,0.00038334727,-0.0022031665,0.2109481,-0.008072732,-0.02943325,0.0,0.0,0.0,0.0,0.0,0.0
231523968,231333648,0.0601566,0.009218182,-0.12504819,0.10661745,-0.030277252,-0.26589012,0.0,0.0,0.0,0.0,0.0,0.0,0.0,0.13067818,0.0,0.0,0.0,0.0,0.0,0.0,0.00027035177,-0.000102879945,0.00027035177,-0.0013181269,0.000303559,0.04349124,-0.00029850006,0.0,0.0,0.0,0.0,0.0,0.0
232023936,231833648,0.0002680719,-0.017972767,-0.09762743,0.09815788,-0.02820015,-0.26613235,0.0,0.0,0.0,0.0,0.0,0.0,0.0,0.42884827,0.0,0.0,0.0,0.0,0.0,0.0,0.0015035272,2.7259812e-05,0.0015035272,-0.000962466,-0.1134447,-0.04600322,-0.0050002933,0.0,0.0,0.0,0.0,0.0,0.0
232523944,232333648,0.0016897693,-0.0105799865,-0.14371601,0.08917713,-0.031978607,-0.27578545,0.0,0.0,0.0,0.0,0.0,0.0,0.0,0.35337257,0.0,0.0,0.0,0.0,0.0,0.0,0.0028845668,0.0018857033,0.0028845668,0.00011047721,-0.005707212,-0.064388186,-0.0035042167,0.0,0.0,0.0,0.0,0.0,0.0
233023967,232833648,0.00072944164,-0.019285828,-0.115353554,0.08728218,-0.028362274,-0.25883675,0.0,0.0,0.0,0.0,0.0,0.0,0.0,-0.43608475,0.0,0.0,0.0,0.0,0.0,0.0,0.00014224835,0.00014224835,-0.0005386323,-0.00078076124,0.057198834,0.08895363,-0.002643764,0.0,0.0,0.0,0.0,0.0,0.0
233523944,233333648,-0.01923427,-0.03285817,-0.09249993,0.096230984,-0.029548645,-0.24094772,0.0,0.0,0.0,0.0,0.0,0.0,0.0,-0.17385864,0.0,0.0,0.0,0.0,0.0,0.0,0.0009545088,-0.000245078,0.0009545088,-0.00019854307,0.012987789,-0.085804686,-0.0044917464,0.0,0.0,0.0,0.0,0.0,0.0
235023945,234833648,0.11411672,0.0074696746,-0.08075264,0.07333517,-0.017318726,-0.1978283,0.0,0.0,0.0,0.0,0.0,0.0,0.0,-0.22537804,0.0,0.0,0.0,0.0,0.0,0.0,0.0012012422,0.000981553,0.0012012422,0.0007767379,0.14396916,-0.12826583,-0.019689381,0.0,0.0,0.0,0.0,0.0,0.0
235523941,235333648,-0.0044675022,-0.02394285,-0.07180394,0.052213192,-0.018598557,-0.20080185,0.0,0.0,0.0,0.0,0.0,0.0,0.0,0.035549164,0.0,0.0,0.0,0.0,0.0,0.0,0.003018049,0.003018049,0.0018350035,-0.006510347,-0.108229674,-0.028617453,-0.0015438199,0.0,0.0,0.0,0.0,0.0,0.0
236523965,236333648,0.048057653,-0.05228333,-0.022863418,0.06605339,-0.0047044754,-0.16059494,0.0,0.0,0.0,0.0,0.0,0.0,0.0,-0.13578606,0.0,0.0,0.0,0.0,0.0,0.0,0.00093684765,0.00093684765,-0.0014199689,-0.006588042,0.0850059,-0.04229802,-0.007873535,0.0,0.0,0.0,0.0,0.0,0.0
237023950,236833648,0.06073771,-0.0381466,-0.09065935,0.07159567,-0.006002426,-0.18442917,0.0,0.0,0.0,0.0,0.0,0.0,0.0,-0.1714077,0.0,0.0,0.0,0.0,0.0,0.0,0.00055350363,2.2807624e-05,0.00055350363,-5.209446e-05,0.17508411,-0.016099965,-0.017282248,0.0,0.0,0.0,0.0,0.0,0.0
237523937,237333648,-0.0063933767,-0.038541634,-0.09949395,0.04902649,-0.00015640259,-0.19221497,0.0,0.0,0.0,0.0,0.0,0.0,0.0,-0.16887856,0.0,0.0,0.0,0.0,0.0,0.0,0.00029387884,0.00029387884,-0.0012675598,-0.0028989315,-0.07451221,-0.0038159676,-0.0004119873,0.0,0.0,0.0,0.0,0.0,0.0
238023975,237833648,-0.027308572,-0.06735629,-0.15366636,0.046054363,0.0068826675,-0.22112656,0.0,0.0,0.0,0.0,0.0,0.0,0.0,-0.2371254,0.0,0.0,0.0,0.0,0.0,0.0,0.00093918294,-0.00095908716,0.00093918294,-0.0017420948,-0.04988596,0.03932311,-0.00046509504,0.0,0.0,0.0,0.0,0.0,0.0
238523936,238333648,0.023590058,-0.044387814,-0.13040122,0.046640873,0.01768303,-0.22158432,0.0,0.0,0.0,0.0,0.0,0.0,0.0,-0.028884888,0.0,0.0,0.0,0.0,0.0,0.0,-0.00015260279,-0.0001573977,-0.00015260279,-0.00989458,0.038222637,0.047876168,0.0003207326,0.0,0.0,0.0,0.0,0.0,0.0
239023942,238833648,0.00052416325,-0.0061600134,-0.08450395,0.04544449,0.016744614,-0.24450111,0.0,0.0,0.0,0.0,0.0,0.0,0.0,0.45429802,0.0,0.0,0.0,0.0,0.0,0.0,0.003761515,-0.00041764928,0.003761515,-8.845329e-05,0.06300917,0.008564611,-0.0012578964,0.0,0.0,0.0,0.0,0.0,0.0
239523934,239333648,-0.033061765,0.14098124,-0.053233713,0.01991272,0.03872013,-0.2906971,0.0,0.0,0.0,0.0,0.0,0.0,0.0,0.062307358,0.0,0.0,0.0,0.0,0.0,0.0,0.014161646,-0.0005639116,0.014161646,-0.0075852275,0.12948184,-0.13315472,0.0075805187,0.0,0.0,0.0,0.0,0.0,0.0
240023943,239833648,0.1079362,0.1620731,0.09389591,-0.027822018,0.050974846,-0.40112114,0.0,0.0,0.0,0.0,0.0,0.0,0.0,0.052129745,0.0,0.0,0.0,0.0,0.0,0.0,0.0038168668,0.0038168668,-0.0022222549,0.0009485185,0.016072577,-0.21268822,0.018311322,0.0,0.0,0.0,0.0,0.0,0.0
240523937,240333648,0.12950253,-0.00068037584,-0.11281678,-0.08311176,0.04859543,-0.4080677,0.0,0.0,0.0,0.0,0.0,0.0,0.0,-0.053503036,0.0,0.0,0.0,0.0,0.0,0.0,0.0025086035,0.0025086035,-0.0037655681,-0.00045251846,0.02139011,-0.009393625,0.00015485287,0.0,0.0,0.0,0.0,0.0,0.0
241023942,240833648,0.057467937,0.016498372,-0.15788992,-0.07146692,0.0578928,-0.39163017,0.0,0.0,0.0,0.0,0.0,0.0,0.0,0.008371353,0.0,0.0,0.0,0.0,0.0,0.0,0.00030155573,0.00030155573,-0.0007122457,0.00011599064,-0.06739878,0.04075835,0.0006263256,0.0,0.0,0.0,0.0,0.0,0.0
241523967,241333648,-0.027158856,0.040157393,-0.19498031,-0.04031849,0.0636158,-0.36987686,0.0,0.0,0.0,0.0,0.0,0.0,0.0,-0.08907509,0.0,0.0,0.0,0.0,0.0,0.0,0.00010919571,-0.0004995554,9.597093e-05,0.00010919571,0.09992576,0.10043645,-0.0063179135,0.0,0.0,0.0,0.0,0.0,0.0
242023938,241833648,0.018425763,-0.026683226,-0.1842446,0.008274078,0.058359146,-0.34746742,0.0,0.0,0.0,0.0,0.0,0.0,0.0,-0.08695221,0.0,0.0,0.0,0.0,0.0,0.0,0.00036510825,-0.0005604951,4.529953e-06,0.00036510825,-0.16676828,0.07813745,0.00027543306,0.0,0.0,0.0,0.0,0.0,0.0
242523945,242333648,0.036715716,-0.042278346,-0.13283435,0.043456793,0.05657673,-0.33953476,0.0,0.0,0.0,0.0,0.0,0.0,0.0,-0.014909744,0.0,0.0,0.0,0.0,0.0,0.0,0.0008819401,-0.0001734742,2.0727515e-05,0.0008819401,-0.13457231,0.034444325,0.000941813,0.0,0.0,0.0,0.0,0.0,0.0
243023967,242833648,0.050613195,0.018786874,-0.03748764,0.05316162,0.05893898,-0.3302307,0.0,0.0,0.0,0.0,0.0,0.0,0.0,-0.090768814,0.0,0.0,0.0,0.0,0.0,0.0,0.0004721582,-0.0009977836,0.00022645295,0.0004721582,-0.049010694,0.030906932,0.001971662,0.0,0.0,0.0,0.0,0.0,0.0
243523935,243333648,0.21726477,-0.028943785,-0.104413785,0.09708071,0.054156303,-0.3128624,0.0,0.0,0.0,0.0,0.0,0.0,0.0,0.15781975,0.0,0.0,0.0,0.0,0.0,0.0,0.0014953911,-0.00014929473,-0.006108761,0.0014953911,-0.09081893,0.22588277,0.05920005,0.0,0.0,0.0,0.0,0.0,0.0
244023938,243833648,0.063821316,-0.0051182546,-0.08790426,0.13739061,0.053792,-0.30276108,0.0,0.0,0.0,0.0,0.0,0.0,0.0,0.28531647,0.0,0.0,0.0,0.0,0.0,0.0,0.003602367,-0.0028222003,0.003602367,0.0004028678,-0.30639076,-0.041000456,-0.033450544,0.0,0.0,0.0,0.0,0.0,0.0
244523941,244333648,-0.09543359,0.0060157944,-0.09227318,0.11324167,0.045125008,-0.31194115,0.0,0.0,0.0,0.0,0.0,0.0,0.0,0.27505875,0.0,0.0,0.0,0.0,0.0,0.0,0.002486296,5.2134506e-05,0.002486296,-0.0018950403,-0.11896171,-0.03188572,-0.005926013,0.0,0.0,0.0,0.0,0.0,0.0
245023936,244833648,-0.011725783,-0.032742754,-0.057336904,0.06541157,0.031446457,-0.3138218,0.0,0.0,0.0,0.0,0.0,0.0,0.0,0.10683823,0.0,0.0,0.0,0.0,0.0,0.0,0.0008919835,0.0007492383,0.0008919835,-7.5280666e-05,0.18307133,-0.03408178,-0.014609575,0.0,0.0,0.0,0.0,0.0,0.0
246023943,245833648,-0.060846552,-0.04111189,-0.029320177,-0.03273201,0.024781227,-0.2855549,0.0,0.0,0.0,0.0,0.0,0.0,0.0,-0.050844193,0.0,0.0,0.0,0.0,0.0,0.0,6.73905e-05,6.73905e-05,-0.00033311546,-0.00050857663,0.11282686,-0.13008717,-0.0078113675,0.0,0.0,0.0,0.0,0.0,0.0
246523937,246333648,0.008790851,0.043223023,-0.070884034,-0.05494547,0.031474113,-0.2624321,0.0,0.0,0.0,0.0,0.0,0.0,0.0,0.07543564,0.0,0.0,0.0,0.0,0.0,0.0,0.00016230345,-0.0011623888,-0.00067842007,0.00016230345,0.022133105,-0.069012485,-0.0013126135,0.0,0.0,0.0,0.0,0.0,0.0
247023935,246833648,-0.010988653,0.025964692,-0.10828277,-0.111739635,0.034217834,-0.23760986,0.0,0.0,0.0,0.0,0.0,0.0,0.0,-0.11414528,0.0,0.0,0.0,0.0,0.0,0.0,0.0029038116,0.0029038116,-0.0006864965,-0.00042632222,0.2290813,-0.27459872,0.042694926,0.0,0.0,0.0,0.0,0.0,0.0
248023972,247833648,-0.030556679,0.057275124,-0.14606124,-0.14106369,0.027947426,-0.17518425,0.0,0.0,0.0,0.0,0.0,0.0,0.0,0.21308327,0.0,0.0,0.0,0.0,0.0,0.0,-0.00011971593,-0.0016009468,-0.001333788,-0.00011971593,-0.047286734,0.20433915,0.0053694844,0.0,0.0,0.0,0.0,0.0,0.0
248523937,248333648,-0.00064218044,-0.055202894,-0.10012779,-0.0851686,0.011663437,-0.15049934,0.0,0.0,0.0,0.0,0.0,0.0,0.0,-0.1617527,0.0,0.0,0.0,0.0,0.0,0.0,0.0007376075,-0.0027896627,-0.0024354644,0.0007376075,-0.150455,0.105917245,0.0076389313,0.0,0.0,0.0,0.0,0.0,0.0
249023941,248833648,0.10643604,-0.026516438,-0.108520865,-0.016888618,0.016633987,-0.1407566,0.0,0.0,0.0,0.0,0.0,0.0,0.0,0.061704636,0.0,0.0,0.0,0.0,0.0,0.0,0.00015825033,-0.0020803441,6.8843365e-06,0.00015825033,-0.14832401,0.08755018,0.0037266612,0.0,0.0,0.0,0.0,0.0,0.0
249523935,249333648,-0.11977959,-0.07911946,-0.09928173,-0.003365755,0.018367767,-0.13477707,0.0,0.0,0.0,0.0,0.0,0.0,0.0,0.17952919,0.0,0.0,0.0,0.0,0.0,0.0,0.0013623536,-0.001603459,0.0013623536,-0.00086572766,-0.04449655,0.074101895,0.0054727793,0.0,0.0,0.0,0.0,0.0,0.0
250023937,249833648,0.1938746,-0.06782725,-0.07267183,0.03704691,0.021578789,-0.1542263,0.0,0.0,0.0,0.0,0.0,0.0,0.0,0.04540062,0.0,0.0,0.0,0.0,0.0,0.0,0.00017542392,-0.0010434873,0.00017542392,3.6656857e-05,0.15673506,0.03966091,-0.014737606,0.0,0.0,0.0,0.0,0.0,0.0
250523934,250333648,0.13986373,0.084455624,-0.011410415,0.027033329,0.04460907,-0.13142967,0.0,0.0,0.0,0.0,0.0,0.0,0.0,0.3607483,0.0,0.0,0.0,0.0,0.0,0.0,0.0007254933,0.0007254933,0.00020702183,-0.0012407303,-0.051680464,-0.045281857,-0.0011498928,0.0,0.0,0.0,0.0,0.0,0.0
251023944,250833648,0.04575652,-0.030875996,0.065318465,-0.00033950806,0.030414581,-0.18044853,0.0,0.0,0.0,0.0,0.0,0.0,0.0,0.54748726,0.0,0.0,0.0,0.0,0.0,0.0,0.0011712639,0.0011712639,0.0004094988,-0.0012416542,0.1175042,0.009628739,-0.009240389,0.0,0.0,0.0,0.0,0.0,0.0
251523940,251333648,0.009393215,-0.0152541995,0.08121594,-0.057896137,0.03621769,-0.23843575,0.0,0.0,0.0,0.0,0.0,0.0,0.0,0.5379219,0.0,0.0,0.0,0.0,0.0,0.0,0.0010789218,0.0010789218,0.00021317601,-0.00036546588,0.11964249,-0.12548268,-0.009463191,0.0,0.0,0.0,0.0,0.0,0.0
252023941,251833648,0.08571048,-0.028219968,0.044251677,-0.068302155,0.03633213,-0.2599678,0.0,0.0,0.0,0.0,0.0,0.0,0.0,0.38394928,0.0,0.0,0.0,0.0,0.0,0.0,0.0004988094,0.0004988094,-0.0003169179,-0.000571996,0.019705193,-0.06423967,-0.00037509203,0.0,0.0,0.0,0.0,0.0,0.0
252523939,252333648,0.0073039494,-0.024729917,-0.014602635,-0.0845232,0.04542637,-0.28242302,0.0,0.0,0.0,0.0,0.0,0.0,0.0,0.499712,0.0,0.0,0.0,0.0,0.0,0.0,-0.00038370164,-0.00038370164,-0.0015671104,-0.0018707514,-0.07493132,-0.06923776,-0.0017434359,0.0,0.0,0.0,0.0,0.0,0.0
253023966,252833648,-0.0012018755,0.03517516,-0.04480964,-0.088876724,0.05651188,-0.30259895,0.0,0.0,0.0,0.0,0.0,0.0,0.0,0.47351837,0.0,0.0,0.0,0.0,0.0,0.0,-2.514571e-07,-2.514571e-07,-0.0013058782,-0.0011069179,-0.14743799,0.074189164,-0.008105993,0.0,0.0,0.0,0.0,0.0,0.0
253523935,253333648,0.062672645,-0.07029914,0.08477518,-0.096506596,0.05030918,-0.37672615,0.0,0.0,0.0,0.0,0.0,0.0,0.0,0.21159363,0.0,0.0,0.0,0.0,0.0,0.0,0.0015457803,0.0015457803,-0.00044685602,-0.0017364323,0.11028764,-0.22543934,-0.00057929754,0.0,0.0,0.0,0.0,0.0,0.0
254023936,253833648,-0.0668354,0.039587267,0.10293591,-0.14479542,0.063635826,-0.37407303,0.0,0.0,0.0,0.0,0.0,0.0,0.0,0.010557175,0.0,0.0,0.0,0.0,0.0,0.0,0.0010445304,0.0010445304,-0.00053572655,-5.0395727e-05,0.09644769,0.06429866,-0.008807123,0.0,0.0,0.0,0.0,0.0,0.0
254523947,254333648,0.015247524,-0.028899446,0.00668031,-0.13056374,0.05439377,-0.4066124,0.0,0.0,0.0,0.0,0.0,0.0,0.0,0.2896099,0.0,0.0,0.0,0.0,0.0,0.0,-0.00037246943,-0.0011789612,-0.00037246943,-0.0012457073,-0.16717178,-0.021412514,-0.00820595,0.0,0.0,0.0,0.0,0.0,0.0
255023940,254833648,-0.096119285,0.028144607,-0.032883227,-0.109240055,0.055833817,-0.4036789,0.0,0.0,0.0,0.0,0.0,0.0,0.0,-0.020778656,0.0,0.0,0.0,0.0,0.0,0.0,0.0003386438,-0.0015068436,-0.0004543066,0.0003386438,-0.07433975,0.045909226,0.0071201324,0.0,0.0,0.0,0.0,0.0,0.0
255523937,255333648,-0.074059516,-0.08302103,-0.19562754,-0.08700609,0.042832375,-0.39128304,0.0,0.0,0.0,0.0,0.0,0.0,0.0,0.15926743,0.0,0.0,0.0,0.0,0.0,0.0,0.0007020235,-0.0028332495,0.000653781,0.0007020235,0.010636926,-0.22601467,-0.039705455,0.0,0.0,0.0,0.0,0.0,0.0
256023938,255833648,-0.09303185,-0.0578074,-0.23117474,-0.09092426,0.047278404,-0.36032486,0.0,0.0,0.0,0.0,0.0,0.0,0.0,0.19586563,0.0,0.0,0.0,0.0,0.0,0.0,7.490814e-05,-0.0026499727,7.490814e-05,-5.635619e-05,0.18023673,-0.19603048,-0.052131057,0.0,0.0,0.0,0.0,0.0,0.0
256523955,256333649,-0.019248754,0.04704195,-0.26892406,-0.074540615,0.068068504,-0.35660362,0.0,0.0,0.0,0.0,0.0,0.0,0.0,0.47198677,0.0,0.0,0.0,0.0,0.0,0.0,0.0006199479,-0.002530518,0.0006199479,-0.00011250377,-0.041827098,-0.18248059,-0.019320965,0.0,0.0,0.0,0.0,0.0,0.0
257023940,256833648,0.05331406,-0.019345168,-0.20258749,-0.0700531,0.058116913,-0.3358879,0.0,0.0,0.0,0.0,0.0,0.0,0.0,0.21445656,0.0,0.0,0.0,0.0,0.0,0.0,0.00087583065,-0.001272744,0.00087583065,-0.0010101199,-0.0585265,0.1314822,-0.006034732,0.0,0.0,0.0,0.0,0.0,0.0
257523939,257333648,0.019196838,-0.055688705,-0.1046556,-0.06011343,0.050159454,-0.31731415,0.0,0.0,0.0,0.0,0.0,0.0,0.0,0.19569588,0.0,0.0,0.0,0.0,0.0,0.0,0.0007714331,-0.0005833702,0.00031255186,0.0007714331,0.028431483,-0.035568785,-0.0024474263,0.0,0.0,0.0,0.0,0.0,0.0
258023967,257833648,0.07325434,-0.043783605,-0.01578242,-0.04842615,0.057962418,-0.30348206,0.0,0.0,0.0,0.0,0.0,0.0,0.0,0.1775341,0.0,0.0,0.0,0.0,0.0,0.0,0.0076565444,-0.0022974028,-0.0027656853,0.0076565444,-0.112356976,-0.0039683525,-0.002738893,0.0,0.0,0.0,0.0,0.0,0.0
258523938,258333648,0.036415726,-0.027709067,-0.2551643,-0.06254625,0.040392876,-0.23189735,0.0,0.0,0.0,0.0,0.0,0.0,0.0,0.13146591,0.0,0.0,0.0,0.0,0.0,0.0,0.000117614865,-3.3536926e-06,0.000117614865,-0.0019628406,0.10912819,0.03716982,-0.0054718256,0.0,0.0,0.0,0.0,0.0,0.0
259023942,258833648,0.119029105,0.1681081,-0.039461613,-0.057549953,0.04531765,-0.20461464,0.0,0.0,0.0,0.0,0.0,0.0,0.0,0.16765404,0.0,0.0,0.0,0.0,0.0,0.0,0.0014790297,-0.0016854298,0.0014790297,-0.0004272163,0.0031979457,-0.12144452,-0.009620786,0.0,0.0,0.0,0.0,0.0,0.0
259523965,259333648,0.017751634,-0.016878188,0.074368194,-0.07399225,0.013381958,-0.24172592,0.0,0.0,0.0,0.0,0.0,0.0,0.0,0.5253353,0.0,0.0,0.0,0.0,0.0,0.0,0.0009720698,-0.0008676578,0.0009720698,-0.0018673539,0.039307553,0.07047626,0.00073480606,0.0,0.0,0.0,0.0,0.0,0.0
260023967,259833648,0.057296053,-0.075831056,0.055352345,-0.056854248,0.0066900253,-0.2842903,0.0,0.0,0.0,0.0,0.0,0.0,0.0,0.009407043,0.0,0.0,0.0,0.0,0.0,0.0,0.00039660186,-0.0015019109,0.00039660186,-0.0009838641,0.08835961,-0.02520594,-0.008699298,0.0,0.0,0.0,0.0,0.0,0.0
260523937,260333648,0.06563936,-0.03077221,0.10358323,-0.04916334,0.011771202,-0.28933144,0.0,0.0,0.0,0.0,0.0,0.0,0.0,0.111795425,0.0,0.0,0.0,0.0,0.0,0.0,0.00012229383,-0.00068819616,0.00012229383,-0.00080770254,-0.107659094,-0.0225389,-0.0019554496,0.0,0.0,0.0,0.0,0.0,0.0
261023938,260833648,0.115279876,0.06582838,0.034414396,-0.03346157,0.036499977,-0.3112259,0.0,0.0,0.0,0.0,0.0,0.0,0.0,0.83751106,0.0,0.0,0.0,0.0,0.0,0.0,0.00010377308,0.00010377308,-9.279698e-05,-0.0016604662,-0.23862277,0.026556306,-0.01712215,0.0,0.0,0.0,0.0,0.0,0.0
261523936,261333648,0.014340848,-0.0065963864,0.034307152,-0.030158997,0.039066315,-0.29872322,0.0,0.0,0.0,0.0,0.0,0.0,0.0,0.13176155,0.0,0.0,0.0,0.0,0.0,0.0,0.0005883947,-0.0007143421,0.0005883947,-0.00048807263,0.07204518,0.17557868,-0.01104635,0.0,0.0,0.0,0.0,0.0,0.0
262023939,261833648,-0.03906548,0.051128507,-0.0923445,-0.018042564,0.04510212,-0.3040371,0.0,0.0,0.0,0.0,0.0,0.0,0.0,0.13603973,0.0,0.0,0.0,0.0,0.0,0.0,0.00026488304,-0.00014924956,0.00026488304,-0.00039416552,0.08330783,0.011842484,-0.009218693,0.0,0.0,0.0,0.0,0.0,0.0
262523938,262333648,-0.006359726,-0.0068262517,-0.078833506,-0.013576031,0.053616524,-0.29052925,0.0,0.0,0.0,0.0,0.0,0.0,0.0,0.17322922,0.0,0.0,0.0,0.0,0.0,0.0,0.0011645854,0.0003986396,0.0011645854,-0.0010662079,-0.022680618,0.0044673225,0.0014331341,0.0,0.0,0.0,0.0,0.0,0.0
263023972,262833648,0.011677489,-0.0054067075,-0.07230804,-0.004527569,0.062408447,-0.27879524,0.0,0.0,0.0,0.0,0.0,0.0,0.0,0.28845596,0.0,0.0,0.0,0.0,0.0,0.0,0.00032388465,0.00032388465,-0.00037780404,-0.00026795268,-0.24303618,-0.09425039,-0.012706459,0.0,0.0,0.0,0.0,0.0,0.0
263523935,263333648,0.024182867,0.08629895,-0.02734336,-0.0026254654,0.08038235,-0.2734623,0.0,0.0,0.0,0.0,0.0,0.0,0.0,0.33456612,0.0,0.0,0.0,0.0,0.0,0.0,0.0011512786,5.958043e-05,0.0011512786,0.00092354417,0.09928742,0.10148247,-0.014386177,0.0,0.0,0.0,0.0,0.0,0.0
264023941,263833648,-0.11142035,-0.10191415,-0.054637946,-0.00054216385,0.041775703,-0.27129364,0.0,0.0,0.0,0.0,0.0,0.0,0.0,0.3412285,0.0,0.0,0.0,0.0,0.0,0.0,0.0015411079,-0.0008164933,0.0015411079,-0.00022748113,-0.0024052728,0.024668116,0.0013620257,0.0,0.0,0.0,0.0,0.0,0.0
264523973,264333648,0.010193616,0.11797148,-0.11083889,0.02366352,0.056624413,-0.29235458,0.0,0.0,0.0,0.0,0.0,0.0,0.0,0.13033867,0.0,0.0,0.0,0.0,0.0,0.0,0.0009640972,0.0009640972,-0.0020237416,-0.0012735724,-0.2591902,-0.22731732,0.001842618,0.0,0.0,0.0,0.0,0.0,0.0
265023949,264833648,-0.023157984,-0.03642732,-0.053515926,0.045009613,0.06281185,-0.3130455,0.0,0.0,0.0,0.0,0.0,0.0,0.0,0.33059692,0.0,0.0,0.0,0.0,0.0,0.0,-0.00017802278,-0.00017802278,-0.0005142838,-0.0014411509,-0.010127716,-0.0086288545,0.0013505816,0.0,0.0,0.0,0.0,0.0,0.0
265523940,265333648,0.010792367,-0.05688715,-0.013940698,0.07019329,0.068427086,-0.34379387,0.0,0.0,0.0,0.0,0.0,0.0,0.0,0.51099396,0.0,0.0,0.0,0.0,0.0,0.0,-0.00025966763,-0.00035514822,-0.00061208755,-0.00025966763,-0.021388859,0.096296564,-0.0016900897,0.0,0.0,0.0,0.0,0.0,0.0
266023954,265833648,-0.041133914,0.0069863796,-0.10815848,0.070888996,0.06161976,-0.38858986,0.0,0.0,0.0,0.0,0.0,0.0,0.0,0.47520065,0.0,0.0,0.0,0.0,0.0,0.0,0.0013165623,-0.0011585858,0.0013165623,0.00025117397,-0.05519935,0.162341,-0.00625211,0.0,0.0,0.0,0.0,0.0,0.0
266523941,266333648,0.051774055,0.059860826,-0.12507895,0.09108782,0.04396534,-0.39409447,0.0,0.0,0.0,0.0,0.0,0.0,0.0,0.46645164,0.0,0.0,0.0,0.0,0.0,0.0,0.001821056,-0.0011818339,0.001821056,0.00043961406,0.037834875,-0.05992361,-0.0049902797,0.0,0.0,0.0,0.0,0.0,0.0
267023938,266833648,-0.001133278,0.069674194,-0.12322301,0.09097147,0.0050735474,-0.3930111,0.0,0.0,0.0,0.0,0.0,0.0,0.0,0.3946743,0.0,0.0,0.0,0.0,0.0,0.0,0.0017737299,-0.00033708056,0.0017737299,0.00034925342,0.0666004,0.02015515,0.0014181733,0.0,0.0,0.0,0.0,0.0,0.0
267523941,267333648,-0.004179448,-0.02134204,-0.11451525,0.088829994,-0.043798447,-0.39213943,0.0,0.0,0.0,0.0,0.0,0.0,0.0,0.26311302,0.0,0.0,0.0,0.0,0.0,0.0,0.0013572723,-3.4882687e-06,0.0013572723,0.0003029704,0.23114887,0.010435402,-0.017517507,0.0,0.0,0.0,0.0,0.0,0.0
268023965,267833648,-0.04633484,0.023711417,-0.105322,0.074763775,-0.058760643,-0.40213585,0.0,0.0,0.0,0.0,0.0,0.0,0.0,0.0539608,0.0,0.0,0.0,0.0,0.0,0.0,0.0015103295,0.0003304095,0.0015103295,-0.0001425147,-0.12707296,-0.019431192,-0.013400316,0.0,0.0,0.0,0.0,0.0,0.0
268523939,268333648,0.039282493,-0.061916098,-0.15308432,0.077029705,-0.07270336,-0.40332222,0.0,0.0,0.0,0.0,0.0,0.0,0.0,0.36067963,0.0,0.0,0.0,0.0,0.0,0.0,0.00079832226,0.000384436,0.00079832226,-0.000986278,0.0015546251,-0.04019707,-0.002030015,0.0,0.0,0.0,0.0,0.0,0.0
269023938,268833648,-0.004931937,-0.060088888,-0.11686017,0.0814352,-0.06910801,-0.3714943,0.0,0.0,0.0,0.0,0.0,0.0,0.0,0.47686386,0.0,0.0,0.0,0.0,0.0,0.0,0.0022376939,0.0022376939,0.00048418343,2.554059e-05,0.027728872,0.014750781,-0.00019288063,0.0,0.0,0.0,0.0,0.0,0.0
269523963,269333648,0.025874957,0.013658702,-0.0760594,0.0848155,-0.08304024,-0.32775116,0.0,0.0,0.0,0.0,0.0,0.0,0.0,0.31913567,0.0,0.0,0.0,0.0,0.0,0.0,0.0018314803,0.0018314803,-0.0006058067,-0.0011543036,-0.037021577,0.042045146,-0.0036165714,0.0,0.0,0.0,0.0,0.0,0.0
270023937,269833648,0.025185257,-0.020698845,-0.07951623,0.0967989,-0.092656136,-0.30346107,0.0,0.0,0.0,0.0,0.0,0.0,0.0,0.1788063,0.0,0.0,0.0,0.0,0.0,0.0,0.0006977236,0.0006977236,-0.0029897839,-0.0029104352,-0.015103133,-0.012723932,-0.0004130602,0.0,0.0,0.0,0.0,0.0,0.0
270523942,270333648,0.09163219,0.15052539,-0.09604454,0.09507942,-0.04876995,-0.31661034,0.0,0.0,0.0,0.0,0.0,0.0,0.0,0.1581192,0.0,0.0,0.0,0.0,0.0,0.0,-0.0013810992,-0.0022227499,-0.0018606335,-0.0013810992,-0.10764419,0.08082704,-0.0030372143,0.0,0.0,0.0,0.0,0.0,0.0
271023936,270833648,-0.011311956,0.07953003,-0.06716505,0.09648752,-0.030625343,-0.29523087,0.0,0.0,0.0,0.0,0.0,0.0,0.0,0.21645737,0.0,0.0,0.0,0.0,0.0,0.0,-0.0002860427,-0.0038766556,-0.0002860427,-0.0010240376,0.077687055,0.11427875,-0.0020991564,0.0,0.0,0.0,0.0,0.0,0.0
272023934,271833648,-0.092198886,0.036399923,-0.07728672,0.07150173,0.0032157898,-0.3194065,0.0,0.0,0.0,0.0,0.0,0.0,0.0,0.21405983,0.0,0.0,0.0,0.0,0.0,0.0,0.0009793565,-0.0029513543,0.0009793565,-0.0014705062,0.18224409,0.0549853,-0.011434495,0.0,0.0,0.0,0.0,0.0,0.0
272524118,272333648,-0.06600515,0.2476159,-0.057308234,0.06936598,0.04471779,-0.32782364,0.0,0.0,0.0,0.0,0.0,0.0,0.0,0.2580433,0.0,0.0,0.0,0.0,0.0,0.0,-0.0001674965,-0.0038212936,-0.0001674965,-0.0014850497,0.102697626,-0.07968872,-0.0037761927,0.0,0.0,0.0,0.0,0.0,0.0
273024173,272833648,0.048063003,0.1272775,-0.0030384883,0.06686783,0.042131424,-0.2696743,0.0,0.0,0.0,0.0,0.0,0.0,0.0,0.43629456,0.0,0.0,0.0,0.0,0.0,0.0,0.0015522689,-0.0031971496,0.0015522689,-0.00078487396,0.03323648,-0.17376457,-0.011359096,0.0,0.0,0.0,0.0,0.0,0.0
274024106,273833648,0.028837819,-0.0038789064,-0.054500252,0.043851852,0.017172813,-0.25859833,0.0,0.0,0.0,0.0,0.0,0.0,0.0,0.13594627,0.0,0.0,0.0,0.0,0.0,0.0,0.0043830276,-0.0009587409,0.0043830276,-2.5808811e-05,0.096642464,-0.0840361,-0.004417002,0.0,0.0,0.0,0.0,0.0,0.0
274524132,274333648,0.025222525,0.0071642287,-0.068770945,0.038220882,0.027960777,-0.22138977,0.0,0.0,0.0,0.0,0.0,0.0,0.0,0.1709919,0.0,0.0,0.0,0.0,0.0,0.0,0.0040247887,0.0009262969,0.0040247887,-0.00012794137,-0.043494277,0.0076684337,-0.0009621382,0.0,0.0,0.0,0.0,0.0,0.0
275024146,274833648,-0.07246409,0.010757648,-0.009409688,0.013679028,0.03795433,-0.16095352,0.0,0.0,0.0,0.0,0.0,0.0,0.0,-0.008657455,0.0,0.0,0.0,0.0,0.0,0.0,0.006754905,0.0038314196,0.006754905,-0.0006504357,0.0847078,-0.04493578,-0.004708469,0.0,0.0,0.0,0.0,0.0,0.0
275524159,275333648,0.03350474,0.07952272,-0.10422027,0.027870178,0.035978317,-0.20580292,0.0,0.0,0.0,0.0,0.0,0.0,0.0,0.18638611,0.0,0.0,0.0,0.0,0.0,0.0,0.006521567,0.006521567,0.003984675,-0.0003733933,-0.050752476,-0.09983714,-0.0040977,0.0,0.0,0.0,0.0,0.0,0.0
276024110,275833648,-0.00871571,0.13240585,-0.11056632,0.025218487,0.042289734,-0.17028236,0.0,0.0,0.0,0.0,0.0,0.0,0.0,0.001499176,0.0,0.0,0.0,0.0,0.0,0.0,0.007641207,0.007641207,0.0015119463,-0.0017711222,0.09838056,0.05010867,-0.006131768,0.0,0.0,0.0,0.0,0.0,0.0
276524102,276333648,-0.01779794,0.1605083,-0.12769005,0.023542404,0.03846836,-0.15200043,0.0,0.0,0.0,0.0,0.0,0.0,0.0,-0.010019302,0.0,0.0,0.0,0.0,0.0,0.0,0.008361968,0.008361968,-0.00055991113,-0.0021224022,-0.0044312957,-0.09911317,-0.0066732764,0.0,0.0,0.0,0.0,0.0,0.0
277024112,276833648,-0.04135025,0.074045986,-0.15670222,-0.0071139336,0.0127744675,-0.17219353,0.0,0.0,0.0,0.0,0.0,0.0,0.0,-0.35709,0.0,0.0,0.0,0.0,0.0,0.0,0.006479641,0.006479641,-0.0027154535,-0.00208053,-0.31639808,-0.090697125,-0.058804214,0.0,0.0,0.0,0.0,0.0,0.0
277524099,277333648,0.048525278,0.056888737,-0.1089592,-0.012011051,0.0033006668,-0.11997223,0.0,0.0,0.0,0.0,0.0,0.0,0.0,-0.2733631,0.0,0.0,0.0,0.0,0.0,0.0,0.003502308,0.003502308,-0.0036238357,-0.00078335404,0.072221,0.009842124,-0.002882719,0.0,0.0,0.0,0.0,0.0,0.0
278024106,277833648,0.010065444,0.096910074,-0.098546684,-0.024561882,0.010169029,-0.06288338,0.0,0.0,0.0,0.0,0.0,0.0,0.0,0.12586975,0.0,0.0,0.0,0.0,0.0,0.0,0.0024822154,0.0024822154,-0.0020621903,-0.0020712018,-0.06808032,0.047444567,-0.0054683685,0.0,0.0,0.0,0.0,0.0,0.0
278524102,278333648,-0.032563187,0.012559023,-0.07082862,-0.04079199,-0.0049858093,-0.048236847,0.0,0.0,0.0,0.0,0.0,0.0,0.0,-0.14995766,0.0,0.0,0.0,0.0,0.0,0.0,0.0017603091,0.0017603091,-0.0012180619,-0.003766358,-0.01568928,-0.06390023,-0.0033775568,0.0,0.0,0.0,0.0,0.0,0.0
279024119,278833648,-0.08754547,0.04443817,0.017716251,-0.041591644,0.0028047562,-0.021266937,0.0,0.0,0.0,0.0,0.0,0.0,0.0,-0.15212059,0.0,0.0,0.0,0.0,0.0,0.0,0.002923372,0.002923372,-0.0025617592,-0.0026341975,-0.036459286,-0.14680308,-0.011535227,0.0,0.0,0.0,0.0,0.0,0.0
279524131,279333647,-0.04386785,-0.016105577,-0.022572832,-0.032158375,0.005821228,0.0009860992,0.0,0.0,0.0,0.0,0.0,0.0,0.0,-0.36131668,0.0,0.0,0.0,0.0,0.0,0.0,0.002378834,0.002378834,-0.0014054403,-0.003299266,-0.121849366,-0.05738507,-0.015726268,0.0,0.0,0.0,0.0,0.0,0.0
280524099,280333648,-0.032062344,0.09120471,-0.15327725,-0.03004837,0.026999474,-0.0126132965,0.0,0.0,0.0,0.0,0.0,0.0,0.0,-0.15249443,0.0,0.0,0.0,0.0,0.0,0.0,0.0014965113,0.0014965113,-0.0012557358,-0.0022222102,0.09403518,-0.06859468,-0.0057783127,0.0,0.0,0.0,0.0,0.0,0.0
281024130,280833648,-0.06923427,-0.05597931,-0.10149909,-0.03625536,0.016952515,0.009925842,0.0,0.0,0.0,0.0,0.0,0.0,0.0,-0.21016312,0.0,0.0,0.0,0.0,0.0,0.0,0.0016116056,0.0016116056,-0.0018194579,-0.001055479,-0.21469012,0.02362365,-0.033739686,0.0,0.0,0.0,0.0,0.0,0.0
281524103,281333648,0.050489977,-0.012098905,-0.1160077,-0.016896725,0.035593987,0.030029297,0.0,0.0,0.0,0.0,0.0,0.0,0.0,-0.34371185,0.0,0.0,0.0,0.0,0.0,0.0,0.0014284272,0.0014284272,-0.0018585809,-0.0026726723,0.35116842,0.066237666,-0.044627666,0.0,0.0,0.0,0.0,0.0,0.0
282024122,281833648,0.048450597,0.02490322,-0.0774864,-0.009064674,0.03831482,0.023042679,0.0,0.0,0.0,0.0,0.0,0.0,0.0,-0.17512894,0.0,0.0,0.0,0.0,0.0,0.0,0.0020213486,0.0020213486,-0.002217017,-0.0015018582,0.021228455,-0.013397742,-0.00012654066,0.0,0.0,0.0,0.0,0.0,0.0
282523941,282333648,0.12123272,0.009101454,-0.056202486,0.0061359406,0.050915718,0.039051056,0.0,0.0,0.0,0.0,0.0,0.0,0.0,-0.16936302,0.0,0.0,0.0,0.0,0.0,0.0,0.0019519718,0.0019519718,-0.0019081011,-0.0012282431,0.064636834,0.021741765,0.0024109483,0.0,0.0,0.0,0.0,0.0,0.0
283023935,282833648,-0.007469991,0.06768264,-0.120472774,0.023686409,0.08251381,0.028038025,0.0,0.0,0.0,0.0,0.0,0.0,0.0,0.074092865,0.0,0.0,0.0,0.0,0.0,0.0,0.0023445897,0.0023445897,-0.0017760135,-0.0019965172,-0.18793553,0.07478799,-0.027667046,0.0,0.0,0.0,0.0,0.0,0.0
283523940,283333648,0.13953044,0.03545694,-0.017545095,0.045855522,0.081430435,0.036985397,0.0,0.0,0.0,0.0,0.0,0.0,0.0,-0.03357315,0.0,0.0,0.0,0.0,0.0,0.0,0.0025983038,0.0025983038,-0.0027683266,-0.0018727183,-0.061613094,0.060065664,-0.0049991608,0.0,0.0,0.0,0.0,0.0,0.0
284023947,283833648,0.11018615,-0.14641982,-0.0095549375,0.011453629,0.04045391,-0.042938232,0.0,0.0,0.0,0.0,0.0,0.0,0.0,-0.04278946,0.0,0.0,0.0,0.0,0.0,0.0,0.0032719374,0.00023659231,0.003039576,0.0032719374,-0.0674703,0.07710718,-0.001992464,0.0,0.0,0.0,0.0,0.0,0.0
284524000,284333648,0.10123263,-0.07896341,-0.08252108,-0.0038399696,0.017342567,-0.0047893524,0.0,0.0,0.0,0.0,0.0,0.0,0.0,0.20290947,0.0,0.0,0.0,0.0,0.0,0.0,0.0054294234,0.0054294234,0.0016120076,-0.0007673204,-0.20465946,-0.034678295,-0.01972258,0.0,0.0,0.0,0.0,0.0,0.0
285023934,284833648,0.0027225316,-0.24221343,-0.0742485,-0.039260864,-0.03365898,-0.038906097,0.0,0.0,0.0,0.0,0.0,0.0,0.0,0.04776764,0.0,0.0,0.0,0.0,0.0,0.0,0.0055790604,0.0055790604,0.0017330423,0.00060144067,0.14641109,0.018847855,-0.023804426,0.0,0.0,0.0,0.0,0.0,0.0
285523938,285333648,0.04415208,-0.1408033,-0.1677337,-0.058280468,-0.08347702,-0.038906097,0.0,0.0,0.0,0.0,0.0,0.0,0.0,0.06699562,0.0,0.0,0.0,0.0,0.0,0.0,0.0074417195,0.0074417195,0.002974391,-0.0003039837,0.23957661,0.02824414,-0.054552138,0.0,0.0,0.0,0.0,0.0,0.0
286023936,285833648,0.05335605,-0.15484476,-0.12541993,-0.017073631,-0.12612915,-0.038906097,0.0,0.0,0.0,0.0,0.0,0.0,0.0,0.29647446,0.0,0.0,0.0,0.0,0.0,0.0,0.0045821527,0.0045821527,0.002932638,0.00049600005,0.032420464,-0.027062554,-0.004394412,0.0,0.0,0.0,0.0,0.0,0.0
286523934,286333648,0.07036698,-0.21025944,-0.14355376,0.04334879,-0.1836338,-0.038906097,0.0,0.0,0.0,0.0,0.0,0.0,0.0,-0.3936386,0.0,0.0,0.0,0.0,0.0,0.0,0.00469948,0.00469948,0.0020371825,0.0018447936,0.11391888,-0.034426175,-0.019759417,0.0,0.0,0.0,0.0,0.0,0.0
287023938,286833648,0.075280786,-0.22724861,-0.16055143,0.11258793,-0.28277493,-0.038906097,0.0,0.0,0.0,0.0,0.0,0.0,0.0,-0.37911797,0.0,0.0,0.0,0.0,0.0,0.0,0.0042641237,0.004092055,0.0042641237,0.0022891462,0.063163064,-0.012386896,-0.006943643,0.0,0.0,0.0,0.0,0.0,0.0
287523937,287333648,-0.08435798,-0.32359377,-0.18597648,0.16098261,-0.39189148,-0.038906097,0.0,0.0,0.0,0.0,0.0,0.0,0.0,-0.522068,0.0,0.0,0.0,0.0,0.0,0.0,0.0038998723,0.0036220222,0.0038998723,0.0026924312,-0.16985495,0.05232424,-0.0039342046,0.0,0.0,0.0,0.0,0.0,0.0
288023940,287833651,-0.04218489,-0.28424773,-0.17798138,0.17527604,-0.5612745,-0.038906097,0.0,0.0,0.0,0.0,0.0,0.0,0.0,-0.5468998,0.0,0.0,0.0,0.0,0.0,0.0,0.0032323152,0.0030504183,0.0032323152,0.003204286,-0.045115534,-0.120813794,-0.01941359,0.0,0.0,0.0,0.0,0.0,0.0
288523944,288333648,-0.16339543,-0.3981375,-0.19530596,0.18560958,-0.7070875,-0.038906097,0.0,0.0,0.0,0.0,0.0,0.0,0.0,-0.3456974,0.0,0.0,0.0,0.0,0.0,0.0,0.004091397,0.003428843,0.004091397,0.0023917556,-0.18030243,0.20479518,-0.013720155,0.0,0.0,0.0,0.0,0.0,0.0
289023937,288833671,-0.0103493035,-0.6264124,-0.2624283,0.20886278,-0.9444246,-0.038906097,0.0,0.0,0.0,0.0,0.0,0.0,0.0,-0.4507866,0.0,0.0,0.0,0.0,0.0,0.0,0.0041150553,0.0041150553,0.0028978214,0.00062802434,-0.086608455,0.0033967495,0.00043737888,0.0,0.0,0.0,0.0,0.0,0.0
289523966,289333651,-0.2725056,-0.3270219,-0.19078629,0.16735363,-1.128788,-0.038906097,0.0,0.0,0.0,0.0,0.0,0.0,0.0,-0.17152786,0.0,0.0,0.0,0.0,0.0,0.0,0.002619727,0.002619727,0.0025924593,0.0012508929,0.100479595,0.0550197,-0.005740106,0.0,0.0,0.0,0.0,0.0,0.0
290023930,289833681,0.3415841,-0.116484195,-0.13967972,0.3536079,-1.2665625,-0.038906097,0.0,0.0,0.0,0.0,0.0,0.0,0.0,-0.055318832,0.0,0.0,0.0,0.0,0.0,0.0,0.005035566,0.005035566,0.0031569153,-0.015816033,0.1604144,-0.061032362,-0.026944041,0.0,0.0,0.0,0.0,0.0,0.0
290523939,290333648,0.52789253,-0.5373272,-0.33747786,0.5284791,-1.4257851,-0.038906097,0.0,0.0,0.0,0.0,0.0,0.0,0.0,-0.5393753,0.0,0.0,0.0,0.0,0.0,0.0,0.004108551,0.004108551,0.0018506348,-6.9886446e-05,0.037306856,0.039063964,-0.0013521314,0.0,0.0,0.0,0.0,0.0,0.0
291023963,290833648,0.33567333,-0.72101855,-0.10314739,0.60647964,-1.706317,-0.038906097,0.0,0.0,0.0,0.0,0.0,0.0,0.0,-0.19428253,0.0,0.0,0.0,0.0,0.0,0.0,0.004043241,0.004043241,0.0028351694,-0.006535709,-0.0131880995,0.059129782,-0.0013052821,0.0,0.0,0.0,0.0,0.0,0.0
291523940,291333647,0.059021354,-0.7313408,-0.0040987134,0.65597427,-2.0012512,-0.038906097,0.0,0.0,0.0,0.0,0.0,0.0,0.0,-0.63225746,0.0,0.0,0.0,0.0,0.0,0.0,0.0041665817,0.0041665817,0.00093224645,-0.001018703,-0.02457736,-0.056592304,-0.0024366975,0.0,0.0,0.0,0.0,0.0,0.0
292023935,291833648,-0.09059459,-0.16884038,-0.04072687,0.7446703,-2.0809898,-0.038906097,0.0,0.0,0.0,0.0,0.0,0.0,0.0,-0.39676285,0.0,0.0,0.0,0.0,0.0,0.0,0.0031258103,0.0031258103,0.00015622377,0.00071802735,-0.06761147,-0.021647133,-0.0012686849,0.0,0.0,0.0,0.0,0.0,0.0
292523936,292333650,-0.040641665,-0.63376296,-0.008363605,0.6869811,-2.3730068,-0.038906097,0.0,0.0,0.0,0.0,0.0,0.0,0.0,-0.3279457,0.0,0.0,0.0,0.0,0.0,0.0,0.0035436642,0.0035436642,0.00076737255,-8.478761e-05,-0.2726192,-0.101964466,-0.041020215,0.0,0.0,0.0,0.0,0.0,0.0
293023934,292833648,0.024670243,-0.6087091,-0.09615408,0.8020272,-2.640317,-0.038906097,0.0,0.0,0.0,0.0,0.0,0.0,0.0,-0.6431618,0.0,0.0,0.0,0.0,0.0,0.0,0.002802478,0.002802478,0.0020396784,0.0004183352,0.13377343,-0.12374122,-0.018730342,0.0,0.0,0.0,0.0,0.0,0.0
293523948,293333648,-0.21183145,-0.56933063,-0.04837875,0.6590148,-2.7942276,-0.038906097,0.0,0.0,0.0,0.0,0.0,0.0,0.0,-0.33877945,0.0,0.0,0.0,0.0,0.0,0.0,0.0036471577,0.0036471577,0.0003226623,5.6684017e-05,-0.20761642,-0.13028967,-0.024596691,0.0,0.0,0.0,0.0,0.0,0.0
294023930,293833649,-0.07999778,-0.9484311,-0.19782493,0.5945686,-3.2352266,-0.038906097,0.0,0.0,0.0,0.0,0.0,0.0,0.0,-0.37226868,0.0,0.0,0.0,0.0,0.0,0.0,0.0021188203,0.0021188203,0.0014985204,0.0006702244,-0.1306369,-0.119274095,-0.018805146,0.0,0.0,0.0,0.0,0.0,0.0
294523968,294333648,0.05196297,-0.5103653,-0.055509344,0.5763148,-3.4546175,-0.038906097,0.0,0.0,0.0,0.0,0.0,0.0,0.0,-0.7882004,0.0,0.0,0.0,0.0,0.0,0.0,0.0028593778,0.0028593778,0.0012566224,-0.0031785965,0.04761257,-0.08604243,-0.0047228932,0.0,0.0,0.0,0.0,0.0,0.0
295023931,294833648,-0.74197686,-0.4462241,-0.103573635,0.25667238,-3.6340818,-0.038906097,0.0,0.0,0.0,0.0,0.0,0.0,0.0,-0.6083126,0.0,0.0,0.0,0.0,0.0,0.0,0.002160363,0.0014206641,0.002160363,0.00061780214,-0.15971392,0.04497813,-0.015521407,0.0,0.0,0.0,0.0,0.0,0.0
295523935,295333648,-0.45933533,-0.47338915,-0.27974123,0.06319809,-3.8238316,-0.038906097,0.0,0.0,0.0,0.0,0.0,0.0,0.0,-0.8457165,0.0,0.0,0.0,0.0,0.0,0.0,0.001923852,0.001923852,0.00041580945,0.00015488267,0.08511843,0.066236556,-0.006136298,0.0,0.0,0.0,0.0,0.0,0.0
296023964,295833647,0.19103515,-0.534836,-0.35237864,0.046605587,-4.0991497,-0.038906097,0.0,0.0,0.0,0.0,0.0,0.0,0.0,-0.6985054,0.0,0.0,0.0,0.0,0.0,0.0,0.0030306736,0.0030306736,-5.9895217e-05,0.0002283752,0.11575738,0.009378329,-0.0067926645,0.0,0.0,0.0,0.0,0.0,0.0
297023949,296833648,-1.2326277,-0.26993728,-0.34527153,-0.20531464,-4.703597,-0.038906097,0.0,0.0,0.0,0.0,0.0,0.0,0.0,-0.1776371,0.0,0.0,0.0,0.0,0.0,0.0,0.0022164881,-0.003962125,0.002014801,0.0022164881,-0.08979062,0.2552196,0.062370896,0.0,0.0,0.0,0.0,0.0,0.0
297523924,297333648,-1.4280499,-0.32534665,-0.16773826,-0.71969557,-4.8539515,0.0,0.0,0.0,0.0,0.0,0.0,0.0,0.0,0.7404022,0.0,0.0,0.0,0.0,0.0,0.0,0.0031265756,0.0031265756,0.00054646656,0.00071924925,-0.024688467,0.19690996,0.022837818,0.0,0.0,0.0,0.0,0.0,0.0
298524057,298333648,-0.6828172,-0.59275603,-0.12715623,-1.0261915,-5.446912,0.0,0.0,0.0,0.0,0.0,0.0,0.0,0.0,0.20832634,0.0,0.0,0.0,0.0,0.0,0.0,0.0010703504,0.00027871507,0.0010703504,-0.0009518862,0.15112701,-0.118031144,-0.054856837,0.0,0.0,0.0,0.0,0.0,0.0
299023921,298833649,-0.7142676,-0.77476084,-0.15604375,-1.2405473,-5.802681,0.0,0.0,0.0,0.0,0.0,0.0,0.0,0.0,0.5209789,0.0,0.0,0.0,0.0,0.0,0.0,0.0011332622,0.0011332622,-0.0004813969,0.0006175637,-0.1721706,0.026084833,0.015601993,0.0,0.0,0.0,0.0,0.0,0.0
299523945,299333648,-0.470783,-0.91235995,-0.1858132,-1.348872,-6.146449,0.0,0.0,0.0,0.0,0.0,0.0,0.0,0.0,-0.07305908,0.0,0.0,0.0,0.0,0.0,0.0,0.003327915,0.003327915,-0.0006396398,0.0026364923,0.35511923,-0.113071874,-0.1708402,0.0,0.0,0.0,0.0,0.0,0.0
300024044,299833648,-0.5457835,-0.8183309,-0.32912305,-1.5051748,-6.474985,0.0,0.0,0.0,0.0,0.0,0.0,0.0,0.0,-0.98981476,0.0,0.0,0.0,0.0,0.0,0.0,0.00053277606,0.00053277606,0.00035078079,-0.0049328804,-0.144182,0.03746596,0.021784306,0.0,0.0,0.0,0.0,0.0,0.0
300523929,300333648,-0.5196445,-0.81735814,-0.3345405,-1.7643797,-6.880165,0.0,0.0,0.0,0.0,0.0,0.0,0.0,0.0,-0.5902271,0.0,0.0,0.0,0.0,0.0,0.0,0.0014115351,0.0014115351,-1.6383827e-05,-0.0005699396,0.041080035,-0.10530633,-0.014970601,0.0,0.0,0.0,0.0,0.0,0.0
301023950,300833648,-0.45948696,-0.8933604,-0.21119103,-1.995985,-7.2922916,0.0,0.0,0.0,0.0,0.0,0.0,0.0,0.0,-0.0,0.0,0.0,0.0,0.0,0.0,0.0,0.002605237,0.0020887018,0.002605237,-0.001440227,0.38132071,-0.20319085,-0.10278857,0.0,0.0,0.0,0.0,0.0,0.0
301523938,301333648,-0.6052773,-0.91909796,-0.15674606,-2.3285875,-7.6542807,0.0,0.0,0.0,0.0,0.0,0.0,0.0,0.0,0.35677338,0.0,0.0,0.0,0.0,0.0,0.0,0.0019833415,0.0019833415,0.0002481714,-0.0010514259,0.03158892,-0.3231407,-0.054709792,0.0,0.0,0.0,0.0,0.0,0.0
302023923,301833647,-0.5610728,-0.6879864,-0.08665502,-2.5786262,-7.9555407,0.0,0.0,0.0,0.0,0.0,0.0,0.0,0.0,-0.0,0.0,0.0,0.0,0.0,0.0,0.0,0.00186712,0.00186712,0.0017667711,0.0010094941,0.26070613,-0.02836492,-0.03633386,0.0,0.0,0.0,0.0,0.0,0.0
302523922,302333648,-0.43521976,-0.96719587,-0.12049079,-2.8295531,-8.327441,0.0,0.0,0.0,0.0,0.0,0.0,0.0,0.0,-0.0,0.0,0.0,0.0,0.0,0.0,0.0,0.0022287923,0.0022287923,0.00068977475,-0.0005840957,-0.012219232,-0.12397791,-0.007797241,0.0,0.0,0.0,0.0,0.0,0.0
303023925,302833648,-0.48247945,-0.70377743,-0.067017436,-3.1535292,-8.741357,0.0,0.0,0.0,0.0,0.0,0.0,0.0,0.0,-0.0,0.0,0.0,0.0,0.0,0.0,0.0,0.0028464496,0.0016215724,0.001032941,0.0028464496,-0.33201203,0.05254577,-0.05791062,0.0,0.0,0.0,0.0,0.0,0.0
303523922,303333648,-0.6142231,-0.8546344,-0.09817827,-3.5131407,-9.1029215,0.0,0.0,0.0,0.0,0.0,0.0,0.0,0.0,-0.0,0.0,0.0,0.0,0.0,0.0,0.0,0.0020334965,0.0020334965,0.0013716519,5.558133e-05,0.5886606,-0.020041753,-0.19362468,0.0,0.0,0.0,0.0,0.0,0.0
304023925,303833648,-0.36676908,-0.7051589,-0.17754292,-3.7091932,-9.514314,0.0,0.0,0.0,0.0,0.0,0.0,0.0,0.0,-0.0,0.0,0.0,0.0,0.0,0.0,0.0,0.0015142679,0.0015142679,-0.0011967197,-0.00033962727,-0.1797708,0.14824268,-0.031310618,0.0,0.0,0.0,0.0,0.0,0.0
305024055,304833649,-0.52913964,-0.96629727,-0.3212477,-4.257738,-10.247948,0.0,0.0,0.0,0.0,0.0,0.0,0.0,0.0,-0.0,0.0,0.0,0.0,0.0,0.0,0.0,0.0013411045,0.0011138448,0.00091250986,0.0013411045,-0.007903332,-0.10168336,-0.006673336,0.0,0.0,0.0,0.0,0.0,0.0
305523921,305333648,-0.75777125,-0.94580585,-0.27384388,-4.649579,-10.59097,0.0,0.0,0.0,0.0,0.0,0.0,0.0,0.0,-0.0,0.0,0.0,0.0,0.0,0.0,0.0,0.0007460805,0.0007460805,-0.00021149218,0.00020495057,0.08343486,0.14637938,-0.017118871,0.0,0.0,0.0,0.0,0.0,0.0
306023953,305833648,-0.7312392,-0.8187363,-0.23754406,-5.000305,-10.984165,0.0,0.0,0.0,0.0,0.0,0.0,0.0,0.0,-0.0,0.0,0.0,0.0,0.0,0.0,0.0,0.0035100773,0.0035100773,0.0010242462,-0.0008099377,0.09539944,-0.10834648,-0.009475112,0.0,0.0,0.0,0.0,0.0,0.0
306523921,306333648,-0.82064044,-0.8564818,-0.29597628,-5.3494873,-11.379067,0.0,0.0,0.0,0.0,0.0,0.0,0.0,0.0,-0.0,0.0,0.0,0.0,0.0,0.0,0.0,0.0016639829,0.00079220976,0.0007324144,0.0016639829,0.17890003,0.12378025,-0.022452354,0.0,0.0,0.0,0.0,0.0,0.0
307023926,306833648,-0.8329209,-0.87121755,-0.3227042,-5.6925106,-11.79575,0.0,0.0,0.0,0.0,0.0,0.0,0.0,0.0,-0.0,0.0,0.0,0.0,0.0,0.0,0.0,0.0026830137,0.0020684318,-0.00084941834,0.0026830137,0.023534525,-0.12699302,-0.008346081,0.0,0.0,0.0,0.0,0.0,0.0
307523959,307333648,-0.7765232,-0.9350506,-0.3003918,-5.966798,-12.206481,-3.9108057,0.0,0.0,0.0,0.0,0.0,0.0,0.0,-0.0,0.0,0.0,0.0,0.0,0.0,0.0,0.0015104325,0.0015104325,-0.00057445467,0.0011915565,0.034960214,0.014421802,-0.0007072687,0.0,0.0,0.0,0.0,0.0,0.0
308023941,307833648,0.04107219,0.061039463,-0.20384431,0.012721062,-0.011561394,0.10275459,0.0,0.0,0.0,0.0,0.0,0.0,0.0,-0.0,0.0,0.0,0.0,0.0,0.0,0.0,0.001523748,0.001523748,-0.0025773272,-0.0014306009,-0.22790354,-0.07900177,-0.024227083,0.0,0.0,0.0,0.0,0.0,0.0
308523939,308333652,0.054059982,-0.036142185,-0.068165064,0.027217865,-0.04748249,0.15359592,0.0,0.0,0.0,0.0,0.0,0.0,0.0,-0.0,0.0,0.0,0.0,0.0,0.0,0.0,0.0002655983,-0.000118394615,-0.0058029518,0.0002655983,0.07536789,-0.13951212,-0.016420245,0.0,0.0,0.0,0.0,0.0,0.0
309023948,308833648,0.3655696,-0.29601285,-0.600173,0.019752502,-0.07841587,0.27726603,0.0,0.0,0.0,0.0,0.0,0.0,0.0,-0.0,0.0,0.0,0.0,0.0,0.0,0.0,0.010748059,0.004432653,-0.0059514344,0.010748059,0.0882512,-0.2982308,0.02065146,0.0,0.0,0.0,0.0,0.0,0.0
309523939,309333648,0.48450828,-0.2784679,-1.2058915,0.051472664,-0.06405735,0.2695198,0.0,0.0,0.0,0.0,0.0,0.0,0.0,-0.0,0.0,0.0,0.0,0.0,0.0,0.0,0.010855317,0.003626524,-0.008698016,0.010855317,-0.16168948,0.011201695,0.010332227,0.0,0.0,0.0,0.0,0.0,0.0
310023941,309833648,0.007969379,0.027358532,-1.4789075,-0.06461191,-0.01156044,0.38816643,0.0,0.0,0.0,0.0,0.0,0.0,0.0,-0.0,0.0,0.0,0.0,0.0,0.0,0.0,0.004614681,-0.001733221,-0.011436351,0.004614681,-0.30535415,0.1870645,-0.04543358,0.0,0.0,0.0,0.0,0.0,0.0
310523937,310333648,-0.2678547,0.12508416,-1.0549898,-0.10863495,-0.0639143,0.64740944,0.0,0.0,0.0,0.0,0.0,0.0,0.0,-0.0,0.0,0.0,0.0,0.0,0.0,0.0,0.00084865093,-0.003124693,-0.00923096,0.00084865093,-0.06259521,0.08505679,0.006719947,0.0,0.0,0.0,0.0,0.0,0.0
311023963,310833648,-0.50829077,0.050686836,-0.36161375,-0.1185503,-0.1233778,0.6908674,0.0,0.0,0.0,0.0,0.0,0.0,0.0,-0.0,0.0,0.0,0.0,0.0,0.0,0.0,0.0031585991,-0.0044954605,-0.004456513,0.0031585991,-0.0034636185,0.2580132,0.030726671,0.0,0.0,0.0,0.0,0.0,0.0
312023940,311833648,-0.8058152,0.71637654,1.691658,-0.28298616,-0.007958412,0.7155018,0.0,0.0,0.0,0.0,0.0,0.0,0.0,-0.0,0.0,0.0,0.0,0.0,0.0,0.0,0.0036929548,-0.0035191118,0.002672759,0.0036929548,-0.0073101036,0.2652506,0.022226572,0.0,0.0,0.0,0.0,0.0,0.0
312523939,312333648,-0.69287,0.50544846,1.4335691,-0.48516345,0.14935207,0.7155018,0.0,0.0,0.0,0.0,0.0,0.0,0.0,-0.0,0.0,0.0,0.0,0.0,0.0,0.0,0.0025332198,-0.0023021917,0.0025332198,0.0018802881,-0.14538841,0.15703383,-0.007567942,0.0,0.0,0.0,0.0,0.0,0.0
313023943,312833648,-0.28555876,0.024442345,1.2287416,-0.5182948,0.08986187,0.7155018,0.0,0.0,0.0,0.0,0.0,0.0,0.0,0.37937832,0.0,0.0,0.0,0.0,0.0,0.0,0.006231129,-0.0011547161,0.0031996071,0.006231129,0.11999299,-0.07665084,-0.022515953,0.0,0.0,0.0,0.0,0.0,0.0
313523938,313333648,-0.27964574,-0.028983641,1.0995224,-0.6631644,0.020653725,0.7155018,0.0,0.0,0.0,0.0,0.0,0.0,0.0,0.77600384,0.0,0.0,0.0,0.0,0.0,0.0,0.0026948825,-0.0011696313,0.0026948825,0.000934422,-0.29261625,0.022085737,-0.025295377,0.0,0.0,0.0,0.0,0.0,0.0
314023938,313833648,-0.047382902,-0.06974557,0.8507284,-0.6959287,-0.054080963,0.7155018,0.0,0.0,0.0,0.0,0.0,0.0,0.0,0.94884396,0.0,0.0,0.0,0.0,0.0,0.0,0.0042431653,-0.0030170549,0.0042431653,0.002151817,-0.114452496,0.052685607,-0.001780808,0.0,0.0,0.0,0.0,0.0,0.0
314523940,314333648,0.18777825,-0.22240904,0.6759333,-0.6348152,-0.14397717,0.7155018,0.0,0.0,0.0,0.0,0.0,0.0,0.0,1.0497065,0.0,0.0,0.0,0.0,0.0,0.0,0.0033472404,-0.0016901529,0.0033472404,0.0014559925,-0.228339,0.06931775,-0.019848228,0.0,0.0,0.0,0.0,0.0,0.0
315023939,314833648,-0.081794135,-0.0647439,0.6410059,-0.6476674,-0.20453548,0.7155018,0.0,0.0,0.0,0.0,0.0,0.0,0.0,0.93004036,0.0,0.0,0.0,0.0,0.0,0.0,0.0035114735,0.0010106538,0.0035114735,0.0034278631,-0.12316223,0.11954952,-0.004777074,0.0,0.0,0.0,0.0,0.0,0.0
315523941,315333648,-0.1216994,0.024780035,0.6140952,-0.6958065,-0.21949005,0.7155018,0.0,0.0,0.0,0.0,0.0,0.0,0.0,1.1584587,0.0,0.0,0.0,0.0,0.0,0.0,0.001189597,-0.00089425733,0.001189597,0.00047320127,0.21170649,-0.059879255,-0.031471193,0.0,0.0,0.0,0.0,0.0,0.0
316023971,315833648,0.0027921498,-0.1445233,0.5653005,-0.6460085,-0.31984806,0.7155018,0.0,0.0,0.0,0.0,0.0,0.0,0.0,1.32233,0.0,0.0,0.0,0.0,0.0,0.0,0.00659889,-0.0027756547,0.003226392,0.00659889,-0.18575917,0.07395699,-0.0153717995,0.0,0.0,0.0,0.0,0.0,0.0
316523931,316333648,-0.030087397,-0.13797855,0.6776842,-0.6526551,-0.413455,0.7155018,0.0,0.0,0.0,0.0,0.0,0.0,0.0,1.4688792,0.0,0.0,0.0,0.0,0.0,0.0,0.0008635968,-0.0014166391,0.0008635968,-0.000747025,-0.23302042,-0.12136582,-0.037281454,0.0,0.0,0.0,0.0,0.0,0.0
317023940,316833648,-0.20123915,-0.09786287,0.61178046,-0.67894626,-0.486166,0.7155018,0.0,0.0,0.0,0.0,0.0,0.0,0.0,1.635581,0.0,0.0,0.0,0.0,0.0,0.0,0.0026609115,-0.0024434663,0.0026609115,0.00023409724,-0.04275274,0.33644414,-0.005720675,0.0,0.0,0.0,0.0,0.0,0.0
317523962,317333648,-0.15816802,-0.055930704,0.6337248,-0.6931536,-0.59054947,0.7155018,0.0,0.0,0.0,0.0,0.0,0.0,0.0,1.6918025,0.0,0.0,0.0,0.0,0.0,0.0,0.0056911334,-0.00149261,0.0056911334,-0.0004605949,-0.11413478,-0.059504803,-0.011227429,0.0,0.0,0.0,0.0,0.0,0.0
318023935,317833648,0.0001552701,-0.37080035,0.5423491,-0.66758275,-0.79744434,0.7155018,0.0,0.0,0.0,0.0,0.0,0.0,0.0,1.2043185,0.0,0.0,0.0,0.0,0.0,0.0,0.0019833297,-0.0005233764,0.0019833297,0.0017911196,-0.2846738,-0.04007829,-0.042345703,0.0,0.0,0.0,0.0,0.0,0.0
318523934,318333648,0.3912983,-0.04717484,0.39076984,-0.50175524,-0.8992901,0.7155018,0.0,0.0,0.0,0.0,0.0,0.0,0.0,1.761908,0.0,0.0,0.0,0.0,0.0,0.0,0.001883395,-0.0007705111,0.001883395,0.0006260276,0.11905052,-0.10247795,-0.014316142,0.0,0.0,0.0,0.0,0.0,0.0
319023934,318833648,0.0014845133,-0.42475155,0.11460447,-0.59931135,-1.2370701,0.7155018,0.0,0.0,0.0,0.0,0.0,0.0,0.0,0.8990431,0.0,0.0,0.0,0.0,0.0,0.0,0.0027856007,-0.0017217592,0.0027856007,0.0026821196,0.021544866,0.0500704,-0.00054341555,0.0,0.0,0.0,0.0,0.0,0.0
319523933,319333648,0.16039202,-0.29302472,0.014763474,-0.5470319,-1.4406776,0.7155018,0.0,0.0,0.0,0.0,0.0,0.0,0.0,0.65595484,0.0,0.0,0.0,0.0,0.0,0.0,0.0012919605,-0.0005394058,-0.00054157525,0.0012919605,0.020227225,-0.055122152,-0.0025290847,0.0,0.0,0.0,0.0,0.0,0.0
