timestamp,timestamp_sample,xyz[0],xyz[1],xyz[2]
200063192,200062998,-0.0864558,0.3307339,-9.801666
200068136,200067982,-0.08911573,0.33663142,-9.797677
200213133,200212981,-0.10157985,0.33147177,-9.831229
200263186,200263001,-0.114369296,0.28441542,-9.791437
200313145,200312983,-0.13363528,0.30107394,-9.762223
200413133,200412980,-0.12890792,0.36931983,-9.784776
200463158,200463001,-0.060773168,0.2068829,-9.771053
200513137,200512979,-0.06741555,0.27357885,-9.770252
200563160,200563001,-0.083358854,0.40309912,-9.744581
200613137,200612983,-0.1516257,0.4174259,-9.781615
200663159,200663003,-0.06695039,0.23229493,-9.735605
200713138,200712981,-0.06556117,0.32682422,-9.792094
200763163,200763001,-0.048217624,0.33228943,-9.779495
200813135,200812981,-0.06278171,0.36323163,-9.770771
200863164,200863004,-0.07705714,0.38895908,-9.790883
200913138,200912985,-0.109337464,0.3689917,-9.808058
200963142,200962982,-0.10369196,0.32464105,-9.773982
201013131,201012980,-0.10899227,0.26633197,-9.857059
201063169,201062997,-0.1282828,0.31954023,-9.736749
201113145,201112979,-0.07173493,0.26287267,-9.772342
201163164,201162998,-0.097110815,0.40635973,-9.805334
201213143,201212979,-0.087544836,0.3176017,-9.793444
201263186,201262998,-0.055077977,0.30930102,-9.78552
201313144,201312979,-0.039931882,0.27753308,-9.808789
201363180,201362997,-0.06876431,0.2472569,-9.748188
201413143,201412979,-0.13119885,0.35207263,-9.774928
201463162,201462998,-0.11563478,0.369552,-9.770957
201513143,201512978,-0.037178732,0.36457896,-9.788669
201563167,201562997,-0.06475925,0.38224012,-9.784246
201613143,201612979,-0.062150534,0.27424425,-9.731519
201663174,201662998,-0.10965772,0.2888463,-9.741682
201713153,201712980,-0.1663314,0.3729442,-9.718186
201763161,201762997,-0.08214606,0.4482728,-9.775122
201813144,201812979,0.0058907447,0.39960006,-9.811699
201863185,201862999,-0.09960276,0.28364277,-9.815758
201913154,201912979,-0.036506474,0.3282855,-9.795045
201963168,201962998,-0.11325408,0.20077714,-9.730783
202013145,202012980,-0.09007906,0.35562056,-9.749233
202063154,202062997,-0.07237219,0.40479502,-9.820553
202113127,202112979,-0.07791278,0.35161513,-9.789042
202163149,202163001,-0.0966678,0.27513576,-9.805398
202213128,202212979,-0.064694814,0.2893197,-9.75911
202263147,202262998,-0.096528225,0.3072244,-9.705057
202313128,202312980,-0.06411524,0.359431,-9.817944
202363158,202362997,-0.118421584,0.43861228,-9.809894
202413136,202412980,-0.12586594,0.26710787,-9.826448
202463146,202462997,-0.07042806,0.30096033,-9.746312
202513133,202512980,-0.124103226,0.2563154,-9.7464485
202563149,202562998,-0.10826722,0.3508076,-9.785445
202613126,202612979,-0.14261045,0.30905902,-9.789567
202663185,202662998,-0.10170253,0.34212458,-9.7851305
202713131,202712979,-0.14684662,0.32649228,-9.830349
202763152,202762997,-0.08208429,0.27726546,-9.778134
202813127,202812979,-0.022161271,0.35829654,-9.787102
202863152,202862999,-0.055722542,0.4474747,-9.779326
202913127,202912979,-0.118828066,0.36868578,-9.807085
202963150,202962997,-0.09457475,0.3080419,-9.809192
203013127,203012980,-0.096101865,0.22288015,-9.755384
203063194,203062998,-0.047301862,0.3620165,-9.7898655
203113152,203112980,-0.05051617,0.4026268,-9.798332
203163176,203162998,-0.08675648,0.31412396,-9.818111
203213160,203212979,-0.072675794,0.29266915,-9.768009
203263164,203262997,-0.08123416,0.22627783,-9.655632
203313165,203312979,-0.0830266,0.23893398,-9.763273
203363166,203362997,-0.06416833,0.43829736,-9.843408
203413144,203412980,-0.120482765,0.30153927,-9.779526
203463166,203462997,-0.003113393,0.36251652,-9.784182
203513144,203512979,-0.09028405,0.32828385,-9.797005
203563166,203562997,-0.08884739,0.34886768,-9.791075
203613147,203612979,-0.114212334,0.21845981,-9.815374
203663185,203663000,0.0023354436,0.42632535,-9.7875595
203713143,203712979,-0.29317856,0.5428321,-9.813597
203763175,203762997,-0.061929956,0.25567073,-9.808288
203813145,203812979,-0.06889319,0.31297794,-9.744256
203863162,203862997,-0.19729987,0.41173613,-9.66546
203913149,203912979,-0.030244062,0.13444728,-9.711927
203963194,203962997,-0.09287159,0.24292989,-9.7844305
204013145,204012980,-0.18336862,0.3717408,-9.791317
204063098,204062997,0.04189467,0.26598716,-9.816978
204113128,204112979,-0.023590349,0.14301294,-9.79661
204163149,204162998,-0.006531186,0.10188488,-9.722156
204213127,204212979,-0.27797002,0.79067075,-9.843328
204263199,204263027,-0.038737975,0.19502717,-9.728324
204313128,204312979,0.022524744,0.30740988,-9.817084
204363147,204362997,0.017758895,0.052215766,-9.633442
204413130,204412980,-0.095925055,0.061743185,-10.297958
204463155,204462998,-0.30869755,0.8370373,-10.079612
204513128,204512979,0.07870487,0.21847096,-9.892013
204563152,204562997,-0.07223866,0.3765371,-9.966509
204613129,204612979,-0.0043007964,0.32100832,-9.952127
204663160,204662998,-0.3176935,0.6266588,-9.829896
204713128,204712980,-0.20520997,0.1343596,-9.312487
204763152,204762997,0.121557,0.37967524,-10.121663
204813130,204812980,-0.39031306,0.22811666,-9.742525
204913128,204912979,0.040100776,0.21807262,-9.812834
204963158,204962998,0.13110271,0.4043585,-10.125628
205013127,205012979,-0.14110006,0.12711276,-9.682838
205063150,205062999,-0.07712908,0.008860236,-9.744348
205113144,205112979,0.020550905,0.7357354,-9.872471
205163195,205162998,0.4557362,0.022821495,-9.693604
205213144,205212979,-0.3036209,0.13707666,-9.50496
205263181,205262997,0.12514222,0.68083245,-9.908387
205313147,205312980,-0.1775824,0.9479166,-9.743487
205363184,205362998,-0.2629024,0.46297362,-9.87112
205413144,205412980,-0.31198996,0.49005237,-10.023486
205463162,205462997,-0.060815405,0.6752214,-10.216257
205513145,205512979,-0.27472934,0.71714354,-10.128331
205563170,205562997,-0.21607366,0.20682155,-10.017207
205613145,205612979,-0.13110559,-0.34797692,-10.530719
205663186,205663000,0.20568764,-0.114335,-10.348681
205713144,205712979,0.069887936,0.034382466,-10.218813
205763164,205762997,-0.03275994,-0.21818617,-10.599541
205813145,205812979,0.67094517,0.003704246,-10.640264
205863176,205862997,0.083262175,-0.14819954,-10.379398
205913145,205912979,-0.049585614,-0.08655623,-9.956513
205963165,205962999,-0.18430726,-0.14350478,-10.030749
206013159,206012979,-0.04847832,0.11103084,-10.076878
206063186,206062997,-0.06539595,0.009921634,-10.2848
206113130,206112980,-0.16603953,0.16928487,-9.984576
206163146,206162998,-0.08763981,0.09791829,-10.375851
206213127,206212979,-0.105521336,0.22188447,-10.135678
206263152,206262997,0.16642657,0.1965347,-10.051726
206313131,206312980,-0.27992335,0.0062891296,-10.818268
206513128,206512980,-0.17785773,0.22843274,-9.796466
206663154,206662998,0.22158396,-0.2334739,-9.917656
206713129,206712980,0.094261885,-0.018991616,-10.119546
206763148,206762997,0.020576978,-0.1401494,-10.474817
206813130,206812980,0.013376583,-0.004005283,-9.893557
206863146,206862997,-0.1852216,0.42295727,-10.521355
206913133,206912980,-0.083358124,-0.0016407807,-9.763241
206963153,206962998,0.030253403,0.16839837,-10.099008
207013127,207012979,0.12403998,-0.08332213,-10.314686
207063149,207062997,-0.13670152,0.086755715,-10.018409
207113128,207112979,-0.039469082,0.38150734,-10.413886
207163192,207162998,0.166436,0.2337097,-10.099603
207213145,207212979,0.13563195,-0.10937507,-10.210171
207263184,207262998,0.087532595,0.011423724,-10.303075
207313147,207312980,0.107706755,-0.1629437,-9.981451
207363169,207362997,0.045693476,0.25557697,-9.819045
207413146,207412980,-0.051652506,-0.11843652,-10.089576
207463166,207462997,0.0062274043,0.0136767905,-10.14845
207513144,207512979,0.09390109,-0.073219955,-10.198074
207563212,207563029,0.049306825,0.069953315,-10.241965
207613144,207612979,-0.18001278,-0.24439687,-10.011792
207663173,207662998,-0.060166143,-0.043092154,-10.140555
207713143,207712979,-0.33279613,0.07444265,-10.613761
207763183,207762997,-0.08034845,-0.27566487,-10.3445425
207813145,207812979,0.19383976,-0.21071716,-10.341925
207863198,207862999,-0.105556905,0.07390772,-10.341044
207913144,207912979,-0.14915876,0.059048552,-9.819699
207963168,207962998,-0.021023275,0.45350742,-10.040317
208013144,208012979,-0.0047986116,-0.3491023,-10.196076
208063190,208062997,0.039527286,-0.07727151,-10.378025
208113143,208112980,0.08385059,-0.09161826,-9.683662
208163146,208162997,-0.04729988,-0.22384712,-10.267172
208213128,208212980,0.15446173,0.20105264,-9.7428665
208263150,208262997,-0.19680259,0.13042423,-10.09102
208313129,208312979,-0.14953464,-0.28025407,-9.8514185
208363147,208362998,-0.222467,-0.109287545,-9.892691
208413127,208412979,0.1958078,-0.07700943,-10.141083
208463153,208462999,-0.021512413,-0.24954526,-9.538666
208513128,208512979,0.27131966,0.09146903,-10.3424225
208563153,208562997,-0.033330332,0.042636152,-9.461606
208613136,208612980,-0.031262085,-0.109690234,-10.339744
208663146,208662997,-0.0983155,-0.37888807,-9.453094
208713134,208712982,0.044987492,-0.38601133,-10.518841
208763147,208762998,0.19022135,0.066713825,-9.7799835
208813133,208812980,-0.05387083,-0.14586577,-10.133953
208863147,208862998,-0.10172539,-0.4397541,-10.270064
208913129,208912980,-0.27949548,-0.040221952,-9.728437
208963147,208962997,-0.021228218,-0.16926584,-10.343077
209013128,209012979,0.097091004,0.3793473,-9.797441
209063148,209062998,-0.28882495,-0.12678245,-10.186174
209113128,209112979,-0.13173035,-0.48328605,-10.176341
209163181,209162997,-0.2529727,-0.106802806,-9.995949
209213144,209212979,0.0380846,-0.15730678,-9.885375
209263187,209262998,-0.3980586,0.07281704,-10.30554
209313159,209312980,-0.2372699,0.1855748,-10.140321
209363162,209362997,-0.19523299,-0.17928399,-10.1125345
209413146,209412981,-0.40847805,0.31638616,-10.214745
209463167,209462998,-0.1741795,0.16457342,-9.943947
209513145,209512979,-0.073266976,0.094665535,-10.104959
209563186,209562999,-0.068782374,-0.05909794,-10.182821
209613148,209612979,-0.13225646,0.22588675,-10.205146
209663209,209663001,-0.08914125,0.05710426,-9.965451
209713145,209712980,-0.19875346,-0.35871783,-9.852131
209763165,209762997,-0.53828466,-0.14683647,-9.907833
209813163,209812979,-0.27156433,-0.15946019,-10.007749
209863186,209862997,-0.38406476,-0.25135484,-9.667783
209913144,209912979,-0.06219043,-0.2092205,-10.256521
209963190,209962997,-0.5082357,-0.0004546028,-9.568904
210013147,210012982,0.3381337,-0.085113615,-9.875598
210063167,210062997,-0.30144635,0.4190436,-10.017815
210113143,210112979,-0.5536271,0.41195855,-9.897515
210163153,210162998,0.07649956,0.043209646,-9.922075
210213127,210212979,-0.17781208,-0.079863675,-9.854763
210263148,210262998,-0.034528125,-0.39094988,-10.065069
210313130,210312982,-0.34404778,-0.2449843,-9.7669115
210363148,210362997,-0.23941725,-0.43557635,-9.910745
210413133,210412980,-0.55980015,0.18842718,-9.493643
210463163,210462997,-0.12014263,-0.08550634,-9.557653
210513127,210512979,-0.38611928,-0.038385574,-9.663842
210563149,210562999,-0.21976195,0.05080552,-10.060231
210613127,210612979,-0.08185808,-0.013450246,-9.937148
210663164,210662999,-0.48998472,0.064524576,-9.814411
210713127,210712979,-0.098605685,0.14107488,-9.554079
210763147,210762998,-0.48460263,-0.118946955,-9.820113
210813132,210812981,-0.27824357,0.14653641,-9.932337
210863196,210863027,-0.2668183,-0.13783802,-10.295076
210913128,210912979,-0.49945322,0.26244184,-10.3420725
210963147,210962997,-0.45495948,0.30904034,-10.243607
211263170,211262997,-0.54885906,0.2572758,-9.970525
211313145,211312979,-0.30935428,-0.14521445,-9.8875675
211363192,211362998,-0.63199526,-0.28834805,-10.217675
211413152,211412979,-0.6565226,0.13742854,-10.5437565
211463185,211462997,-0.25895306,-0.039243575,-10.196276
211513145,211512980,-0.40318948,-0.25338706,-10.539511
211563167,211562997,-0.48813382,-0.009865252,-10.669325
211613144,211612979,-0.33806843,-0.011421719,-10.26348
211663163,211662998,-0.31662467,0.03166891,-10.3018265
211713145,211712980,-0.34642434,0.3331837,-9.911225
211763194,211762997,-0.67286,0.004119421,-9.402173
211813148,211812979,-0.4965108,0.15955962,-8.758792
211863173,211862999,-0.4177115,-0.22371715,-8.324811
211913144,211912979,-0.13818184,-0.0839787,-7.6818867
211963165,211962998,-0.7380027,0.33697706,-7.416723
212013143,212012979,-0.15122063,0.81905955,-6.9438014
212063190,212062999,-0.29268658,0.80469126,-6.418305
212113144,212112979,-0.90430194,0.20100273,-6.614295
212163170,212162997,-0.6242378,-0.89355296,-6.9711103
212213129,212212980,-0.29290688,0.16892472,-7.4871483
212263145,212262997,-1.1696869,-0.30780146,-8.1802845
212313132,212312980,-0.4519156,-0.28002623,-8.98397
212363147,212362998,-0.41445413,0.3192307,-9.579323
212413128,212412979,-0.6551865,0.5683704,-10.229
212463147,212462998,-0.5895208,0.011183065,-9.992266
212513127,212512978,-0.45832565,-0.10878633,-10.296397
212563153,212562998,-0.26058537,0.22941037,-9.661217
212613128,212612979,-0.50610954,-0.09212316,-9.094203
212663154,212662997,-0.82858956,0.22640102,-9.6389265
212763153,212762997,-0.5626288,-0.16113575,-10.102782
212813131,212812980,-0.4357079,-0.42052567,-10.372075
213013128,213012979,-0.46857953,0.2642919,-9.562819
213063171,213062998,-0.42384985,0.013980827,-9.396926
213163145,213162997,-0.8527393,0.29141727,-9.572969
213213144,213212979,-0.21235791,0.34095255,-9.597827
213263165,213262998,-0.4090146,-0.0047507463,-9.82551
213313144,213312979,-0.50158596,0.13866507,-9.869014
213363174,213362997,-0.43666413,0.022897007,-9.954928
213413146,213412980,-0.57994556,0.1357969,-9.652676
213463185,213462997,-0.44821316,0.32777864,-10.257043
213513159,213512979,-0.6452777,0.10608033,-10.223684
213563162,213562997,-0.3451581,0.3556654,-10.029096
213613144,213612979,-0.46067685,0.34816247,-9.914411
213663170,213662997,-0.41068828,0.48036277,-9.645385
213713183,213712979,-0.23846541,0.21182363,-10.072714
213763183,213762997,-0.14370292,0.59522945,-10.064685
213813144,213812979,0.118919544,0.2457181,-10.258846
213863186,213862999,-0.05698954,0.3377435,-9.9151945
213913144,213912979,-0.1782188,0.21637116,-9.862457
213963175,213962998,-0.16773912,0.10083152,-10.102515
214013145,214012979,-0.20111613,-0.15128185,-10.040278
214063196,214062997,-0.09904268,0.22124298,-10.267112
214113143,214112979,-0.04568967,0.039196685,-9.740517
214163148,214162982,-0.22296126,0.09285395,-10.091524
214213128,214212979,-0.52005786,0.10374854,-9.710937
214263153,214262999,0.13846187,0.2988699,-10.213158
214313127,214312979,-0.17478652,0.3279415,-10.13367
214363164,214362998,-0.07178299,0.4116837,-9.774916
214413128,214412979,-0.32235935,-0.16589898,-10.078347
214463152,214462998,-0.10273137,0.0608606,-10.125056
214513132,214512980,-0.38933244,0.46736225,-9.717193
214563150,214562997,-0.11159832,-0.064993195,-10.064983
214613127,214612979,-0.10720475,0.3537414,-9.974805
214663147,214662998,0.03572055,0.5851382,-9.932691
214713128,214712979,-0.24622265,0.5815241,-9.929881
214763159,214762998,-0.05488701,0.20429109,-9.747512
214813128,214812979,-0.0031264112,0.14763132,-9.986757
214863150,214862997,0.22054888,0.52704805,-9.650903
214913128,214912979,-0.4991877,0.6927703,-10.004132
214963154,214962998,0.3797627,0.29149625,-10.127435
215013138,215012979,-0.31513137,0.52441055,-9.711332
215063156,215062998,-0.39663994,0.29511684,-9.820192
215113128,215112979,-0.44239065,0.51360035,-9.571163
215163139,215162987,-0.68417686,0.37276027,-10.007557
215213129,215212980,-0.46248686,0.45826766,-9.808521
215263162,215262997,-0.7943052,0.11124411,-10.159891
215313143,215312979,-0.43482342,0.2939029,-10.047403
215363186,215362998,-0.39306527,0.07742393,-10.296754
215413144,215412979,-0.23518696,-0.06853669,-9.922893
215463182,215463000,-0.99142593,-0.020709101,-9.670829
215513159,215512981,-0.7196678,0.44419026,-9.506551
215563162,215562997,-0.0028771793,0.6857956,-9.69949
215613145,215612979,0.14968134,0.38706508,-9.108512
215663196,215662999,-1.232466,0.8455529,-9.704921
215713143,215712979,-0.31833196,0.2234773,-9.758087
215763172,215762997,-0.25241986,0.061306857,-9.911882
215813145,215812979,-0.43879044,-0.10860823,-9.579584
215863162,215862997,-0.8951534,0.45994118,-10.009018
215913145,215912980,0.2942279,-0.2156595,-9.960445
215963185,215963001,-0.5104461,0.118068546,-9.64128
216013148,216012982,-0.8384397,0.19045526,-9.487098
216063174,216063000,-0.73463523,0.00092049094,-9.343136
216113148,216112979,-0.7992112,0.08866195,-9.219769
216163190,216162997,-0.6727042,0.18714826,-9.430234
216213152,216212980,-0.56869584,0.37879887,-9.905503
216263151,216262997,-0.82960445,0.18219069,-10.133212
216313133,216312980,-0.89079994,0.6077505,-9.903018
216363146,216362998,-0.45156226,0.24550779,-9.116666
216413127,216412979,-0.75997394,0.17830169,-9.772857
216463153,216462997,-0.62105626,0.32736912,-9.461461
216513127,216512979,-1.1304624,0.11114005,-9.8154335
216563152,216562998,-0.8592535,0.4162963,-9.512972
216613127,216612979,-1.1599547,0.05679686,-9.51072
216663151,216662997,-0.8193039,0.68066615,-9.703412
216713129,216712980,-1.1069767,0.5231288,-9.606131
216763146,216762997,-1.034126,0.4239067,-9.695481
216813127,216812979,-1.10737,0.3465174,-10.2762375
216863155,216862998,-0.93566674,-0.16699474,-10.2197695
216913135,216912979,-0.083883226,0.727989,-10.132647
216963173,216962999,-1.5148355,-0.012488283,-9.783854
217013129,217012980,-0.1480739,0.6073373,-9.466227
217063150,217062998,-0.91803324,-0.05058017,-9.758759
217113133,217112983,-0.80987597,0.13516943,-10.007442
217163149,217162998,-0.9496363,0.14424318,-9.674364
217213127,217212979,-0.76538354,0.27580565,-9.993515
217263170,217262997,-0.48883322,0.65160567,-10.35011
217313146,217312980,-0.92106944,-0.03924911,-10.145505
217363184,217362997,-0.720867,-0.21834357,-9.891265
217413144,217412979,-0.81346065,0.33489043,-9.694345
217463218,217463028,-1.1376166,0.48126453,-9.962933
217513143,217512979,-1.0794133,0.0069075567,-10.026665
217563174,217562998,-0.47328448,-0.2568899,-10.140025
217613165,217612982,-0.42588267,0.0021561927,-10.037228
217663165,217662999,-0.53768003,-0.23517102,-9.43051
217713143,217712979,-2.1704817,0.288451,-9.583656
217763183,217762997,-0.7150788,0.45859867,-10.211125
217813144,217812980,-0.38237673,0.18976231,-9.883394
217863170,217862997,-0.6769189,0.2003745,-10.20391
217913145,217912980,-1.1487982,0.8114345,-10.631898
217963167,217962998,-0.84026885,0.6577638,-10.412602
218013149,218012979,-1.1207768,0.30085364,-10.372968
218063166,218062999,-0.69591385,0.2926497,-9.599322
218113145,218112979,-1.6093396,0.49519885,-9.594921
218163166,218162997,-0.72319984,0.2725562,-9.484318
218213145,218212980,-1.1606408,0.43114427,-9.72726
218263196,218262997,-0.879556,-0.40229777,-9.798036
218313128,218312979,-1.0704579,0.18974668,-9.6436825
218363153,218362999,-1.8245591,0.30398402,-10.078803
218413127,218412979,-0.74244726,0.59983516,-10.114685
218463150,218462999,-1.203999,-0.06411549,-10.08288
218513127,218512979,-1.1430826,-0.24833193,-9.984938
218563152,218562998,-1.1549206,0.30003968,-9.777455
218613128,218612979,-0.6333687,0.28995633,-10.424413
218663148,218662998,-1.2097689,0.6755807,-9.978003
218713128,218712979,-0.92898315,0.5482469,-9.997207
218763150,218762997,-0.5700021,0.5063815,-10.571998
218813128,218812980,-0.7042067,0.18297528,-10.580766
218863153,218862998,-0.9652866,0.25504413,-9.87197
218913128,218912979,-0.78913015,0.59375745,-10.039361
218963158,218962998,-1.7676303,-0.023838697,-10.110988
219013132,219012979,-1.1067939,0.059315268,-9.471699
219063158,219062998,-0.986511,-0.6727541,-8.378333
219113130,219112981,-1.1676077,-0.04663106,-8.822125
219163151,219162997,-1.1492372,0.45636192,-8.568583
219213132,219212979,-0.9945298,0.18289673,-9.558354
219263152,219262999,-0.8855752,0.24087328,-9.307175
219313144,219312979,-1.2104445,-0.29749003,-9.70818
219363166,219362997,-0.51972157,0.50460345,-9.837216
219413145,219412980,-1.3607005,-0.28594017,-9.833684
219463163,219462998,-1.0513333,-0.1784544,-9.245658
219513143,219512979,-0.6869751,0.2715887,-9.320197
219563190,219562999,-0.8390826,-0.24565993,-9.366219
219613144,219612979,-1.2942191,0.074473515,-8.983979
219663178,219662997,-0.48722985,0.42583373,-10.3131
219713149,219712980,-1.031444,0.15403341,-10.2781315
219763163,219762998,-1.0945791,0.08830658,-9.919655
219813143,219812979,-1.8319423,-0.08136324,-9.9412155
219863185,219862998,-0.8892581,0.3473717,-9.82506
219913145,219912979,-0.6682183,0.02051663,-9.303549
219963174,219962998,-1.0337198,0.13314946,-8.949651
220013145,220012980,-1.2221961,0.19627108,-8.878936
220063163,220062997,-1.2391951,0.32706168,-8.953749
220113147,220112982,-0.9935545,-0.040296752,-9.390224
220163164,220162998,-1.0290914,0.34151036,-9.387515
220213145,220212979,-1.4206765,-0.17560034,-9.324208
220263165,220262997,-1.2818878,0.1543232,-9.663572
220313129,220312980,-1.3548442,0.48210797,-9.969251
220363158,220362997,-0.5933019,-0.1939056,-10.159403
220413132,220412979,-0.3167982,1.2100803,-10.323709
220463153,220462999,-0.75497776,0.53127325,-10.356881
220663153,220662998,-0.7677731,0.5909577,-10.18468
220713128,220712979,-0.9990245,-0.23974302,-9.860725
220913131,220912979,-0.9396194,-0.7046373,-9.959632
221013127,221012979,-0.69547945,-0.039842445,-9.472935
221063146,221062997,-0.79893273,0.4583809,-10.103052
221113130,221112980,-0.65989685,0.12127212,-9.647879
221163146,221162997,0.14244893,0.29506245,-9.557739
221213128,221212979,-0.7800336,0.5092929,-9.54613
221263151,221262998,-0.53256875,0.38489005,-9.670389
221313152,221312979,-0.49866834,0.2921503,-9.727101
221363164,221362997,-0.6246746,0.8181284,-10.007426
221413146,221412980,-0.21798797,0.10825398,-9.805808
221463168,221462998,-0.5890934,0.7115751,-10.166877
221513145,221512979,-0.966804,0.66703254,-9.960393
221563183,221562999,-0.4071477,0.42272845,-9.80176
221613146,221612980,-0.8101642,-0.07926437,-10.204567
221663189,221662998,-0.6174522,0.7378895,-9.845016
221713144,221712979,0.3257749,0.41727597,-10.028508
221763168,221762997,-0.75915056,-0.15898088,-10.050077
221813145,221812980,-0.50760347,0.13983014,-9.313534
221863166,221862997,-0.9429594,0.07907769,-10.145622
221913145,221912980,-0.30889028,0.23007931,-9.54548
221963190,221962997,-0.60502774,0.5384244,-9.526152
222013144,222012979,-0.4952874,0.046747435,-9.74212
222063168,222062997,-0.63753605,0.048140626,-10.072169
222113149,222112979,-0.48126507,0.55831355,-9.927147
222163195,222162999,-0.45116386,0.19218828,-9.650316
222213144,222212979,-0.5894639,0.072282955,-9.472596
222263163,222262997,-0.9187399,0.54348385,-9.478896
222313145,222312980,-0.28524637,0.4542417,-9.858128
222363153,222362997,-0.4969838,0.49244815,-9.681889
222413127,222412979,-0.61950964,0.35950997,-9.899514
222463146,222462997,-0.20071244,0.1528526,-9.808004
222513127,222512979,-0.5151015,-0.07912944,-9.978979
222563146,222562997,-0.6812304,0.09903066,-9.638828
222613129,222612979,-0.42870495,0.0321512,-9.815408
222663153,222662997,-0.45781422,0.17272472,-9.620168
222713127,222712979,-0.39117023,0.41721088,-9.715516
222763148,222762999,-0.22385737,-0.1744022,-9.825987
222813128,222812979,-0.3921781,-0.34113163,-9.828028
222863150,222862997,-0.42067707,-0.13451815,-10.084993
222913128,222912980,-0.17439774,-0.32239667,-9.67135
222963152,222962997,-0.50417286,-0.102942534,-9.813419
223013128,223012979,-0.12835838,-0.08156972,-9.587526
223063156,223062998,0.18063821,0.10804912,-9.682809
223113137,223112980,-0.27742848,0.18414682,-9.8684635
223163152,223162998,-0.052755453,-0.13640998,-10.089114
223213128,223212979,0.29946786,-0.28094077,-9.936495
223263147,223262997,-0.30317646,0.33072117,-10.25529
223313132,223312980,-0.32244623,-0.06430909,-9.970234
223363162,223362997,-0.38052708,0.10746437,-9.574004
223413143,223412979,-0.11978433,0.10269185,-9.693025
223463194,223462998,-0.07854328,0.061175738,-9.802
223513144,223512979,-0.58227235,-0.06422765,-9.651307
223563198,223562997,-0.10219502,-0.14295454,-9.484329
223613147,223612980,-0.3041655,0.19761424,-9.765334
223663166,223662997,-0.2163498,-0.22826633,-9.614072
223713143,223712979,-0.21329515,0.030724132,-9.532382
223763188,223762999,-0.25128618,0.26602328,-9.874903
223813153,223812979,0.972471,-0.3405379,-9.747818
223863173,223862997,-0.27366737,0.06958528,-10.066032
223913150,223912980,-0.5352886,-0.22748467,-9.69756
223963162,223962997,-0.30918667,0.058840625,-9.723679
224013144,224012979,-0.37062514,0.30322474,-10.022434
224063207,224063025,-0.49765635,0.23952708,-9.920983
224113164,224112979,-0.3168715,0.18328887,-10.446142
224163171,224162998,-0.30592665,-0.13519621,-10.173688
224213145,224212979,-0.7065344,0.21783859,-9.92466
224263185,224262997,-0.37289515,0.46480864,-9.722092
224313143,224312979,-0.19304857,0.06425758,-9.53687
224363146,224362997,-0.62744373,0.06719328,-9.872245
224413129,224412980,-0.44133118,-0.33404452,-9.862419
224463163,224462997,-0.25771806,-0.14602745,-9.567789
224513135,224512979,-0.5167252,0.1602031,-9.968661
224563154,224562997,-0.020122368,0.19561854,-9.709319
224613150,224612997,-0.4326047,0.2544424,-10.093057
224663150,224662998,-0.14484216,0.10758724,-9.978469
224713128,224712979,-0.42862228,0.1290813,-9.646451
224763150,224762998,-0.20857279,-0.030669734,-9.621509
224813127,224812979,-0.58728975,0.05529667,-9.821247
224863188,224862999,-0.27317172,-0.12039344,-9.909902
224913134,224912980,-0.13048795,0.0028136652,-9.895836
224963146,224962997,-0.12939589,-0.04027837,-9.836238
225013135,225012980,-0.23045734,-0.23561087,-9.932794
225063150,225062999,-0.2531262,0.19142844,-9.511415
225113129,225112979,-0.23086251,-0.35139456,-9.386659
225163161,225162998,-0.5024155,0.1539982,-9.551803
225213127,225212979,-0.3554988,0.016925165,-9.727652
225263148,225262998,-0.08428346,0.27906036,-9.543733
225313128,225312980,-0.44156638,0.27693015,-9.838382
225363151,225362997,-0.21463668,-0.09236945,-9.806365
225413144,225412979,-0.36568192,0.13770393,-9.990358
225463186,225462999,-0.45733505,0.12989418,-9.775839
225613145,225612980,-0.2698165,0.025132457,-10.002349
225663165,225662997,0.079717696,0.12796335,-9.999125
225713144,225712978,-0.2989351,0.033956297,-9.844887
225763164,225762998,-0.597865,0.10834761,-9.692598
225813147,225812980,-0.5044846,-0.11382958,-9.566575
225863192,225862998,-0.037212215,-0.072153576,-10.048973
225913144,225912979,-0.46114403,-0.41130087,-10.163526
225963174,225962997,0.26557454,0.14513808,-9.513338
226013149,226012979,-1.3977091,-0.66774875,-7.4441247
226063196,226062997,0.04102577,-0.04934578,-9.328293
226113149,226112979,0.55118704,-0.046744984,-10.389387
226163192,226162998,-0.07972768,-0.023044886,-10.652567
226213143,226212979,-0.34943098,-0.41451845,-9.984387
226263177,226262999,-0.30190226,-0.57546574,-10.039863
226313144,226312979,-0.6664833,-0.06420068,-10.322808
226363164,226362998,-0.2015687,-0.49339432,-9.948427
226413127,226412979,-0.6679057,-0.35553834,-9.89301
226463150,226462999,-0.5531813,-0.05121589,-9.775261
226513127,226512979,-2.2624867,-0.47397417,-7.40666
226563158,226562998,1.0813353,-0.6306632,-9.301794
226613129,226612980,0.5837759,-0.4393551,-10.334263
226663150,226662997,-0.24763872,-0.33923337,-9.9858265
226713133,226712979,-0.76996166,-0.16993636,-9.684631
226763148,226762998,-0.36512184,-0.15807149,-9.648061
226813127,226812979,-0.12913628,-0.20048541,-9.748067
226863151,226862998,-0.50216025,-0.7363453,-9.509904
226913128,226912979,-0.31050006,-0.6525732,-9.818869
226963153,226962998,-0.49132988,-0.24601516,-9.859565
227013128,227012980,-1.8278309,-0.58272356,-7.353945
227063147,227062997,0.3162919,-0.5170647,-9.328787
227113129,227112979,0.6728913,-0.26835015,-10.46352
227163150,227162997,-0.3774553,-0.04990776,-10.316623
227213132,227212979,-0.3592242,-0.11930589,-10.5018215
227363203,227363027,-0.31385472,-0.55767715,-10.366387
227413091,227412991,-0.15510044,-0.4413254,-10.07713
227463169,227462998,-0.34227073,0.13883267,-10.383509
227513144,227512979,-1.9085919,-0.67581016,-7.5277
227563162,227562997,0.65581906,0.22943646,-9.662237
227613143,227612979,0.26124546,-0.571027,-10.499257
227663164,227662999,-0.11517812,-0.51188534,-10.356862
227713145,227712979,-0.17288144,-0.4020047,-10.259082
227763169,227763000,-0.46941587,-0.41629007,-9.780073
227813145,227812980,-0.6311836,-0.46824288,-9.991236
227863183,227862997,-0.40246445,-0.37126616,-9.934967
227913143,227912979,-0.1697125,-0.5291115,-9.891484
227963188,227962999,-0.37952286,-0.29970536,-9.52247
228013146,228012979,-1.6763616,-0.76001376,-7.21377
228063168,228062997,0.32470918,-0.5938768,-9.692951
228113144,228112980,0.5797932,0.04114413,-10.669424
228163182,228162997,-0.44309443,-0.07769687,-10.355837
228213147,228212979,-0.46955547,-0.01839777,-9.9459305
228263189,228262998,-0.25192654,-0.31173787,-10.214211
228313143,228312979,-0.57728654,-0.03781079,-9.998085
228363170,228362998,-0.5676693,0.3931903,-10.222917
228413145,228412980,0.039282773,-0.031483952,-9.958623
228463148,228462997,-0.4896316,0.023114908,-10.261222
228513159,228512979,-1.8745455,0.059511714,-7.2105093
228563159,228562998,0.41243652,0.6033113,-9.25967
228613129,228612980,0.35544837,0.55138195,-10.026426
228663177,228662998,-0.043930683,0.037004344,-10.406767
228713127,228712979,-0.4911204,-0.56203544,-10.276218
228763150,228762998,-0.5437613,-0.37210697,-9.539641
228813127,228812979,-0.04969756,-0.45392102,-9.834536
228863148,228862997,-0.3891718,-0.3445747,-9.933329
228913139,228912980,-0.11244091,-0.18316631,-9.833893
228963147,228962997,-0.2175407,-0.39063329,-9.731416
229013127,229012979,-1.8497683,-0.4627004,-7.3281026
229063150,229062999,0.72519344,-0.13851598,-9.423108
229113128,229112979,0.38384464,-0.5150761,-10.389853
229163147,229162997,-0.51421946,-0.5549921,-10.403909
229213127,229212979,-0.6189685,-0.11281054,-10.011083
229263161,229262998,-0.34795952,-0.35464588,-9.756667
229313133,229312980,-0.36946222,-0.13085066,-10.291762
229363147,229362997,-1.0717534,0.05542914,-9.925039
229413127,229412979,-0.31722534,-0.54120684,-10.22634
229463188,229462999,-0.38186732,-0.40337935,-10.331719
229513144,229512979,-1.8103964,-0.21081074,-6.996147
229563166,229562997,0.56918204,-0.40093166,-9.446656
229613150,229612980,0.6648168,0.065116964,-10.531615
229663175,229662998,-0.19852652,0.05114725,-10.220377
229713159,229712979,-0.30323192,-0.28418818,-10.406096
229763188,229762999,-0.72137856,-0.09807343,-10.221247
229813148,229812979,-0.5292605,-0.12789808,-9.771445
229863172,229862997,-0.31049293,-0.24853215,-9.802434
229913145,229912980,-0.4296009,-0.013218834,-9.804707
229963196,229962997,-0.43853417,-0.16094504,-9.802209
230013144,230012979,-1.5647186,-0.08819329,-7.0061765
230063188,230062998,0.3006549,-0.33081636,-9.270631
230113144,230112979,0.5859568,-0.29283047,-10.161282
230163168,230162997,-0.39725187,-0.2341613,-10.04859
230213145,230212980,-0.31092688,-0.22837603,-10.08374
230263166,230262998,-0.4555483,-0.17075135,-10.128858
230313145,230312979,-0.44073805,0.034916747,-9.99819
230363189,230363001,-0.49153027,0.14061065,-9.902147
230413149,230412979,-0.5817853,-0.25213683,-9.797355
230463168,230462997,-0.58151245,-0.22943546,-9.877706
230513128,230512979,-0.10385297,-0.2100443,-10.341403
230563148,230562997,-0.49126157,-0.21187234,-10.45254
230613133,230612979,-0.4405267,0.0007599545,-10.207583
230663205,230663026,-0.123181656,-0.19196074,-10.237063
230713128,230712979,0.1225115,0.33700624,-10.226846
230763149,230762998,-1.0542592,0.30915594,-9.903147
230813129,230812980,-0.18408972,0.38037148,-9.486474
230863151,230862997,-0.36084992,0.5023406,-9.686159
230913132,230912979,-1.3432695,-0.10631562,-7.2664466
230963149,230962998,0.42692623,0.30345643,-9.516271
231013134,231012979,-0.22497141,0.19863047,-10.487267
231063147,231062997,-0.20354816,0.30644083,-9.974437
231113128,231112980,-0.47013727,0.16172665,-9.558605
231163150,231162997,-0.8076387,0.20665021,-9.741727
231213132,231212979,-0.32980627,-0.16806258,-10.140631
231263187,231262998,-0.4333746,0.23627923,-9.972986
231313127,231312979,-0.41341478,-0.042973537,-10.051154
231363159,231362998,-0.6517196,0.3759663,-9.498869
231413140,231412980,-0.099681735,0.18621127,-9.910915
231463151,231462998,0.10799722,-0.1971099,-9.8172
231513143,231512979,-0.44442588,-0.1420909,-9.524421
231563165,231562998,-0.24960756,0.28870988,-9.578608
231613144,231612979,-0.077707805,0.14801218,-9.809977
231663167,231662998,-0.23387314,-0.27016523,-9.607657
231713145,231712980,-0.6575055,0.16039309,-10.142499
231763164,231762999,-0.22199638,0.4823282,-10.036033
231813143,231812979,0.14587203,0.024958503,-9.714792
231863187,231862998,-0.2687974,0.20450132,-9.950991
231913165,231912982,-0.2809371,0.06284522,-10.052217
231963168,231962997,-0.18762554,0.398248,-9.584656
232013144,232012980,-0.07201498,0.14048122,-9.703906
232063187,232062997,-0.29533353,-0.25595996,-9.79145
232113151,232112979,-0.6946251,0.065511726,-9.558524
232163163,232162998,-0.43207794,0.3502802,-9.96833
232213144,232212979,0.2391455,0.17118075,-9.675592
232263174,232262998,-0.100107044,0.3079332,-9.793082
232313149,232312979,-0.32515234,0.24814573,-9.715341
232363194,232362997,-0.47163188,-0.43985954,-9.715431
232413145,232412979,-0.3664791,-0.13359746,-9.868184
232463185,232462999,-0.27616578,0.29333717,-9.653519
232513127,232512979,-0.5006804,0.22323576,-9.311823
232563147,232562997,-0.70225984,0.17735744,-9.348341
232613128,232612980,-0.549286,0.03367283,-10.324075
232663148,232662997,-0.13457054,0.09081855,-10.022457
232713127,232712979,-0.25280574,-0.1153949,-10.071026
232763156,232762998,-0.5208293,0.052733835,-10.091207
232813128,232812979,-0.65151584,0.2179412,-9.929863
232863150,232862997,-0.5177498,-0.09832528,-9.779863
232913129,232912980,-0.9486842,0.028651837,-8.471564
232963156,232962998,0.20170946,-0.33064845,-9.931863
233013127,233012979,0.031420514,-0.21903533,-10.089177
233063154,233062998,-0.37219423,-0.14197233,-9.963972
233113127,233112979,-0.45830286,-0.29730323,-9.94123
233163146,233162997,-0.513064,-0.5682252,-9.829144
233213129,233212980,-0.47178447,-0.22508805,-10.018814
233263148,233262997,-0.30391344,-0.19797543,-10.037265
233313127,233312979,-0.2653987,-0.09997819,-10.076591
233363150,233362997,-0.15739551,-0.01611879,-10.02369
233413129,233412980,-0.076288946,0.12806572,-9.548364
233463159,233462998,-0.42232078,-0.080122225,-9.994595
233513079,233512979,-1.7511141,0.0003382475,-7.418485
233563163,233562997,0.6616756,-0.43084425,-9.449956
233613144,233612980,0.16798732,0.02100258,-10.095172
233663162,233662997,-0.101295896,-0.7215744,-10.505151
233713144,233712980,-0.19537911,-0.1952964,-10.105199
233763166,233762997,-0.17723031,-0.65008366,-9.817751
233813144,233812979,-0.43608892,-0.2071721,-9.973834
233863190,233862998,-0.49077526,-0.45375022,-9.673933
233913149,233912980,-0.34181437,-0.17185245,-9.916438
233963220,233963027,-0.39526847,0.15010512,-9.929914
234113144,234112980,-0.14662263,-0.13478038,-9.923369
234163186,234162997,-0.29700693,-0.008003935,-9.997824
234213147,234212981,-0.19752815,0.2178928,-9.784641
234263165,234262997,-0.41314194,0.25743365,-9.6293125
234313149,234312979,-0.6135091,0.092750944,-9.521924
234363166,234362997,-0.30940017,0.28021482,-9.585014
234413149,234412979,-0.3305366,0.046991885,-9.3686905
234763155,234762998,-0.12476964,-0.18853493,-9.894143
234813132,234812979,-1.6734353,0.10600984,-7.391313
234863155,234862997,0.5708271,0.1728926,-9.280478
234913129,234912979,0.50503564,0.27034056,-10.7786
234963150,234962999,-0.090641275,-0.023609482,-10.0004635
235013127,235012979,-0.46479288,0.17106982,-10.358601
235063152,235062997,-0.61175394,-0.14785784,-9.756614
235113133,235112980,-2.1996484,0.34958327,-7.4027143
235163147,235162998,0.51622057,0.19340764,-9.779521
235213128,235212980,0.1966166,0.41210565,-10.393763
235263152,235262997,-0.22118533,0.54144436,-10.262149
235313132,235312979,-1.4449703,-0.036853712,-8.446425
235363146,235362997,0.2839367,0.098524846,-10.0039
235413130,235412979,-0.03331023,-0.20277163,-10.357552
235463157,235462999,-0.08808287,-0.11338799,-10.409979
235513131,235512979,0.3344817,-0.08522533,-10.150785
235563166,235562997,-0.23318787,0.099530734,-10.222131
235613144,235612979,-0.37530696,0.048969895,-10.242884
235663163,235662997,-0.4328609,-0.07622803,-9.764016
235713143,235712979,-0.30254456,0.1166354,-10.038197
235763189,235762998,-0.22831996,0.029813295,-9.949558
235813145,235812979,-1.3191748,0.032499712,-7.2716928
235863166,235862997,0.5403097,-0.0882449,-9.5817375
235913144,235912979,0.42863917,0.07734645,-10.102254
235963162,235962997,-0.27352187,0.31050405,-10.383838
236063189,236062998,-0.083168484,0.24011171,-9.8054285
236113144,236112979,-0.37484944,0.43677187,-10.129577
236163174,236162997,-0.44813466,0.28286195,-9.818097
236213145,236212980,-0.32884455,0.20919101,-10.104159
236263165,236262998,-0.24505188,0.47641048,-10.050766
236313148,236312979,-1.7657075,-0.260712,-7.364155
236363162,236362997,0.73771703,0.44971702,-9.588066
236413150,236412979,0.4033182,-0.110076636,-10.088232
236463185,236462998,-0.34660545,0.0279792,-10.254672
236513143,236512979,-0.4324261,0.22265308,-10.461758
236563146,236562997,-0.40664068,0.23497684,-10.154726
236613129,236612980,-0.2814694,0.013331599,-10.182579
236663146,236662997,-0.17841813,0.21579558,-9.89931
236713129,236712980,-0.20712808,0.25603026,-9.998851
236763151,236762997,-0.3037627,0.13693757,-10.23541
236813135,236812984,-1.606232,0.4014386,-7.623069
236863153,236862997,-0.015680762,0.18073697,-9.485936
236913128,236912979,0.27727205,-0.2834071,-10.046891
236963146,236962997,0.11021232,-0.020430556,-10.163732
237013133,237012979,-0.37126857,0.18720789,-9.827065
237063163,237062998,-0.5818404,0.22584523,-9.771313
237113129,237112979,-0.60478073,0.09560381,-9.880868
237163147,237162998,-0.24801104,-0.11411088,-10.055233
237213128,237212980,-0.241461,0.17564827,-10.036621
237263190,237263025,-0.3787048,0.41472703,-10.158707
237313128,237312979,-0.42326787,0.5451879,-9.484441
237363147,237362998,-0.55914736,0.16514033,-9.831469
237413128,237412980,0.118239395,0.1641363,-9.581686
237463153,237462997,-0.04288197,0.17591834,-9.619355
237513132,237512979,-0.45023206,0.14902265,-9.706091
237713148,237712979,-0.24756482,0.31187543,-10.11609
237763189,237762998,0.00660627,-0.07890902,-9.392795
237813144,237812980,-0.035386823,0.59283894,-9.3437
237863163,237862997,-0.11251891,-0.0071274857,-9.683099
237913157,237912984,-0.030019574,0.11001157,-10.073631
237963177,237963000,-0.23405588,0.24663565,-10.113093
238013144,238012979,-0.37891588,0.320945,-9.732244
238063165,238062999,-0.3160088,0.22603662,-10.119913
238113146,238112979,-0.14778775,-0.048698526,-9.856267
238163163,238162997,-0.054840527,0.04887827,-9.873644
238213149,238212979,0.20557287,0.4874889,-10.101383
238263178,238262999,-0.30815035,0.19594423,-9.953738
238313143,238312979,0.050296295,0.5544547,-9.083451
238363162,238362997,-0.111168556,0.062414158,-9.807837
238413149,238412980,-0.4958623,-0.56659573,-10.234381
238463183,238462997,0.031126888,-0.023658238,-10.110132
238513149,238512979,-0.35635468,0.1638769,-10.141801
238563174,238562998,-0.53804815,0.12634513,-10.039203
238613128,238612979,-0.26103067,-0.24475212,-9.620899
238663153,238662998,-0.4344359,-0.29029644,-9.313522
238713128,238712979,-0.3312456,0.4654482,-8.579518
238763148,238762998,-0.14880697,-0.7302534,-9.256358
238813129,238812980,-0.17925581,0.057240378,-9.091416
238863148,238862997,-0.031023253,-0.43989873,-9.66043
238913130,238912981,-0.24512807,-0.09585957,-9.908087
238963155,238962998,-0.16026287,-0.046554644,-10.423894
239013127,239012979,-0.044255804,0.34787762,-10.154089
239063188,239062998,-0.1271025,-0.04315397,-10.080718
239113127,239112979,0.02012344,0.024901565,-10.087547
239163152,239162997,-0.21727814,0.35742238,-9.936154
239213128,239212980,-0.420166,0.74677235,-8.858878
239263146,239262997,-0.5585929,0.82602143,-6.7390995
239313132,239312979,-0.1431361,-0.67397666,-6.392873
239363146,239362997,0.036645867,-0.32920787,-7.17766
239413137,239412979,-0.17102115,-0.7863408,-7.817774
239463147,239462997,0.043381825,-0.81457514,-8.162539
239513126,239512979,0.15628731,-0.25397813,-9.059385
239563151,239562998,-0.1767519,-0.29178756,-9.348622
239613149,239612979,-0.053728674,-0.388737,-9.587473
239663198,239663007,-0.17679074,0.13644917,-9.889286
239713145,239712979,-0.15961866,0.18017523,-10.336839
239763170,239762998,0.047254287,-0.27428865,-10.115311
239813145,239812980,0.016963357,0.039328493,-10.614982
239863163,239862997,0.18772553,-0.118813545,-10.5579405
239913145,239912979,-0.17362612,-0.5517045,-10.491556
239963205,239962998,0.06919028,-0.4240188,-10.33163
240013144,240012979,-0.083534114,-0.43847358,-10.523826
240063174,240063001,-0.20798112,-0.44269925,-10.333021
240113145,240112980,-0.20735544,-0.22502898,-10.292296
240163184,240162997,-0.11697545,-0.36073434,-10.164327
240213144,240212979,0.02415754,-0.48691666,-9.892641
240263190,240262999,-0.015009928,-0.21720563,-10.020753
240313144,240312979,-0.2234582,-0.42375073,-10.507302
240363184,240362997,0.14930293,-0.4210865,-10.373964
240413143,240412979,0.4165827,-0.5684917,-10.3202095
240463163,240462997,0.33885667,-0.44055593,-10.022894
240513143,240512979,-0.34830874,-0.4769019,-10.052106
240563209,240563027,-0.15739615,-0.16195357,-10.214562
240613127,240612979,-0.13254887,-0.2927775,-10.315202
240663150,240662998,-0.16633677,-0.14024773,-10.098137
240713133,240712980,-0.16922535,-0.04699607,-10.051907
240763148,240762998,-0.06983736,-0.30904654,-10.175664
240813127,240812979,-0.117345214,-0.36014912,-10.211132
240863147,240862997,0.090159744,-0.3036544,-9.982477
240913134,240912979,0.12942287,-0.1737097,-9.944972
240963164,240962997,-0.084394865,-0.14079939,-10.187474
241013128,241012979,-0.21557894,-0.0893451,-10.225483
241063152,241062998,-0.14266083,-0.20986082,-10.107798
241113132,241112979,-0.26778233,-0.14479282,-10.204361
241163150,241162997,-0.2899111,-0.21643478,-10.0655775
241213129,241212980,-0.05227345,-0.42060134,-9.933861
241263147,241262997,-0.028573805,-0.4308674,-10.02449
241313128,241312979,-0.27129427,0.057580918,-10.003253
241363146,241362997,-0.39612728,-0.021760982,-10.233892
241413136,241412979,-0.34663075,-0.023805887,-10.113085
241463152,241462997,-0.14226827,0.0695334,-9.980254
241513133,241512979,-0.056656294,0.3076212,-10.068474
241563151,241562999,-0.09244749,-0.0025944866,-10.10752
241613078,241612979,-0.1518513,-0.07915489,-10.380885
241663198,241662997,-0.41550612,-0.08594888,-10.258072
241713150,241712980,-0.19719528,-0.04208172,-10.138253
241763184,241762997,-0.3214147,-0.29154995,-9.891238
241813144,241812979,-0.4224086,-0.06247809,-10.1552725
241863168,241862998,-0.24889347,-0.11365199,-9.886754
241913143,241912979,-0.15787306,0.14353871,-9.940424
241963183,241962999,-0.38921818,0.03754356,-9.814365
242013144,242012979,-0.42065257,-0.07281961,-9.833698
242063185,242062999,-0.28904477,0.015147092,-9.693354
242113145,242112980,-0.266581,-0.0046056327,-9.634727
242163166,242162997,-0.39729705,0.16884798,-9.558402
242213144,242212978,-0.21537766,0.08488744,-9.803245
242263165,242262998,-0.4146301,0.120552935,-9.922746
242313179,242312979,-0.2807568,0.047130354,-9.58725
242513144,242512979,-0.44278952,0.0560949,-9.925065
242563166,242562999,-0.22463222,0.008750207,-9.986736
242613144,242612979,-0.044409323,-0.12416733,-10.085655
242663146,242662997,-0.02496752,-0.16942112,-10.024944
242713128,242712980,-0.14259815,0.45568192,-9.907827
242763152,242762997,-0.09662582,0.051875435,-9.679626
242813128,242812979,-0.21708606,0.30469826,-9.772333
242863151,242862997,-0.16229583,0.11274439,-10.178645
242913128,242912979,0.0031911905,-0.24798118,-10.031062
242963188,242962998,-0.21294123,0.09862859,-9.963828
243013127,243012979,0.29424095,-0.10734465,-9.90277
243063164,243063000,-0.3416497,0.30703053,-9.699504
243113136,243112980,0.06832369,-1.0069952,-9.672599
243163146,243162997,-0.025664927,-1.5325707,-10.418334
243213127,243212979,0.49117416,0.49023077,-10.50259
243263149,243262998,-0.52810127,0.44273654,-10.483088
243313128,243312979,-0.7376823,0.34561506,-10.554318
243363153,243362998,-0.5762324,0.9130756,-10.312496
243413127,243412979,-0.30594283,0.231778,-9.770198
243463150,243462997,-0.19355837,0.26271427,-9.543549
243513130,243512980,-0.49680188,0.50772136,-9.941451
243563146,243562997,-0.21591012,0.49275205,-9.865401
243613137,243612980,-0.08859033,0.4254791,-9.803724
243663173,243662998,-0.4280853,0.7611497,-9.88571
243713144,243712979,-0.44034424,0.20833504,-9.713207
243763186,243762997,-0.1329419,0.37198457,-9.811835
243813146,243812980,-0.70489496,0.2880074,-9.898977
243863210,243863025,-0.821495,-0.14615175,-9.82299
243913149,243912979,-0.5015617,0.38171792,-10.233151
243963174,243962998,-0.39933854,0.8524392,-10.152429
244013143,244012979,-0.5513564,0.6026056,-10.180164
244063183,244062998,-0.51309496,0.3282236,-9.518353
244113145,244112980,-0.56815416,0.32144707,-10.008439
244163162,244162997,-0.4718014,0.4572885,-9.803682
244213144,244212979,-0.6959697,0.53429437,-9.913718
244263186,244262999,-0.39983487,0.24161462,-9.437079
244313143,244312979,-0.26126215,0.50472665,-9.542998
244363162,244362997,-0.45856443,0.32163602,-9.858018
244413146,244412980,-0.28711948,0.54364085,-9.496606
244463187,244462997,-0.4622236,0.32726568,-9.401803
244513143,244512979,-1.1646899,0.9204678,-9.602879
244563170,244562999,0.28612107,0.77653086,-9.3021755
244613145,244612979,-0.32109135,0.24937448,-9.979602
244663152,244662997,-0.45903575,0.6645838,-9.792983
244713129,244712980,-0.7031735,0.44762468,-9.732103
244763145,244762997,-0.80802584,0.5694096,-9.595448
244813128,244812979,-0.37046015,0.40283322,-9.897407
244863149,244862999,-0.34480706,0.20647009,-10.046436
244913127,244912979,-0.23883064,0.78145516,-9.649177
244963152,244962997,-0.7573198,0.202211,-10.048131
245013133,245012980,-0.07793686,-0.032623544,-9.511984
245063149,245062998,-0.61216486,-0.17313258,-9.984601
245113128,245112979,-0.5710627,0.1260239,-9.569609
245163164,245162998,-0.16199355,0.27073756,-10.135647
245213139,245212979,0.06867482,0.20761359,-9.749334
245263154,245262997,-0.47945136,0.23703973,-9.998315
245313133,245312979,-0.5356524,0.32182786,-9.618056
245363150,245362997,-0.72806877,0.33986688,-9.803229
245413132,245412979,-0.23198871,0.30660427,-10.17377
245563164,245562998,-0.28986222,0.13553101,-9.794019
245613128,245612980,-0.0823439,0.19762021,-9.799098
245663110,245662997,-0.17300934,0.45092437,-9.770409
245713144,245712979,-0.15252367,0.23218155,-9.784117
245763175,245762998,-0.27999082,-0.04941901,-9.82499
245813144,245812979,-0.14863275,0.021830166,-9.926571
245863162,245862997,-0.14918667,0.28381196,-9.767763
245913146,245912980,-0.19184256,0.31086317,-9.759129
245963162,245962997,-0.31662136,0.05931009,-9.395345
246013145,246012980,-0.2430995,0.1021524,-9.936314
246063168,246062997,-0.12009818,0.33814296,-9.787932
246113144,246112979,-0.46636933,0.0826278,-10.168786
246163164,246162998,-0.38821882,0.10558256,-9.95391
246213145,246212979,-0.22057305,0.043271154,-9.647764
246263164,246262998,-0.31968668,0.26192096,-9.885393
246313144,246312980,0.10782576,0.21347307,-9.936536
246363168,246362997,-0.11313498,0.07146273,-9.821996
246413144,246412979,-0.25524935,-0.023070546,-9.5865965
246463189,246462998,-0.3277598,0.016952366,-9.71113
246513164,246512979,-0.70049125,1.4389942,-9.271089
246563163,246562997,-0.6083313,0.8904742,-9.908743
246613145,246612980,-0.1374406,-0.39652124,-10.367411
246663167,246662997,0.26200843,-0.57591546,-10.902083
246713128,246712979,0.34416872,-0.6125407,-10.617136
246763153,246762998,0.29528692,-0.8218809,-10.64838
246813127,246812979,0.027494907,-0.25737163,-10.471893
246863163,246862997,0.10108926,0.25912756,-10.112254
246913129,246912980,0.061726436,0.368684,-9.847964
246963153,246962999,0.0483578,-0.34971926,-9.882564
247013127,247012979,0.03634173,0.011332246,-9.963727
247063152,247062999,-0.073982745,-0.14445539,-9.996417
247113127,247112979,0.04089828,-0.31901783,-10.205047
247363149,247362999,0.089038454,-0.4261277,-10.323948
247413127,247412979,0.12213721,-0.305488,-10.4090185
247463151,247462997,0.0061412803,-0.13959132,-10.450628
247613127,247612979,0.15280221,-0.37646338,-10.268771
247663146,247662997,0.12970953,-0.31993708,-10.289448
247713144,247712979,-0.022525597,-0.27829796,-10.181418
247763165,247762999,-0.02587019,-0.42203665,-10.162625
247813144,247812979,0.04524219,-0.1814098,-10.309096
247863179,247862997,0.066862315,-0.07585402,-10.212047
247913153,247912980,-0.04494005,0.022254227,-10.231351
247963162,247962997,0.059900716,-0.10032303,-9.997918
248013144,248012979,0.40683058,-0.2735919,-9.877475
248063166,248062998,0.05382372,-0.3495005,-10.317137
248113144,248112979,-0.06994328,-0.25948647,-10.183137
248163181,248162997,0.010900547,0.002568118,-10.2790985
248213150,248212980,0.1889204,-0.26152542,-10.220757
248263185,248262997,-0.060098868,-0.10712233,-10.247056
248313149,248312979,0.03089408,-0.2140753,-10.077928
248363186,248362999,0.19986352,-0.1447848,-10.169854
248413144,248412979,0.06262338,0.019257491,-10.0673895
248463166,248462997,-0.16735807,-0.1838456,-9.96277
248513145,248512980,-0.17856178,-0.18349846,-9.897766
248563193,248562998,-0.11483248,-0.31664583,-9.93778
248613144,248612979,-0.11921755,-0.31875262,-9.827978
248663164,248662997,0.06637487,0.23943086,-9.918617
248713128,248712979,-0.25514168,0.27148357,-9.951756
248763151,248762998,0.005800288,0.16116776,-10.0184145
248813128,248812979,-0.0105381925,0.20786549,-10.213191
248863145,248862997,0.022539029,0.25991687,-10.235836
248913128,248912980,-0.025680747,0.19281697,-10.105801
248963148,248962997,0.05929346,-0.33206534,-9.950175
249013128,249012979,-0.028894251,-0.12764421,-9.962055
249113127,249112979,-0.3292755,0.2689256,-9.759386
249163151,249162997,-0.16034214,0.33752358,-9.622843
249213132,249212979,-0.07153944,0.33788964,-9.885996
249263161,249262998,-0.039642386,0.009493921,-9.986459
249313133,249312979,0.10571963,0.04300351,-9.624354
249363152,249362999,-0.122557305,-0.16540688,-9.98457
249413127,249412979,-0.39245892,-0.018617835,-9.875612
249463164,249462997,-0.3314285,0.2329355,-9.852388
249513128,249512980,-0.09307879,0.4748602,-9.829103
249563149,249562998,-0.035739955,0.2877566,-9.988344
249613127,249612979,-0.00043169525,0.17079407,-10.005744
249663152,249663000,0.062101122,0.09607716,-9.771475
249713079,249712980,-0.03822048,0.17387812,-9.783503
249763165,249762999,-0.25755116,-0.03388187,-9.813114
249813144,249812979,-0.15149207,0.17253463,-9.855852
249863164,249862997,-0.38307723,0.20696901,-9.738345
249913145,249912980,-0.37470013,0.27130562,-9.86014
249963175,249962997,-0.14818895,0.30264083,-9.720889
250013143,250012979,-0.038755942,-0.016179297,-9.403295
250063183,250062998,-0.6365756,-0.37521783,-9.54581
250113145,250112979,-0.35984933,0.1705149,-9.849919
250163164,250162998,-0.19434595,0.17691009,-9.519336
250213152,250212979,-0.2641008,0.41676113,-9.37067
250263174,250262997,-0.28236148,0.07399953,-9.236119
250313143,250312979,-0.6191394,0.049801268,-9.073248
250363184,250362999,-0.447029,0.12507819,-9.719359
250413142,250412979,-0.14259687,0.018983211,-9.42666
250463219,250463027,-0.4258223,0.33343065,-9.272853
250513146,250512980,-0.52859503,-0.026685374,-9.080928
250563175,250562997,-0.42672145,0.4320586,-9.503347
250613144,250612979,-0.35031605,0.18147716,-9.501306
250663166,250662997,-0.5883561,0.23663686,-9.347863
250713158,250712979,-0.04935338,-0.27483544,-9.478826
250763165,250762998,-0.08410595,0.36310562,-9.133772
250813127,250812979,-0.20901266,-0.06861957,-9.449458
250863147,250862998,-0.6564145,0.10503749,-9.159742
250913134,250912980,0.03126645,0.40130234,-9.538906
250963148,250962997,-0.25560802,0.23269531,-9.437218
251013132,251012979,-0.36924765,-0.08077237,-9.223519
251063151,251062999,-0.4452973,0.030909527,-9.619851
251113127,251112979,-0.16560557,0.28271645,-9.3215885
251163146,251162997,-0.20205456,0.24452242,-9.527742
251213129,251212980,-0.3630815,0.0697473,-9.426843
251263159,251262997,-0.4656092,-0.12365523,-9.45215
251313139,251312981,-0.47078434,-0.11208373,-10.0274105
251363163,251362998,-0.21361639,0.18070775,-9.835354
251413129,251412979,-0.24476413,0.033636138,-10.256784
251463147,251462997,-0.3596871,0.19430998,-9.216385
251513129,251512980,-0.38702214,-0.02739697,-9.239152
251563148,251562997,-0.42891955,-0.042497635,-9.622418
251613133,251612979,-0.3353119,0.4542873,-9.744515
251663147,251662997,-0.4003336,-0.021888457,-10.013607
251713129,251712980,-0.37831196,0.060001485,-9.485312
251763169,251762997,-0.13729776,-0.34509653,-9.515911
251813144,251812979,-0.38618588,0.009189746,-10.007105
251863187,251862998,-0.25865227,0.30249763,-9.541972
251913143,251912979,-0.17551832,-0.21870404,-9.715321
251963194,251962997,-0.4371869,-0.14277077,-9.743298
252013163,252012982,-0.835656,-0.5989319,-9.985699
252063177,252062997,-0.28662384,-0.10488332,-10.322204
252113143,252112978,-0.15487252,0.15143666,-9.858229
252163162,252162997,-0.3098383,-0.3487981,-10.189484
252213148,252212979,-0.30918568,0.25811908,-9.634113
252263186,252262998,0.0064271414,-0.22117057,-9.769466
252313144,252312979,-0.48089817,-0.007833333,-9.524857
252363169,252362997,-0.3678609,-0.015443005,-9.902756
252413146,252412980,-0.31568336,-0.3767138,-9.813433
252463165,252462997,-0.5809352,0.24354397,-9.687608
252513144,252512979,-0.12802137,-0.41115758,-9.643752
252563165,252562998,-0.23838763,0.002605345,-9.415122
252613143,252612979,-1.188863,-0.3520615,-10.45911
252663175,252662997,-0.13319293,-0.13360398,-9.831509
252713149,252712982,-0.4389711,-0.43600708,-9.783703
252763147,252762998,-0.26120988,-0.1643144,-9.785809
252813127,252812979,-0.2774559,-0.025010142,-9.85337
252863148,252862998,-0.5422761,-0.31250462,-9.925823
252913127,252912979,-0.5293126,-0.2840781,-9.950128
252963150,252962999,-0.10983997,-0.15067548,-10.124943
253013128,253012979,-0.53518707,0.40988508,-9.1421
253063152,253062997,-0.20241883,0.84225094,-7.575882
253113128,253112979,-0.24126549,0.32802027,-7.3768964
253163145,253162997,-0.46317378,-0.391038,-7.5779543
253213128,253212979,-0.62736833,-0.28183916,-7.721451
253263151,253262999,-0.66027576,-0.1702593,-8.1541815
253313127,253312979,-0.65136456,-0.49175867,-8.4458475
253363188,253362998,0.12452635,0.13086356,-9.181366
253413127,253412979,-0.13544604,-0.41872165,-9.323359
253463150,253462997,-0.3368148,0.14479044,-9.620814
253513129,253512980,-0.05639045,-0.20796955,-9.706326
253563147,253562997,0.095367424,0.05842197,-9.703754
253613128,253612979,-0.10093922,-0.2975043,-9.559356
253663146,253662997,-0.22428924,-0.039899915,-9.580803
253713131,253712980,-0.35037345,-0.14407678,-9.586507
253763127,253763027,-0.45154417,0.031968918,-9.824003
253813143,253812979,-0.26648918,-0.09164251,-9.720856
253863166,253862997,-0.2213709,-0.33276463,-9.904639
253913144,253912980,-0.33918348,-0.22703408,-9.855018
253963190,253962997,-0.031465165,-0.18468098,-9.783587
254013146,254012979,-0.5009188,0.089097485,-9.894557
254063184,254062998,-0.22430022,0.46023273,-9.791436
254113144,254112979,-0.37857088,0.23537286,-9.7245865
254163170,254162997,-0.27974406,-0.039472267,-10.225399
254213153,254212980,-0.53137976,0.32384026,-9.997624
254263162,254262997,0.015109673,0.041254073,-9.947158
254313144,254312979,-0.5456718,0.1707943,-9.615449
254363186,254362999,-0.43096906,0.020922624,-9.947481
254413144,254412979,-0.5531628,0.47727948,-9.98162
254463168,254462997,-0.4144493,0.30639052,-9.994096
254513146,254512980,-0.6843608,0.23462398,-9.866195
254563162,254562997,-0.5410368,0.0919584,-9.958164
254613143,254612979,-0.64839923,0.07472144,-9.892301
254663200,254662999,-0.46859503,-0.04733506,-10.045051
254713157,254712984,-0.47264746,0.5117664,-9.731374
254763170,254762997,0.0792587,0.12167929,-9.678436
254813128,254812980,-0.9512102,-0.30680624,-10.143021
254863146,254862997,-1.3333355,0.15189576,-10.111355
254913128,254912979,-0.06488632,-0.110859275,-10.363195
254963150,254962999,-0.7222692,-0.04463518,-10.650192
255013127,255012979,-0.15203568,-0.16708516,-10.2911625
255063150,255062998,-0.4784449,-0.2445298,-10.318729
255113133,255112980,-0.37377635,-0.12825158,-10.693745
255163166,255162997,-0.52796817,-0.38643116,-10.294671
255213129,255212980,-0.55051506,-0.34591758,-10.589092
255263159,255262998,-0.6407205,0.44312975,-10.366663
255313128,255312979,-1.0590554,-0.26012653,-10.639444
255363162,255362998,-0.41126335,0.056642417,-10.402497
255413138,255412979,-0.19207224,0.08634459,-10.4145975
255463150,255462997,-0.64731354,0.39112058,-10.061562
255513132,255512979,-1.3977432,-0.6010389,-10.536784
255563149,255562998,-0.24256633,0.1857304,-10.530153
255613128,255612979,-0.51770794,0.15478106,-10.166726
255663152,255662999,-0.11503902,0.14908868,-10.235792
255713127,255712979,-0.7285825,0.029509962,-10.265147
255763146,255762997,-0.44968033,-0.16291843,-10.264879
255813145,255812980,-0.5796846,0.3863738,-10.10759
255863183,255862997,-0.6926425,-0.050224133,-10.316795
255913144,255912979,-0.5546439,0.103748254,-10.1375
255963183,255962998,-0.6327482,0.036317863,-10.422194
256013144,256012979,-0.24186887,0.4917588,-10.302036
256063190,256062997,-0.75344914,-0.40610304,-10.367091
256113144,256112980,-0.5691879,0.6207543,-10.377392
256163166,256162997,-0.3009184,0.41860384,-9.93875
256213156,256212979,-0.5297304,0.009389834,-10.076702
256263172,256262999,-0.4254549,-0.04957274,-10.31752
256313144,256312979,-0.5811451,0.45782647,-10.178414
256363186,256362998,-0.5018156,-0.02159711,-10.453025
256413144,256412980,-0.40036818,-0.29456833,-9.826045
256463183,256462997,-0.40112743,0.49619865,-10.109377
256513143,256512979,-0.5579541,0.32898584,-10.327316
256563168,256562998,-0.29809064,0.016048612,-9.95447
256613145,256612979,-0.37937385,0.07014378,-9.9315195
256713144,256712980,-0.5370901,0.47354636,-9.855195
256763190,256762997,-0.3330531,0.46486354,-10.1607
256813144,256812979,0.067436226,-0.2752899,-9.622188
257213127,257212979,-0.037852913,0.32281107,-9.868429
257263184,257262998,-0.4538076,0.44358474,-9.631814
257313127,257312979,-0.75477964,0.07437977,-9.776229
257363146,257362997,-0.6323329,0.48968,-9.545955
257413128,257412980,-1.0805407,0.5064581,-10.474925
257463158,257462998,-0.36439133,0.58745694,-9.782116
257513127,257512979,-0.87814057,0.3354415,-10.060315
257563148,257562998,-0.8777205,-0.051017683,-10.107863
257663154,257662997,-0.626246,0.20481525,-9.612318
257713129,257712980,-0.37096,0.39113364,-9.717658
257763145,257762997,-0.35119182,0.06585403,-10.144039
257813128,257812979,-0.475242,0.61812836,-10.757591
257863164,257862999,-0.78974587,0.79737645,-12.209357
257913149,257912979,-0.040605675,-0.103502855,-12.329231
257963162,257962997,-0.65192616,0.017147666,-12.435733
258013146,258012980,-0.44640845,0.12949556,-11.75392
258063175,258062997,-0.21038626,-0.8090626,-11.296421
258113143,258112979,-0.60543287,-0.1776589,-10.422457
258163166,258162998,-0.30617303,0.03376541,-10.377869
258213143,258212979,-0.37076494,-0.1390224,-9.691084
258263163,258262997,-0.452217,0.7461783,-9.248841
258313153,258312982,-0.51719165,0.0011904743,-9.597481
258363165,258362997,-0.59794956,0.16341187,-9.270318
258413145,258412979,-0.5549116,0.33277825,-9.135646
258463163,258462990,-0.25962234,-0.054936685,-9.274276
258513142,258512979,-0.61526704,-0.16903958,-9.112974
258563190,258562998,-0.37322164,-0.021342883,-9.284812
258613145,258612980,-0.44603854,0.06927462,-9.103209
258663171,258662997,-0.45286572,0.32231608,-9.154586
258713148,258712978,-0.50858176,0.06194152,-9.0596485
258763192,258762998,-0.5767661,-0.217873,-9.357501
258813151,258812979,-0.5190074,0.3452663,-9.42628
258863149,258862998,-0.2460629,-0.47383347,-9.48743
258913133,258912979,-0.93829674,-0.40127426,-10.053891
258963153,258962997,-0.4576292,0.08613713,-9.529661
259013143,259012979,-0.17727841,-0.30407143,-9.431195
259063155,259062998,-0.4822827,-0.055653885,-9.353795
259113128,259112979,-0.4887152,-0.13823603,-9.609112
259163145,259162997,-0.24918422,-0.13256702,-9.641097
259213129,259212979,-0.76092577,-0.008965794,-9.405861
259263151,259262997,-0.38046142,0.3657941,-9.493684
259313127,259312979,-0.2577951,0.04688596,-9.253901
