timestamp,roll,pitch,yaw,thrust_body[0],thrust_body[1],thrust_body[2],reset_integral
200067073,0.2187104,0.05777393,0.00041664107,0.0,0.0,-0.001,0
200072095,0.21875092,0.057777446,0.0004296726,0.0,0.0,-0.001,0
200077058,0.21874323,0.057769127,0.0004291796,0.0,0.0,-0.001,0
200082061,0.21876316,0.057753813,0.00042996774,0.0,0.0,-0.001,0
200087034,0.21879612,0.057752997,0.00041883148,0.0,0.0,-0.001,0
200217060,0.2188812,0.05785622,0.00044299464,0.0,0.0,-0.001,0
200222059,0.21883333,0.05763087,0.00055951375,0.0,0.0,-0.001,0
200227036,0.21892557,0.057663307,0.00054421637,0.0,0.0,-0.001,0
200232071,0.21886277,0.057576057,0.000686805,0.0,0.0,-0.001,0
200237085,0.21892792,0.057520144,0.00046780097,0.0,0.0,-0.001,0
200242064,0.21886404,0.057300616,0.00049318117,0.0,0.0,-0.001,0
200247070,0.21889001,0.05728659,0.00041847635,0.0,0.0,-0.001,0
200252080,0.21885961,0.05717271,0.0003534107,0.0,0.0,-0.001,0
200257082,0.21883738,0.057195924,0.0003256228,0.0,0.0,-0.001,0
200262033,0.21885307,0.057131752,0.00021115881,0.0,0.0,-0.001,0
200267034,0.21881795,0.057259712,0.0003097129,0.0,0.0,-0.001,0
200272080,0.21893753,0.057274073,0.00024401478,0.0,0.0,-0.001,0
200277060,0.21893367,0.057378273,0.0003631431,0.0,0.0,-0.001,0
200282029,0.219038,0.05739014,0.0003605696,0.0,0.0,-0.001,0
200287065,0.21897538,0.057535145,0.00045501534,0.0,0.0,-0.001,0
200292076,0.21902737,0.0575014,0.00055739126,0.0,0.0,-0.001,0
200297061,0.21896245,0.057523172,0.00050992146,0.0,0.0,-0.001,0
200302029,0.2190209,0.057587344,0.0006197809,0.0,0.0,-0.001,0
200307074,0.21894845,0.05749651,0.0005278895,0.0,0.0,-0.001,0
200312131,0.21895179,0.057492055,0.00059197005,0.0,0.0,-0.001,0
200317068,0.21884954,0.057443548,0.00045114133,0.0,0.0,-0.001,0
200322064,0.21885374,0.057325423,0.000414584,0.0,0.0,-0.001,0
200327036,0.21887937,0.057272527,0.00035274078,0.0,0.0,-0.001,0
200332076,0.21885268,0.057084702,0.0002456349,0.0,0.0,-0.001,0
200337064,0.21891457,0.057048302,0.00029041848,0.0,0.0,-0.001,0
200342081,0.21893801,0.056897737,0.00018713348,0.0,0.0,-0.001,0
200347071,0.21899495,0.056925125,0.00032535355,0.0,0.0,-0.001,0
200352083,0.21902995,0.056960393,0.0002885585,0.0,0.0,-0.001,0
200357070,0.21907364,0.05703648,0.00041848625,0.0,0.0,-0.001,0
200372087,0.21889639,0.057139795,0.00057920837,0.0,0.0,-0.001,0
200377062,0.21889709,0.057208814,0.0005320083,0.0,0.0,-0.001,0
200382031,0.21888492,0.057296336,0.0006390411,0.0,0.0,-0.001,0
200387080,0.21889892,0.057355408,0.00046689934,0.0,0.0,-0.001,0
200392072,0.21896043,0.057451464,0.00049187226,0.0,0.0,-0.001,0
200397038,0.21899165,0.05735505,0.00039319045,0.0,0.0,-0.001,0
200402054,0.21883564,0.057326853,0.00031413021,0.0,0.0,-0.001,0
200407076,0.21875352,0.057253215,0.00031636126,0.0,0.0,-0.001,0
200412071,0.21867223,0.057104655,0.00018476305,0.0,0.0,-0.001,0
200417061,0.21874069,0.05688225,0.00029194474,0.0,0.0,-0.001,0
200422035,0.21876977,0.056781586,0.00021658008,0.0,0.0,-0.001,0
200427038,0.21896876,0.0567382,0.00034560115,0.0,0.0,-0.001,0
200432072,0.21908787,0.056726135,0.00035602276,0.0,0.0,-0.001,0
200437038,0.21902138,0.0567897,0.00050840783,0.0,0.0,-0.001,0
200442139,0.21888869,0.056867935,0.0006082432,0.0,0.0,-0.001,0
200447066,0.21877892,0.056957886,0.0005274792,0.0,0.0,-0.001,0
200452093,0.21869752,0.057022884,0.0006517611,0.0,0.0,-0.001,0
200457067,0.21881074,0.057071004,0.00051609933,0.0,0.0,-0.001,0
200462032,0.21895847,0.057070278,0.0006054327,0.0,0.0,-0.001,0
200467065,0.2189526,0.057021957,0.00041447976,0.0,0.0,-0.001,0
200472092,0.21897058,0.056954507,0.00033701843,0.0,0.0,-0.001,0
200477061,0.21892782,0.05695648,0.0002710189,0.0,0.0,-0.001,0
200482030,0.21884528,0.05685112,0.00013572173,0.0,0.0,-0.001,0
200487036,0.2189807,0.056931462,0.00024217452,0.0,0.0,-0.001,0
200492077,0.21905664,0.056931436,7.8255165e-05,0.0,0.0,-0.001,0
200497091,0.21895401,0.05701266,0.0003738577,0.0,0.0,-0.001,0
200502064,0.2190139,0.057062276,0.0003395569,0.0,0.0,-0.001,0
200507072,0.21903679,0.057099674,0.0004917702,0.0,0.0,-0.001,0
200512069,0.21921432,0.057019033,0.00060543197,0.0,0.0,-0.001,0
200517074,0.21922372,0.05697628,0.00060046575,0.0,0.0,-0.001,0
200522031,0.21923423,0.056764178,0.000746087,0.0,0.0,-0.001,0
200527033,0.21909855,0.056723405,0.0005355072,0.0,0.0,-0.001,0
200532071,0.21899772,0.056699082,0.0005927004,0.0,0.0,-0.001,0
200537036,0.21917677,0.05654876,0.00033288402,0.0,0.0,-0.001,0
200542080,0.21919131,0.056672163,0.00029099488,0.0,0.0,-0.001,0
200547078,0.21914992,0.056705534,0.00029349647,0.0,0.0,-0.001,0
200552072,0.21915245,0.056836694,0.00019692269,0.0,0.0,-0.001,0
200557074,0.21912836,0.057022605,0.00027501278,0.0,0.0,-0.001,0
200562032,0.21928656,0.057078272,0.000171062,0.0,0.0,-0.001,0
200567060,0.21941738,0.05705604,0.0003748024,0.0,0.0,-0.001,0
200572134,0.21937072,0.05697069,0.0003788717,0.0,0.0,-0.001,0
200577060,0.21946548,0.05685721,0.00042311792,0.0,0.0,-0.001,0
200582067,0.21959442,0.05666342,0.00041398418,0.0,0.0,-0.001,0
200587041,0.21963456,0.05679154,0.00048591406,0.0,0.0,-0.001,0
200592078,0.21952547,0.056649964,0.0005383821,0.0,0.0,-0.001,0
200597065,0.21938133,0.056965422,0.00052626006,0.0,0.0,-0.001,0
200602031,0.21928462,0.057030674,0.0005918994,0.0,0.0,-0.001,0
200607070,0.21931574,0.057072707,0.0005053565,0.0,0.0,-0.001,0
200612069,0.21926892,0.056985404,0.0005478817,0.0,0.0,-0.001,0
200617032,0.21922323,0.056819923,0.0003766532,0.0,0.0,-0.001,0
200622029,0.21936327,0.0567035,0.000329572,0.0,0.0,-0.001,0
200627040,0.21940699,0.05661478,0.00028311484,0.0,0.0,-0.001,0
200632076,0.21958466,0.056391798,0.00012476872,0.0,0.0,-0.001,0
200637033,0.21959943,0.056384645,0.00028612383,0.0,0.0,-0.001,0
200642073,0.21957293,0.056476425,0.00017354311,0.0,0.0,-0.001,0
200647083,0.21937042,0.056653656,0.00039080656,0.0,0.0,-0.001,0
200652080,0.21943688,0.056802005,0.0004150561,0.0,0.0,-0.001,0
200657075,0.21966022,0.05694446,0.0005298847,0.0,0.0,-0.001,0
200662030,0.21968783,0.056926377,0.0006680392,0.0,0.0,-0.001,0
200667038,0.2197052,0.05677831,0.0005189873,0.0,0.0,-0.001,0
200672092,0.21969183,0.05682114,0.00057390175,0.0,0.0,-0.001,0
200677063,0.2197384,0.056634314,0.0003778296,0.0,0.0,-0.001,0
200682028,0.21963356,0.056533657,0.00036013898,0.0,0.0,-0.001,0
200687041,0.21952754,0.05661073,0.00037782028,0.0,0.0,-0.001,0
200692069,0.21936339,0.056720726,0.0003097019,0.0,0.0,-0.001,0
200697092,0.2194253,0.056762002,0.0003625605,0.0,0.0,-0.001,0
200702057,0.21959652,0.056896843,0.00036297773,0.0,0.0,-0.001,0
200707076,0.2196727,0.056837995,0.0003688601,0.0,0.0,-0.001,0
200712092,0.21981806,0.05677342,0.00031943136,0.0,0.0,-0.001,0
200717109,0.22002564,0.056606382,0.00030900355,0.0,0.0,-0.001,0
200722056,0.219984,0.056554668,0.00020074961,0.0,0.0,-0.001,0
200727034,0.2199762,0.05651511,0.00042130245,0.0,0.0,-0.001,0
200732078,0.21983083,0.056557447,0.00042480289,0.0,0.0,-0.001,0
200737061,0.2196151,0.056524795,0.00048976485,0.0,0.0,-0.001,0
200742063,0.21965367,0.056771267,0.00060474215,0.0,0.0,-0.001,0
200747062,0.21967296,0.05675623,0.0005300725,0.0,0.0,-0.001,0
200752099,0.21982503,0.05684156,0.0006118448,0.0,0.0,-0.001,0
200757068,0.21997166,0.056847073,0.000452362,0.0,0.0,-0.001,0
200762027,0.21985862,0.056899402,0.00036403767,0.0,0.0,-0.001,0
200767038,0.22002454,0.056880224,0.00027895538,0.0,0.0,-0.001,0
200772085,0.21994485,0.0569143,0.00013586383,0.0,0.0,-0.001,0
200777077,0.21979228,0.056824453,0.00030176737,0.0,0.0,-0.001,0
200782062,0.21980685,0.056865204,0.00020993133,0.0,0.0,-0.001,0
200787036,0.21996927,0.056846704,0.00038827318,0.0,0.0,-0.001,0
200792066,0.22003715,0.05681789,0.0004414984,0.0,0.0,-0.001,0
200797066,0.22014856,0.056728262,0.00045380223,0.0,0.0,-0.001,0
200802027,0.22015174,0.0568292,0.00043654302,0.0,0.0,-0.001,0
200807079,0.2202198,0.056850206,0.0004067127,0.0,0.0,-0.001,0
200812077,0.22017464,0.056857657,0.0004295704,0.0,0.0,-0.001,0
200817065,0.21987855,0.056720786,0.0004422308,0.0,0.0,-0.001,0
200822060,0.21978046,0.05682772,0.00048431882,0.0,0.0,-0.001,0
200827040,0.21979544,0.056786533,0.00045048984,0.0,0.0,-0.001,0
200832087,0.21989329,0.0568382,0.0005154604,0.0,0.0,-0.001,0
200837067,0.2199344,0.05680242,0.0004307775,0.0,0.0,-0.001,0
200842080,0.21999548,0.05686613,0.0003999204,0.0,0.0,-0.001,0
200847064,0.22025082,0.05691883,0.00032188263,0.0,0.0,-0.001,0
200852077,0.22012126,0.05703719,0.00016682781,0.0,0.0,-0.001,0
200857071,0.22012834,0.0569787,0.0003127202,0.0,0.0,-0.001,0
200862025,0.2200698,0.057034556,0.00024359519,0.0,0.0,-0.001,0
200867036,0.21992765,0.057041124,0.00039380472,0.0,0.0,-0.001,0
200872089,0.21981806,0.056994293,0.00044326013,0.0,0.0,-0.001,0
200877069,0.22009027,0.056926273,0.00049392576,0.0,0.0,-0.001,0
200882029,0.22007813,0.05692096,0.0005627271,0.0,0.0,-0.001,0
200887036,0.22010691,0.057032146,0.00045524014,0.0,0.0,-0.001,0
200892072,0.22009575,0.056996375,0.00047084098,0.0,0.0,-0.001,0
200897059,0.22007391,0.057039622,0.0004306556,0.0,0.0,-0.001,0
200902029,0.21997185,0.057098057,0.0003796324,0.0,0.0,-0.001,0
200907090,0.21982443,0.057103425,0.00042239547,0.0,0.0,-0.001,0
200912076,0.2197831,0.057158817,0.00038188568,0.0,0.0,-0.001,0
200917035,0.21984738,0.057138696,0.00036827204,0.0,0.0,-0.001,0
200922037,0.21990037,0.057023052,0.00033144865,0.0,0.0,-0.001,0
200927036,0.22012009,0.057023905,0.000327936,0.0,0.0,-0.001,0
200932080,0.22006984,0.05698788,0.00025707405,0.0,0.0,-0.001,0
200937063,0.22025377,0.057162486,0.00034129416,0.0,0.0,-0.001,0
200942064,0.22017196,0.057165578,0.00032352714,0.0,0.0,-0.001,0
200947066,0.22004822,0.057215378,0.00038992942,0.0,0.0,-0.001,0
200952082,0.21995923,0.057306312,0.0004526988,0.0,0.0,-0.001,0
200957036,0.21978995,0.057421308,0.00049087906,0.0,0.0,-0.001,0
200962073,0.21979028,0.057254065,0.000554102,0.0,0.0,-0.001,0
200967037,0.2198939,0.05727799,0.00053802266,0.0,0.0,-0.001,0
200972100,0.22003868,0.057247497,0.00052283885,0.0,0.0,-0.001,0
200977061,0.21990034,0.057346586,0.00039334403,0.0,0.0,-0.001,0
200982029,0.22008248,0.05729121,0.00035764574,0.0,0.0,-0.001,0
200987062,0.22006841,0.057164412,0.00039211815,0.0,0.0,-0.001,0
200992081,0.21995509,0.05735079,0.000310002,0.0,0.0,-0.001,0
200997068,0.21981835,0.05724374,0.00040757813,0.0,0.0,-0.001,0
201002064,0.21989201,0.05714286,0.0003969962,0.0,0.0,-0.001,0
201007031,0.21994555,0.05723609,0.00037357162,0.0,0.0,-0.001,0
201012034,0.22016905,0.05730794,0.00035456425,0.0,0.0,-0.001,0
201017086,0.2202333,0.05731687,0.00040284218,0.0,0.0,-0.001,0
201022043,0.22023113,0.057246484,0.00038414774,0.0,0.0,-0.001,0
201027020,0.2202346,0.057284147,0.00042593782,0.0,0.0,-0.001,0
201032063,0.22019014,0.057282127,0.00043378398,0.0,0.0,-0.001,0
201036971,0.21997681,0.057304695,0.00047348012,0.0,0.0,-0.001,0
201042036,0.21983935,0.057427995,0.00055335724,0.0,0.0,-0.001,0
201047030,0.21987197,0.05740719,0.00050527527,0.0,0.0,-0.001,0
201052035,0.21992216,0.05736372,0.00052231294,0.0,0.0,-0.001,0
201057028,0.22005509,0.057496376,0.00039521715,0.0,0.0,-0.001,0
201062024,0.22006182,0.0575265,0.00035137084,0.0,0.0,-0.001,0
201067044,0.22030734,0.05747036,0.0003253891,0.0,0.0,-0.001,0
201072026,0.22020328,0.05737403,0.00025356674,0.0,0.0,-0.001,0
201077013,0.22013225,0.057386722,0.00035489508,0.0,0.0,-0.001,0
201081998,0.21996683,0.057415403,0.00030325298,0.0,0.0,-0.001,0
201087006,0.2199674,0.05739417,0.00041659252,0.0,0.0,-0.001,0
201092017,0.22005938,0.057375535,0.00047033202,0.0,0.0,-0.001,0
201097028,0.22010028,0.057407014,0.00045631125,0.0,0.0,-0.001,0
201101997,0.22017422,0.05752396,0.0004517915,0.0,0.0,-0.001,0
201107021,0.2201806,0.057486057,0.00042252996,0.0,0.0,-0.001,0
201112016,0.22028065,0.057417985,0.00040187725,0.0,0.0,-0.001,0
201117029,0.2200256,0.057285234,0.00042955228,0.0,0.0,-0.001,0
201122001,0.22007336,0.057363164,0.00043661034,0.0,0.0,-0.001,0
201127030,0.21976607,0.057296254,0.00045709033,0.0,0.0,-0.001,0
201132016,0.21986295,0.057318963,0.0005025801,0.0,0.0,-0.001,0
201137002,0.22001436,0.057338223,0.00042137803,0.0,0.0,-0.001,0
201142018,0.22003083,0.057439577,0.00038905395,0.0,0.0,-0.001,0
201147031,0.22010846,0.057451364,0.00035926612,0.0,0.0,-0.001,0
201152008,0.22025189,0.057475112,0.00027587963,0.0,0.0,-0.001,0
201157004,0.22028627,0.05741543,0.00035369775,0.0,0.0,-0.001,0
201162001,0.22018786,0.057416808,0.00028616874,0.0,0.0,-0.001,0
201167044,0.21988097,0.05735501,0.0004665284,0.0,0.0,-0.001,0
201172058,0.21992405,0.057376698,0.00047154614,0.0,0.0,-0.001,0
201176999,0.21999657,0.057463277,0.00048599805,0.0,0.0,-0.001,0
201181997,0.21996418,0.0574515,0.0005411976,0.0,0.0,-0.001,0
201187029,0.22006539,0.05759521,0.00044810568,0.0,0.0,-0.001,0
201192013,0.22015391,0.057564516,0.00045546476,0.0,0.0,-0.001,0
201197004,0.22042178,0.057576,0.00038198926,0.0,0.0,-0.001,0
201202025,0.22031298,0.057466116,0.00035674794,0.0,0.0,-0.001,0
201207022,0.22010513,0.057347253,0.0003811066,0.0,0.0,-0.001,0
201212039,0.2199533,0.05740535,0.00035755738,0.0,0.0,-0.001,0
201217033,0.22001809,0.057424825,0.00041137627,0.0,0.0,-0.001,0
201222025,0.22004198,0.05732081,0.0004065552,0.0,0.0,-0.001,0
201227033,0.220107,0.05756008,0.00044666504,0.0,0.0,-0.001,0
201232047,0.22018929,0.05746999,0.00040888437,0.0,0.0,-0.001,0
201237005,0.22033074,0.057536036,0.0003453652,0.0,0.0,-0.001,0
201242007,0.22034,0.057456788,0.00029474558,0.0,0.0,-0.001,0
201247009,0.22026041,0.057326052,0.00042085774,0.0,0.0,-0.001,0
201252064,0.22004703,0.057288025,0.000415133,0.0,0.0,-0.001,0
201257008,0.21998386,0.057288002,0.00050549046,0.0,0.0,-0.001,0
201262007,0.22011618,0.057272635,0.000548995,0.0,0.0,-0.001,0
201267005,0.220082,0.057414994,0.00039424747,0.0,0.0,-0.001,0
201272023,0.2201653,0.057465136,0.00041843377,0.0,0.0,-0.001,0
201277014,0.22027932,0.057565782,0.00034377765,0.0,0.0,-0.001,0
201281995,0.22042933,0.057457067,0.0003021737,0.0,0.0,-0.001,0
201287025,0.22047357,0.05737432,0.0003559611,0.0,0.0,-0.001,0
201292010,0.22036909,0.057347666,0.0002835105,0.0,0.0,-0.001,0
201297004,0.22026813,0.057357248,0.00039486127,0.0,0.0,-0.001,0
201301998,0.22033225,0.057436585,0.00040206913,0.0,0.0,-0.001,0
201307035,0.22037646,0.057421744,0.00044928066,0.0,0.0,-0.001,0
201312022,0.22027014,0.0575724,0.00043022976,0.0,0.0,-0.001,0
201317005,0.22039649,0.057576235,0.00043883896,0.0,0.0,-0.001,0
201322002,0.22061253,0.0575111,0.00044206023,0.0,0.0,-0.001,0
201327004,0.22074462,0.05740151,0.00037534517,0.0,0.0,-0.001,0
201332027,0.22058997,0.057293814,0.00035493847,0.0,0.0,-0.001,0
201337025,0.2204453,0.057213582,0.00042589894,0.0,0.0,-0.001,0
201342014,0.22041485,0.05727116,0.00044507702,0.0,0.0,-0.001,0
201347006,0.22046867,0.057254598,0.00045191182,0.0,0.0,-0.001,0
201352074,0.22045207,0.057328694,0.00046217884,0.0,0.0,-0.001,0
201357014,0.22051573,0.057444874,0.00043680888,0.0,0.0,-0.001,0
201362002,0.22054832,0.057434384,0.00036827588,0.0,0.0,-0.001,0
201367006,0.22081704,0.05744215,0.00036142074,0.0,0.0,-0.001,0
201372047,0.2208053,0.057317227,0.0002689382,0.0,0.0,-0.001,0
201377004,0.22052646,0.0572235,0.00035539316,0.0,0.0,-0.001,0
201382006,0.2205229,0.05727019,0.0003642111,0.0,0.0,-0.001,0
201387002,0.22063333,0.057309836,0.00040478757,0.0,0.0,-0.001,0
201392043,0.22050141,0.057390112,0.0004744864,0.0,0.0,-0.001,0
201397003,0.22056451,0.057561867,0.0004540262,0.0,0.0,-0.001,0
201401998,0.2206243,0.057567745,0.00044242688,0.0,0.0,-0.001,0
201407023,0.22087283,0.057500906,0.00039106715,0.0,0.0,-0.001,0
201412012,0.22104621,0.057437755,0.000379688,0.0,0.0,-0.001,0
201417005,0.22083518,0.057182644,0.00039027396,0.0,0.0,-0.001,0
201422014,0.22072951,0.057269823,0.00034749336,0.0,0.0,-0.001,0
201427012,0.22060698,0.0571935,0.00042653154,0.0,0.0,-0.001,0
201432016,0.2205938,0.057287227,0.00041313656,0.0,0.0,-0.001,0
201437042,0.22047126,0.057395257,0.000434354,0.0,0.0,-0.001,0
201442015,0.22050829,0.05745946,0.00043672943,0.0,0.0,-0.001,0
201447008,0.22070467,0.057459276,0.00036008784,0.0,0.0,-0.001,0
201452018,0.22093517,0.057395253,0.00033498992,0.0,0.0,-0.001,0
201457027,0.22095408,0.057309005,0.00031389698,0.0,0.0,-0.001,0
201461997,0.22082913,0.057299897,0.0002821726,0.0,0.0,-0.001,0
201467029,0.22078499,0.05725612,0.00038616298,0.0,0.0,-0.001,0
201472060,0.220743,0.057313062,0.00044885805,0.0,0.0,-0.001,0
201477027,0.22064257,0.05755753,0.00047818854,0.0,0.0,-0.001,0
201482046,0.22058333,0.05756889,0.0004936339,0.0,0.0,-0.001,0
201487029,0.2206869,0.0577088,0.00044868366,0.0,0.0,-0.001,0
201492048,0.22102231,0.05766152,0.00042072393,0.0,0.0,-0.001,0
201497035,0.22107708,0.057529874,0.00036058825,0.0,0.0,-0.001,0
201502028,0.2210326,0.057490718,0.00029293372,0.0,0.0,-0.001,0
201507021,0.22105381,0.057259142,0.00040052537,0.0,0.0,-0.001,0
201512011,0.22087714,0.057280373,0.00040343386,0.0,0.0,-0.001,0
201517010,0.22089729,0.057363223,0.00045082677,0.0,0.0,-0.001,0
201521996,0.22072949,0.057484157,0.0004824467,0.0,0.0,-0.001,0
201527027,0.22085129,0.057475723,0.00040978254,0.0,0.0,-0.001,0
201532013,0.22094718,0.057484705,0.00040419766,0.0,0.0,-0.001,0
201537027,0.22121903,0.057421453,0.00036113441,0.0,0.0,-0.001,0
201542017,0.22119346,0.05726923,0.00032201858,0.0,0.0,-0.001,0
201547035,0.22112,0.057112325,0.00041122647,0.0,0.0,-0.001,0
201552019,0.22110721,0.05701159,0.0004246783,0.0,0.0,-0.001,0
201557049,0.2209753,0.057205144,0.0004424847,0.0,0.0,-0.001,0
201561999,0.2208185,0.05729184,0.00049081177,0.0,0.0,-0.001,0
201567008,0.22077408,0.057385005,0.00046633388,0.0,0.0,-0.001,0
201572027,0.22080857,0.057429705,0.00045874456,0.0,0.0,-0.001,0
201577004,0.22115898,0.057402343,0.0003570272,0.0,0.0,-0.001,0
201581998,0.2212472,0.05720423,0.0003104148,0.0,0.0,-0.001,0
201587012,0.2212491,0.05710229,0.000353536,0.0,0.0,-0.001,0
201592039,0.22125864,0.056976832,0.00033913433,0.0,0.0,-0.001,0
201597034,0.22112234,0.057037354,0.0003729327,0.0,0.0,-0.001,0
201601998,0.22091874,0.05703229,0.00039291877,0.0,0.0,-0.001,0
201607023,0.22090681,0.05725131,0.0004845025,0.0,0.0,-0.001,0
201612012,0.2208222,0.05720393,0.0004807834,0.0,0.0,-0.001,0
201617030,0.22109973,0.05713438,0.00042382986,0.0,0.0,-0.001,0
201622022,0.22132057,0.05714099,0.00039283658,0.0,0.0,-0.001,0
201627032,0.22140671,0.05709792,0.0004165265,0.0,0.0,-0.001,0
201632022,0.22138062,0.056844976,0.0003799495,0.0,0.0,-0.001,0
201637005,0.22122104,0.05680203,0.00037419208,0.0,0.0,-0.001,0
201642013,0.22123659,0.057030577,0.00040567107,0.0,0.0,-0.001,0
201647008,0.2210813,0.05711919,0.00041742343,0.0,0.0,-0.001,0
201652014,0.22095764,0.05714047,0.00041509484,0.0,0.0,-0.001,0
201657013,0.22099608,0.05731621,0.00038362833,0.0,0.0,-0.001,0
201661998,0.22130485,0.057384375,0.00033855936,0.0,0.0,-0.001,0
201667035,0.22153726,0.057214353,0.00040805622,0.0,0.0,-0.001,0
201672027,0.22162372,0.057194877,0.0003473363,0.0,0.0,-0.001,0
201677028,0.22145708,0.05703044,0.00036836925,0.0,0.0,-0.001,0
201681999,0.22152217,0.057071738,0.00037854112,0.0,0.0,-0.001,0
201687006,0.22133824,0.057262354,0.0004602336,0.0,0.0,-0.001,0
201692019,0.22108428,0.057266887,0.00046419623,0.0,0.0,-0.001,0
201697003,0.22112012,0.057285547,0.0004480176,0.0,0.0,-0.001,0
201702000,0.2213465,0.057215683,0.00045840925,0.0,0.0,-0.001,0
201707021,0.22146505,0.057219546,0.00035310612,0.0,0.0,-0.001,0
201712039,0.22159182,0.057030614,0.00035303636,0.0,0.0,-0.001,0
201717025,0.22169828,0.05675866,0.00036296787,0.0,0.0,-0.001,0
201722023,0.22157653,0.056773204,0.00036278277,0.0,0.0,-0.001,0
201727031,0.22140361,0.05698859,0.0004059949,0.0,0.0,-0.001,0
201732039,0.22122903,0.05692698,0.00042007078,0.0,0.0,-0.001,0
201737004,0.22121567,0.05713936,0.00042091505,0.0,0.0,-0.001,0
201742014,0.22121099,0.05722439,0.00041373243,0.0,0.0,-0.001,0
201747032,0.22132882,0.057168413,0.00038654445,0.0,0.0,-0.001,0
201752049,0.22160752,0.057127174,0.0003456725,0.0,0.0,-0.001,0
201757029,0.22169384,0.056994952,0.00036887458,0.0,0.0,-0.001,0
201761997,0.22177488,0.05693371,0.000364704,0.0,0.0,-0.001,0
201767032,0.2216101,0.056873452,0.00037081112,0.0,0.0,-0.001,0
201772033,0.22136545,0.057023622,0.00041719613,0.0,0.0,-0.001,0
201777003,0.2213226,0.057135813,0.00045498594,0.0,0.0,-0.001,0
201781997,0.22126894,0.05723336,0.000462945,0.0,0.0,-0.001,0
201787004,0.22138838,0.05713613,0.00041053866,0.0,0.0,-0.001,0
201792042,0.22155277,0.057256468,0.00033981356,0.0,0.0,-0.001,0
201796999,0.22177592,0.057070665,0.0004079802,0.0,0.0,-0.001,0
201801996,0.22185849,0.05697157,0.00036948474,0.0,0.0,-0.001,0
201807029,0.22181824,0.05682064,0.00043766046,0.0,0.0,-0.001,0
201812018,0.22159721,0.057019822,0.00044632578,0.0,0.0,-0.001,0
201817003,0.22154528,0.057063196,0.00040203636,0.0,0.0,-0.001,0
201822002,0.2213212,0.057058927,0.00042581972,0.0,0.0,-0.001,0
201827007,0.22149585,0.057112314,0.0003923368,0.0,0.0,-0.001,0
201832010,0.221435,0.05719345,0.00037146176,0.0,0.0,-0.001,0
201837008,0.22180921,0.05706779,0.00038243236,0.0,0.0,-0.001,0
201842013,0.22202066,0.056802098,0.00036111695,0.0,0.0,-0.001,0
201847008,0.22187631,0.05675359,0.0003713285,0.0,0.0,-0.001,0
201852017,0.22185652,0.056887753,0.00037656527,0.0,0.0,-0.001,0
201857015,0.22161433,0.05699411,0.00043109021,0.0,0.0,-0.001,0
201861999,0.22139844,0.05698303,0.00044158616,0.0,0.0,-0.001,0
201867005,0.22139904,0.057217464,0.0004188686,0.0,0.0,-0.001,0
201872030,0.22147447,0.05726847,0.00038093113,0.0,0.0,-0.001,0
201877005,0.22160727,0.05716305,0.0004182635,0.0,0.0,-0.001,0
201882035,0.22187349,0.05703571,0.00036611283,0.0,0.0,-0.001,0
201887034,0.22195058,0.056886617,0.0003840276,0.0,0.0,-0.001,0
201892038,0.22186267,0.05685917,0.00037413544,0.0,0.0,-0.001,0
201897045,0.221663,0.056880653,0.00040916647,0.0,0.0,-0.001,0
201901995,0.22145808,0.056896813,0.0004384387,0.0,0.0,-0.001,0
201907020,0.22145092,0.056966905,0.00043359632,0.0,0.0,-0.001,0
201912011,0.22141743,0.056877784,0.0004524782,0.0,0.0,-0.001,0
201917002,0.22146793,0.05697337,0.00042806257,0.0,0.0,-0.001,0
201922000,0.22186129,0.056952294,0.0003959518,0.0,0.0,-0.001,0
201927030,0.22198042,0.05658479,0.00040437386,0.0,0.0,-0.001,0
201932022,0.22203569,0.056703787,0.0003800251,0.0,0.0,-0.001,0
201937011,0.22171429,0.05670769,0.0004025194,0.0,0.0,-0.001,0
201942016,0.2216175,0.056730688,0.00041892138,0.0,0.0,-0.001,0
201947017,0.22145152,0.056649074,0.000425836,0.0,0.0,-0.001,0
201952038,0.22138153,0.05676859,0.00044463607,0.0,0.0,-0.001,0
201957037,0.22129712,0.056854326,0.00037495556,0.0,0.0,-0.001,0
201962026,0.221603,0.05681969,0.00037062314,0.0,0.0,-0.001,0
201967012,0.22180568,0.05658844,0.00039898293,0.0,0.0,-0.001,0
201972030,0.22185461,0.056562476,0.00041118,0.0,0.0,-0.001,0
201977002,0.2219034,0.056546092,0.00042601002,0.0,0.0,-0.001,0
201981997,0.2215874,0.056500766,0.00040251834,0.0,0.0,-0.001,0
201987029,0.22149895,0.05664828,0.00043631464,0.0,0.0,-0.001,0
201992010,0.22127308,0.05657645,0.00046833197,0.0,0.0,-0.001,0
201997007,0.22127351,0.05673243,0.00041191236,0.0,0.0,-0.001,0
202002005,0.22121957,0.05663787,0.00039180322,0.0,0.0,-0.001,0
202007027,0.22150318,0.056615844,0.00041176277,0.0,0.0,-0.001,0
202012010,0.22170366,0.056386583,0.0004157589,0.0,0.0,-0.001,0
202017030,0.22168085,0.056488443,0.00039139722,0.0,0.0,-0.001,0
202021997,0.22148485,0.05651086,0.000424863,0.0,0.0,-0.001,0
202027007,0.22129618,0.056592092,0.0004019677,0.0,0.0,-0.001,0
202032029,0.2211304,0.056483146,0.00044153814,0.0,0.0,-0.001,0
202037005,0.2210901,0.056645103,0.0004167793,0.0,0.0,-0.001,0
202042017,0.22104764,0.056797966,0.00038353426,0.0,0.0,-0.001,0
202046968,0.22132096,0.05661959,0.00041874324,0.0,0.0,-0.001,0
202052054,0.22167458,0.056598555,0.00038936647,0.0,0.0,-0.001,0
202057035,0.22170058,0.05661168,0.00042105129,0.0,0.0,-0.001,0
202062016,0.22162186,0.056646574,0.00037220356,0.0,0.0,-0.001,0
202067034,0.22136797,0.05659765,0.00042814345,0.0,0.0,-0.001,0
202072068,0.22117351,0.056695934,0.00042582667,0.0,0.0,-0.001,0
202077018,0.22114077,0.056626584,0.00040121764,0.0,0.0,-0.001,0
202082046,0.22099453,0.056662917,0.00039446462,0.0,0.0,-0.001,0
202087063,0.22108984,0.05653303,0.00041317262,0.0,0.0,-0.001,0
202092055,0.2212892,0.05655119,0.00044276775,0.0,0.0,-0.001,0
202097026,0.22154297,0.056543715,0.0004226187,0.0,0.0,-0.001,0
202102021,0.22157885,0.05648575,0.0004071664,0.0,0.0,-0.001,0
202107029,0.22127303,0.05652242,0.00043505296,0.0,0.0,-0.001,0
202112034,0.22112803,0.056614224,0.00043165908,0.0,0.0,-0.001,0
202117021,0.22108273,0.056545105,0.00040536645,0.0,0.0,-0.001,0
202122014,0.22088245,0.056536566,0.00035135253,0.0,0.0,-0.001,0
202127026,0.22091626,0.05671302,0.00038405563,0.0,0.0,-0.001,0
202132057,0.22107804,0.0567321,0.00040240303,0.0,0.0,-0.001,0
202137023,0.22144687,0.056565844,0.0003760814,0.0,0.0,-0.001,0
202142038,0.22155832,0.056607317,0.00038526685,0.0,0.0,-0.001,0
202147027,0.22144324,0.05680525,0.00040893833,0.0,0.0,-0.001,0
202152031,0.22122756,0.056680836,0.0003944132,0.0,0.0,-0.001,0
202157025,0.22108816,0.05672405,0.0004224808,0.0,0.0,-0.001,0
202162014,0.2209894,0.056844037,0.00039860813,0.0,0.0,-0.001,0
202167025,0.22074513,0.056878887,0.00041320242,0.0,0.0,-0.001,0
202172068,0.22104864,0.05683535,0.00040985428,0.0,0.0,-0.001,0
202177019,0.22118649,0.056770884,0.00042583098,0.0,0.0,-0.001,0
202182014,0.2214673,0.05680267,0.0004034179,0.0,0.0,-0.001,0
202187047,0.22140321,0.056668386,0.0004624534,0.0,0.0,-0.001,0
202192031,0.22127312,0.05686191,0.0004149279,0.0,0.0,-0.001,0
202197025,0.22105588,0.056847196,0.000383181,0.0,0.0,-0.001,0
202202014,0.22087592,0.056793973,0.00034536343,0.0,0.0,-0.001,0
202207078,0.22089325,0.056739043,0.00039717357,0.0,0.0,-0.001,0
202212033,0.22086579,0.05694481,0.00037517765,0.0,0.0,-0.001,0
202217046,0.22099468,0.05686926,0.00036181707,0.0,0.0,-0.001,0
202222016,0.22128296,0.056922562,0.00042565976,0.0,0.0,-0.001,0
202227027,0.22146106,0.057016447,0.00042230592,0.0,0.0,-0.001,0
202232029,0.22112453,0.057057627,0.00041909813,0.0,0.0,-0.001,0
202237018,0.22117956,0.05711587,0.0004312942,0.0,0.0,-0.001,0
202242026,0.2208463,0.056989897,0.00038738525,0.0,0.0,-0.001,0
202247023,0.22091176,0.05713675,0.00041755495,0.0,0.0,-0.001,0
202252056,0.22096582,0.05711549,0.00040001873,0.0,0.0,-0.001,0
202257023,0.22106186,0.05715087,0.00041163617,0.0,0.0,-0.001,0
202262018,0.22123346,0.05704872,0.0004219798,0.0,0.0,-0.001,0
202267020,0.22147912,0.057102986,0.00044506072,0.0,0.0,-0.001,0
202272082,0.2213272,0.05698083,0.00045477867,0.0,0.0,-0.001,0
202277019,0.22129516,0.05710595,0.00041485144,0.0,0.0,-0.001,0
202282014,0.22107488,0.05686857,0.0003548078,0.0,0.0,-0.001,0
202287020,0.22107628,0.057004385,0.0004133881,0.0,0.0,-0.001,0
202292028,0.22098285,0.05694545,0.00035085576,0.0,0.0,-0.001,0
202297021,0.22116992,0.056865223,0.00045325534,0.0,0.0,-0.001,0
202302014,0.22124824,0.05693085,0.000447997,0.0,0.0,-0.001,0
202307059,0.22145656,0.05698357,0.00045587364,0.0,0.0,-0.001,0
202312061,0.22147866,0.056873675,0.0004622899,0.0,0.0,-0.001,0
202317024,0.2214413,0.056977693,0.00038950908,0.0,0.0,-0.001,0
202322014,0.22121254,0.056999415,0.00038721605,0.0,0.0,-0.001,0
202327021,0.22109123,0.056954667,0.00038343907,0.0,0.0,-0.001,0
202332027,0.22104067,0.05692128,0.00035430992,0.0,0.0,-0.001,0
202337020,0.22103246,0.056902412,0.0003878867,0.0,0.0,-0.001,0
202342032,0.22116235,0.057106927,0.00039498604,0.0,0.0,-0.001,0
202347025,0.22137497,0.056968704,0.0004382961,0.0,0.0,-0.001,0
202352063,0.22146541,0.056984007,0.00042317004,0.0,0.0,-0.001,0
202357050,0.22149321,0.05709488,0.00043295318,0.0,0.0,-0.001,0
202362022,0.22130978,0.057083953,0.0004420694,0.0,0.0,-0.001,0
202367071,0.22106472,0.0570243,0.0003741582,0.0,0.0,-0.001,0
202372067,0.22098011,0.05701565,0.00036424398,0.0,0.0,-0.001,0
202377021,0.22103195,0.057004854,0.0004368567,0.0,0.0,-0.001,0
202382036,0.22113246,0.056937236,0.000413276,0.0,0.0,-0.001,0
202387026,0.22124685,0.05681111,0.00043570157,0.0,0.0,-0.001,0
202392033,0.22149907,0.056971375,0.0004957538,0.0,0.0,-0.001,0
202397029,0.22143456,0.056968637,0.0004143676,0.0,0.0,-0.001,0
202402015,0.22146262,0.05691186,0.00043115005,0.0,0.0,-0.001,0
202407032,0.22113454,0.05683107,0.00039056898,0.0,0.0,-0.001,0
202412028,0.22124329,0.056854654,0.0003432093,0.0,0.0,-0.001,0
202417031,0.22112931,0.05677089,0.00038969706,0.0,0.0,-0.001,0
202422017,0.22122908,0.05673972,0.0003512449,0.0,0.0,-0.001,0
202427020,0.22123034,0.05660551,0.00042006822,0.0,0.0,-0.001,0
202432034,0.2215038,0.056968935,0.00041901236,0.0,0.0,-0.001,0
202437024,0.22155769,0.05684978,0.00046374183,0.0,0.0,-0.001,0
202442026,0.22148655,0.05686719,0.00047130475,0.0,0.0,-0.001,0
202447027,0.2213224,0.05670525,0.00037370963,0.0,0.0,-0.001,0
202452032,0.22121772,0.05678178,0.00035421766,0.0,0.0,-0.001,0
202457022,0.22115798,0.05663686,0.00037443035,0.0,0.0,-0.001,0
202462021,0.221163,0.056570545,0.00031999662,0.0,0.0,-0.001,0
202467058,0.22120982,0.056503274,0.00043295708,0.0,0.0,-0.001,0
202472072,0.2215399,0.05659465,0.00047953727,0.0,0.0,-0.001,0
202477081,0.22154123,0.05664917,0.0004159847,0.0,0.0,-0.001,0
202482013,0.22162235,0.05673758,0.0004520376,0.0,0.0,-0.001,0
202487022,0.22154576,0.056663904,0.00041991696,0.0,0.0,-0.001,0
202492028,0.2212835,0.056599222,0.00034416185,0.0,0.0,-0.001,0
202497018,0.22132415,0.056736074,0.0004094339,0.0,0.0,-0.001,0
202502015,0.22119908,0.056504894,0.00034077934,0.0,0.0,-0.001,0
202507069,0.22135286,0.056596942,0.00040569506,0.0,0.0,-0.001,0
202512031,0.22154295,0.05657209,0.00042738597,0.0,0.0,-0.001,0
202517023,0.22161034,0.05682022,0.00040714326,0.0,0.0,-0.001,0
202522021,0.22162753,0.05685227,0.00045137265,0.0,0.0,-0.001,0
202527021,0.2216144,0.057007037,0.00040576077,0.0,0.0,-0.001,0
202532064,0.22143584,0.056811772,0.0004175748,0.0,0.0,-0.001,0
202537029,0.22143891,0.05694913,0.00034660316,0.0,0.0,-0.001,0
202542025,0.22138447,0.056742143,0.0003034856,0.0,0.0,-0.001,0
202547051,0.2214441,0.05671084,0.00041865066,0.0,0.0,-0.001,0
202552060,0.22166438,0.056635186,0.00040572573,0.0,0.0,-0.001,0
202557052,0.22173618,0.056770302,0.00043237084,0.0,0.0,-0.001,0
202562049,0.22182812,0.05691696,0.0004616821,0.0,0.0,-0.001,0
202567021,0.22172002,0.056865916,0.00045086388,0.0,0.0,-0.001,0
202572071,0.22167744,0.056758273,0.0004222701,0.0,0.0,-0.001,0
202577017,0.22157148,0.05678766,0.00036969894,0.0,0.0,-0.001,0
202582015,0.22144812,0.056729544,0.00031638012,0.0,0.0,-0.001,0
202587021,0.22150522,0.056476224,0.00037630586,0.0,0.0,-0.001,0
202592027,0.22150207,0.056532323,0.00034808303,0.0,0.0,-0.001,0
202597015,0.22167291,0.056416832,0.00039523,0.0,0.0,-0.001,0
202602015,0.22182207,0.05690661,0.00044731813,0.0,0.0,-0.001,0
202607097,0.22187588,0.056892954,0.0004246869,0.0,0.0,-0.001,0
202612055,0.22174756,0.057011254,0.00039231987,0.0,0.0,-0.001,0
202617020,0.221568,0.0569285,0.00037466027,0.0,0.0,-0.001,0
202622012,0.22153637,0.057061955,0.00034862792,0.0,0.0,-0.001,0
202627033,0.22142395,0.056905996,0.00036373612,0.0,0.0,-0.001,0
202632025,0.2215791,0.05685844,0.00033147307,0.0,0.0,-0.001,0
202637022,0.22171138,0.056795627,0.00047612152,0.0,0.0,-0.001,0
202642025,0.2218704,0.05706478,0.00047453365,0.0,0.0,-0.001,0
202647058,0.22198266,0.05713519,0.00046546172,0.0,0.0,-0.001,0
202652031,0.2219595,0.057195302,0.000482288,0.0,0.0,-0.001,0
202657029,0.22181377,0.057117,0.00037023734,0.0,0.0,-0.001,0
202662019,0.221633,0.057037592,0.00032177372,0.0,0.0,-0.001,0
202667023,0.22162487,0.057118986,0.0003541055,0.0,0.0,-0.001,0
202672066,0.22160545,0.05681593,0.00029833574,0.0,0.0,-0.001,0
202677019,0.22201513,0.056855597,0.00044416098,0.0,0.0,-0.001,0
202682015,0.22216316,0.056848757,0.0004562729,0.0,0.0,-0.001,0
202687021,0.22213838,0.05707383,0.00045688474,0.0,0.0,-0.001,0
202692031,0.2220414,0.05706681,0.0004302038,0.0,0.0,-0.001,0
202697019,0.22192818,0.057101652,0.00042109253,0.0,0.0,-0.001,0
202702021,0.22175784,0.057096448,0.00036575226,0.0,0.0,-0.001,0
202707030,0.2216801,0.0571078,0.00035223374,0.0,0.0,-0.001,0
202712052,0.22166164,0.056946404,0.00035783893,0.0,0.0,-0.001,0
202717020,0.22180168,0.057036236,0.00042055626,0.0,0.0,-0.001,0
202722014,0.22201815,0.056975435,0.0004234852,0.0,0.0,-0.001,0
202727021,0.22223821,0.05702993,0.0004598986,0.0,0.0,-0.001,0
202732059,0.2222164,0.057338662,0.00050355325,0.0,0.0,-0.001,0
202737071,0.22191188,0.057225533,0.00037509986,0.0,0.0,-0.001,0
202742047,0.22178109,0.05715508,0.0003197725,0.0,0.0,-0.001,0
202747029,0.22180898,0.057061058,0.00038004186,0.0,0.0,-0.001,0
202752032,0.22160378,0.057132415,0.0003058411,0.0,0.0,-0.001,0
202757071,0.22175524,0.05693496,0.00040169695,0.0,0.0,-0.001,0
202762021,0.22198719,0.05676899,0.00041143474,0.0,0.0,-0.001,0
202767025,0.22225289,0.056919403,0.00045799976,0.0,0.0,-0.001,0
202772074,0.22244656,0.0570829,0.00049582956,0.0,0.0,-0.001,0
202777020,0.22211143,0.056976005,0.00042396097,0.0,0.0,-0.001,0
202782041,0.22190607,0.05703664,0.00040554954,0.0,0.0,-0.001,0
202787054,0.2218442,0.056971066,0.0003493692,0.0,0.0,-0.001,0
202792067,0.2217284,0.056909807,0.00031813103,0.0,0.0,-0.001,0
202797020,0.22176962,0.05683286,0.00038952954,0.0,0.0,-0.001,0
202802020,0.22199173,0.056729425,0.00038436585,0.0,0.0,-0.001,0
202807038,0.22236177,0.056698453,0.00044759698,0.0,0.0,-0.001,0
202812034,0.2224335,0.05676497,0.00043798712,0.0,0.0,-0.001,0
202817027,0.22245653,0.05682089,0.00044301426,0.0,0.0,-0.001,0
202822018,0.22221172,0.056914486,0.00041054733,0.0,0.0,-0.001,0
202827020,0.22199082,0.056854334,0.0003855471,0.0,0.0,-0.001,0
202832034,0.22178313,0.05676879,0.00031071363,0.0,0.0,-0.001,0
202837030,0.22190087,0.05674226,0.00037522084,0.0,0.0,-0.001,0
202842024,0.22196692,0.056507003,0.00035431032,0.0,0.0,-0.001,0
202847025,0.222234,0.05647903,0.00046889015,0.0,0.0,-0.001,0
202852038,0.22237696,0.05652033,0.000513304,0.0,0.0,-0.001,0
202857039,0.2224489,0.056588333,0.00044795033,0.0,0.0,-0.001,0
202862019,0.22222528,0.056580275,0.0004542037,0.0,0.0,-0.001,0
202867051,0.2219096,0.056719035,0.00039039872,0.0,0.0,-0.001,0
202872077,0.22168441,0.056523275,0.00035052188,0.0,0.0,-0.001,0
202877074,0.22166368,0.056596994,0.0003539868,0.0,0.0,-0.001,0
202882038,0.22183873,0.05647445,0.00036098016,0.0,0.0,-0.001,0
202887048,0.22211635,0.05669042,0.00043432045,0.0,0.0,-0.001,0
202892055,0.22223425,0.056503776,0.00042941075,0.0,0.0,-0.001,0
202897023,0.22242615,0.05671496,0.00046473276,0.0,0.0,-0.001,0
202902017,0.22231652,0.05671175,0.0004315601,0.0,0.0,-0.001,0
202907041,0.2220009,0.05680173,0.00039014086,0.0,0.0,-0.001,0
202912061,0.22175427,0.056575276,0.00034521718,0.0,0.0,-0.001,0
202917020,0.22167628,0.056679368,0.00034745166,0.0,0.0,-0.001,0
202922012,0.2216855,0.056453187,0.00034140874,0.0,0.0,-0.001,0
202927021,0.22197273,0.056409456,0.00046955846,0.0,0.0,-0.001,0
202932057,0.2222403,0.056229107,0.00052314217,0.0,0.0,-0.001,0
202937020,0.22248489,0.056464292,0.00048622215,0.0,0.0,-0.001,0
202942033,0.22256339,0.0564581,0.00051992654,0.0,0.0,-0.001,0
202947026,0.22206189,0.056444444,0.0003964649,0.0,0.0,-0.001,0
202952030,0.2218374,0.05642081,0.00032206165,0.0,0.0,-0.001,0
202957057,0.22171673,0.056412894,0.00034767544,0.0,0.0,-0.001,0
202962019,0.22159491,0.05637425,0.0002872025,0.0,0.0,-0.001,0
202967025,0.22177821,0.056257613,0.00039301213,0.0,0.0,-0.001,0
202972070,0.22207123,0.05623163,0.00042976008,0.0,0.0,-0.001,0
202977018,0.22236902,0.056425974,0.00039970595,0.0,0.0,-0.001,0
202982013,0.22236994,0.056698278,0.00042700698,0.0,0.0,-0.001,0
202987058,0.22211562,0.056728564,0.0003572969,0.0,0.0,-0.001,0
202992034,0.2219094,0.056857035,0.00030161964,0.0,0.0,-0.001,0
202997031,0.2216113,0.056880847,0.00032951438,0.0,0.0,-0.001,0
203002016,0.22137105,0.056744326,0.00028392358,0.0,0.0,-0.001,0
203007059,0.22153859,0.05673635,0.0004320474,0.0,0.0,-0.001,0
203012024,0.2218704,0.056684513,0.0004732388,0.0,0.0,-0.001,0
203017018,0.22223347,0.056662653,0.00046538748,0.0,0.0,-0.001,0
203022017,0.2222225,0.056661513,0.0004873621,0.0,0.0,-0.001,0
203027026,0.22212093,0.05666609,0.00043279305,0.0,0.0,-0.001,0
203032069,0.22186787,0.05677797,0.00033437132,0.0,0.0,-0.001,0
203037025,0.22161242,0.05662768,0.00039105455,0.0,0.0,-0.001,0
203042059,0.22148989,0.05651517,0.00030524487,0.0,0.0,-0.001,0
203047049,0.22146618,0.056602504,0.00034858036,0.0,0.0,-0.001,0
203052070,0.22160554,0.056624785,0.00034918226,0.0,0.0,-0.001,0
203056975,0.22201043,0.056535903,0.00044771645,0.0,0.0,-0.001,0
203062024,0.22220916,0.05660332,0.0005023719,0.0,0.0,-0.001,0
203067031,0.22205648,0.056893513,0.00039898275,0.0,0.0,-0.001,0
203072029,0.22179666,0.05692716,0.00032939418,0.0,0.0,-0.001,0
203077003,0.22158799,0.056867827,0.00037904948,0.0,0.0,-0.001,0
203081998,0.22142543,0.056948654,0.0003073318,0.0,0.0,-0.001,0
203087005,0.22119594,0.057046257,0.00035441364,0.0,0.0,-0.001,0
203092020,0.22133616,0.056795813,0.00037168388,0.0,0.0,-0.001,0
203097023,0.22181472,0.0569473,0.00048641828,0.0,0.0,-0.001,0
203101996,0.221945,0.056925755,0.0005081946,0.0,0.0,-0.001,0
203107049,0.22217245,0.057121195,0.00044081267,0.0,0.0,-0.001,0
203112012,0.2219273,0.05699125,0.00043824327,0.0,0.0,-0.001,0
203117005,0.22170141,0.0570878,0.00034594102,0.0,0.0,-0.001,0
203122029,0.2213947,0.05695411,0.00026439832,0.0,0.0,-0.001,0
203127022,0.2213703,0.056878317,0.00037041723,0.0,0.0,-0.001,0
203132011,0.22123744,0.056691412,0.00036598236,0.0,0.0,-0.001,0
203137003,0.22156599,0.05680333,0.00046479335,0.0,0.0,-0.001,0
203142009,0.22190623,0.056611568,0.0005542303,0.0,0.0,-0.001,0
203147013,0.22203399,0.056826074,0.00041292558,0.0,0.0,-0.001,0
203152021,0.22194248,0.05695764,0.00040960466,0.0,0.0,-0.001,0
203157030,0.2214922,0.056933846,0.00035732758,0.0,0.0,-0.001,0
203162001,0.22154282,0.057032008,0.00025217008,0.0,0.0,-0.001,0
203167007,0.22121927,0.05696517,0.00034035958,0.0,0.0,-0.001,0
203172022,0.22124077,0.057065453,0.00030806262,0.0,0.0,-0.001,0
203177021,0.22129467,0.056912906,0.00040769126,0.0,0.0,-0.001,0
203182001,0.22169843,0.057114717,0.00044981414,0.0,0.0,-0.001,0
203187032,0.22196743,0.05706619,0.00047059305,0.0,0.0,-0.001,0
203192012,0.2219548,0.057417076,0.00051680475,0.0,0.0,-0.001,0
203197013,0.22172587,0.057176743,0.00035538574,0.0,0.0,-0.001,0
203201998,0.22144677,0.057476226,0.0002664965,0.0,0.0,-0.001,0
203207048,0.2211938,0.057186913,0.00030176403,0.0,0.0,-0.001,0
203212032,0.22116254,0.057312753,0.00022205876,0.0,0.0,-0.001,0
203217008,0.22117162,0.05707863,0.00040477968,0.0,0.0,-0.001,0
203221999,0.2214358,0.05720112,0.0004747378,0.0,0.0,-0.001,0
203227007,0.22175454,0.056960784,0.00048364775,0.0,0.0,-0.001,0
203232016,0.22192357,0.057172306,0.0004926872,0.0,0.0,-0.001,0
203237032,0.22179839,0.05717411,0.00040933045,0.0,0.0,-0.001,0
203241999,0.2214788,0.057192195,0.00031042416,0.0,0.0,-0.001,0
203247002,0.22124876,0.057149902,0.00034159102,0.0,0.0,-0.001,0
203252042,0.2213463,0.057286117,0.00028633134,0.0,0.0,-0.001,0
203257008,0.22108176,0.057260577,0.00038780738,0.0,0.0,-0.001,0
203262028,0.22138047,0.057137344,0.00044149032,0.0,0.0,-0.001,0
203267035,0.22164392,0.057294406,0.0004875776,0.0,0.0,-0.001,0
203272050,0.22189708,0.057359688,0.00055264897,0.0,0.0,-0.001,0
203277037,0.22186096,0.057652857,0.00042497632,0.0,0.0,-0.001,0
203281998,0.22160468,0.057494435,0.00036867583,0.0,0.0,-0.001,0
203287006,0.22142407,0.05766657,0.00033241537,0.0,0.0,-0.001,0
203292009,0.2213343,0.0575448,0.00019256464,0.0,0.0,-0.001,0
203297003,0.22129822,0.05757922,0.00039056197,0.0,0.0,-0.001,0
203301998,0.22135182,0.057373412,0.00040053783,0.0,0.0,-0.001,0
203307048,0.35144717,0.17189004,0.0005815955,0.0,0.0,-0.01778007,0
203312016,0.3518092,0.17174867,0.00063436956,0.0,0.0,-0.01778007,0
203317001,0.35810477,0.16402577,0.0004775415,0.0,0.0,-0.019077742,0
203321998,0.35792497,0.16372728,0.00048595513,0.0,0.0,-0.019077742,0
203327003,0.34587494,0.16230862,0.00045120326,0.0,0.0,-0.020252883,0
203332017,0.34592023,0.16209437,0.00040710796,0.0,0.0,-0.020252883,0
203337004,0.34532678,0.15417242,0.00034326024,0.0,0.0,-0.021608027,0
203341997,0.34519687,0.15396008,0.00034141116,0.0,0.0,-0.021608027,0
203347011,0.3424669,0.15499416,0.0004375969,0.0,0.0,-0.022864077,0
203352020,0.34267405,0.15493739,0.0005398943,0.0,0.0,-0.022864077,0
203357015,0.34118775,0.15986668,0.00062240846,0.0,0.0,-0.024310937,0
203362007,0.34103024,0.15985776,0.0005820631,0.0,0.0,-0.024310937,0
203367006,0.3232724,0.14943473,0.00053233514,0.0,0.0,-0.025633115,0
203372049,0.3231022,0.14950337,0.00038396483,0.0,0.0,-0.025633115,0
203377004,0.32570928,0.15051925,0.00029260496,0.0,0.0,-0.02710078,0
203382000,0.3258472,0.15049441,0.00027247032,0.0,0.0,-0.02710078,0
203387006,0.29610938,0.12555721,0.0003105882,0.0,0.0,-0.028454574,0
203392025,0.29629415,0.12574333,0.00038946056,0.0,0.0,-0.028454574,0
203397002,0.29360086,0.124533564,0.00043889153,0.0,0.0,-0.030058378,0
203401997,0.2936325,0.12470793,0.00042911014,0.0,0.0,-0.030058378,0
203407009,0.27457225,0.10458151,0.0003072184,0.0,0.0,-0.031360637,0
203412013,0.27436626,0.10445077,0.00023909536,0.0,0.0,-0.031360637,0
203417003,0.27352604,0.104152046,0.00023063783,0.0,0.0,-0.03309784,0
203422024,0.27365673,0.10447419,0.00022698012,0.0,0.0,-0.03309784,0
203427003,0.23775557,0.071369976,0.00017664785,0.0,0.0,-0.03438928,0
203432033,0.23773372,0.071246974,0.00017986639,0.0,0.0,-0.03438928,0
203437002,0.22806025,0.066923626,0.00015983245,0.0,0.0,-0.036170818,0
203441997,0.2280256,0.067019984,9.662012e-05,0.0,0.0,-0.036170818,0
203447009,0.23331162,0.067807026,1.9595915e-05,0.0,0.0,-0.037503704,0
203452013,0.23318362,0.0677033,-1.5876529e-05,0.0,0.0,-0.037503704,0
203457014,0.23089638,0.06751226,-3.3083466e-05,0.0,0.0,-0.039013308,0
203462039,0.23085812,0.067615405,-3.73753e-05,0.0,0.0,-0.039013308,0
203467014,0.23107538,0.07524541,3.124937e-05,0.0,0.0,-0.04088612,0
203472069,0.23101729,0.07532849,7.2392926e-05,0.0,0.0,-0.04088612,0
203477016,0.2302489,0.07078086,4.5693658e-05,0.0,0.0,-0.042264923,0
203482000,0.23014763,0.070703596,4.1436e-05,0.0,0.0,-0.042264923,0
203487005,0.23477197,0.07417986,2.3525068e-05,0.0,0.0,-0.044192683,0
203492028,0.2347044,0.07401743,-3.8413134e-05,0.0,0.0,-0.044192683,0
203497002,0.23736538,0.080010235,-6.2910665e-05,0.0,0.0,-0.045973856,0
203501996,0.23745316,0.079972304,-9.515324e-05,0.0,0.0,-0.045973856,0
203507059,0.23709294,0.07669554,-9.819674e-05,0.0,0.0,-0.04772916,0
203512019,0.23720881,0.076812856,-9.0720874e-05,0.0,0.0,-0.04772916,0
203517043,0.23349558,0.079764485,-9.4069444e-05,0.0,0.0,-0.049319383,0
203522019,0.23351085,0.079575345,-0.00010727313,0.0,0.0,-0.049319383,0
203527005,0.23165202,0.07516585,-0.00020322645,0.0,0.0,-0.051050663,0
203532020,0.23178902,0.07502419,-0.00023483223,0.0,0.0,-0.051050663,0
203537025,0.23248407,0.077634916,-0.00015851439,0.0,0.0,-0.052754235,0
203542001,0.23266031,0.07748176,-8.7413115e-05,0.0,0.0,-0.052754235,0
203547017,0.23739432,0.07902353,-7.615489e-05,0.0,0.0,-0.05458379,0
203552020,0.2372734,0.07898832,-8.975124e-05,0.0,0.0,-0.05458379,0
203557009,0.23259604,0.07381632,-0.00015626676,0.0,0.0,-0.056172024,0
203562001,0.232304,0.07362293,-0.00017202634,0.0,0.0,-0.056172024,0
203567042,0.23456648,0.07757173,-0.0001696063,0.0,0.0,-0.058200035,0
203572062,0.23464873,0.077761464,-0.00013688026,0.0,0.0,-0.058200035,0
203577004,0.24263656,0.08126521,-0.00016042189,0.0,0.0,-0.06001471,0
203582015,0.24274571,0.08131229,-0.00019268843,0.0,0.0,-0.06001471,0
203587005,0.23883428,0.073865615,-0.00033251705,0.0,0.0,-0.0615013,0
203592020,0.23861821,0.07368964,-0.00033648722,0.0,0.0,-0.0615013,0
203597013,0.23524061,0.072012015,-0.00033457365,0.0,0.0,-0.06363593,0
203602034,0.23493224,0.07197123,-0.00029970356,0.0,0.0,-0.06363593,0
203607006,0.23743705,0.07949612,-0.00021999134,0.0,0.0,-0.06534777,0
203612013,0.23771426,0.07927286,-0.00022960748,0.0,0.0,-0.06534777,0
203617003,0.24256563,0.07476652,-0.00029172614,0.0,0.0,-0.067026615,0
203621999,0.242679,0.074508004,-0.0002657817,0.0,0.0,-0.067026615,0
203627028,0.23853697,0.07194926,-0.00025592084,0.0,0.0,-0.06942155,0
203632030,0.23844762,0.07213084,-0.0002720402,0.0,0.0,-0.06942155,0
203637038,0.23476402,0.07425386,-0.000285707,0.0,0.0,-0.07118614,0
203641998,0.23459472,0.07410905,-0.00032155722,0.0,0.0,-0.07118614,0
203647028,0.241761,0.07254051,-0.00033368994,0.0,0.0,-0.07312308,0
203652017,0.24200165,0.07241866,-0.00029587315,0.0,0.0,-0.07312308,0
203657027,0.24242347,0.080290645,-0.00025816934,0.0,0.0,-0.07499157,0
203662007,0.24231535,0.08048146,-0.00031474655,0.0,0.0,-0.07499157,0
203667008,0.23706616,0.08360454,-0.0003381779,0.0,0.0,-0.07726356,0
203672060,0.23671304,0.08356645,-0.00034188764,0.0,0.0,-0.07726356,0
203677002,0.2324876,0.06887239,-0.0003776746,0.0,0.0,-0.07901193,0
203682030,0.23289812,0.06892682,-0.0003741464,0.0,0.0,-0.07901193,0
203687033,0.24097565,0.087174565,-0.00026843886,0.0,0.0,-0.0809096,0
203692046,0.24104205,0.08727346,-0.0003581572,0.0,0.0,-0.0809096,0
203697032,0.24735437,0.06795913,-0.00056594936,0.0,0.0,-0.08321984,0
203702019,0.24774757,0.067847274,-0.0005477267,0.0,0.0,-0.08321984,0
203707009,0.24358267,0.090507135,-0.000349562,0.0,0.0,-0.085320815,0
203712011,0.24356365,0.09066938,-0.0003091978,0.0,0.0,-0.085320815,0
203717004,0.22765297,0.060145903,-0.00058977585,0.0,0.0,-0.08725226,0
203722006,0.22756504,0.059929367,-0.0006666129,0.0,0.0,-0.08725226,0
203727013,0.23765145,0.071150504,-0.0005882174,0.0,0.0,-0.08970986,0
203732022,0.23755786,0.07115786,-0.0005470667,0.0,0.0,-0.08970986,0
203737029,0.24056935,0.080003515,-0.00037230595,0.0,0.0,-0.09154603,0
203742001,0.2401801,0.08003255,-0.00036847658,0.0,0.0,-0.09154603,0
203747009,0.23026255,0.066809915,-0.00040028663,0.0,0.0,-0.09387082,0
203752013,0.23039822,0.06685245,-0.0003891186,0.0,0.0,-0.09387082,0
203757012,0.24002971,0.07406233,-0.00041662552,0.0,0.0,-0.09627452,0
203762001,0.24008937,0.073764466,-0.00038468727,0.0,0.0,-0.09627452,0
203767007,0.24439259,0.078930415,-0.00040165795,0.0,0.0,-0.098353446,0
203772027,0.24440654,0.079003684,-0.0004051072,0.0,0.0,-0.098353446,0
203777010,0.23360513,0.09562992,-0.00027819705,0.0,0.0,-0.10067698,0
203781996,0.23363958,0.09569319,-0.00034871703,0.0,0.0,-0.10067698,0
203787000,0.24483941,0.069122225,-0.000587582,0.0,0.0,-0.10277118,0
203792014,0.24490581,0.06929265,-0.0006263364,0.0,0.0,-0.10277118,0
203797003,0.23252846,0.07695084,-0.0005510113,0.0,0.0,-0.10483312,0
203802025,0.2325998,0.07678019,-0.0005290356,0.0,0.0,-0.10483312,0
203807055,0.234707,0.07494931,-0.00047076432,0.0,0.0,-0.106995344,0
203812051,0.23449665,0.07485911,-0.00047607446,0.0,0.0,-0.106995344,0
203817028,0.24329737,0.086785175,-0.00043502255,0.0,0.0,-0.10932508,0
203821996,0.2434721,0.08661501,-0.00039087623,0.0,0.0,-0.10932508,0
203827028,0.22913505,0.08723398,-0.00035488894,0.0,0.0,-0.11147765,0
203832016,0.22931148,0.087179884,-0.0003136114,0.0,0.0,-0.11147765,0
203837002,0.22243626,0.0837671,-0.0003579281,0.0,0.0,-0.11388618,0
203841998,0.2223809,0.083823085,-0.0004313863,0.0,0.0,-0.11388618,0
203847013,0.23560673,0.09122911,-0.00040296582,0.0,0.0,-0.11591682,0
203852020,0.23523863,0.0911173,-0.00054876716,0.0,0.0,-0.11591682,0
203857020,0.25538024,0.07704023,-0.0007299206,0.0,0.0,-0.117848955,0
203862016,0.2554422,0.07690003,-0.0007007606,0.0,0.0,-0.117848955,0
203867028,0.2396009,0.07304539,-0.0006921232,0.0,0.0,-0.12100729,0
203872026,0.2393503,0.073496096,-0.0006953071,0.0,0.0,-0.12100729,0
203877002,0.24541569,0.081583954,-0.00066899846,0.0,0.0,-0.12291688,0
203882024,0.24539003,0.08132856,-0.00058003946,0.0,0.0,-0.12291688,0
203887003,0.24268112,0.06832836,-0.0005487371,0.0,0.0,-0.12503481,0
203892013,0.24304333,0.06829105,-0.0005395065,0.0,0.0,-0.12503481,0
203897002,0.24944244,0.071820475,-0.00047257094,0.0,0.0,-0.12794049,0
203902027,0.24897869,0.07204649,-0.000535971,0.0,0.0,-0.12794049,0
203907056,0.2566074,0.0703549,-0.0005698028,0.0,0.0,-0.12989978,0
203912015,0.25663692,0.070314355,-0.0005931092,0.0,0.0,-0.12989978,0
203917005,0.23301283,0.09026309,-0.000511834,0.0,0.0,-0.13254228,0
203922000,0.23283923,0.09020959,-0.0005975317,0.0,0.0,-0.13254228,0
203927005,0.24842942,0.09822211,-0.00055900414,0.0,0.0,-0.135055,0
203932022,0.24839729,0.09808897,-0.0004901419,0.0,0.0,-0.135055,0
203937025,0.22106054,0.08292338,-0.00061405706,0.0,0.0,-0.13746604,0
203941997,0.22126019,0.08281043,-0.0006743311,0.0,0.0,-0.13746604,0
203947036,0.2545207,0.07435534,-0.00084419886,0.0,0.0,-0.13998654,0
203952026,0.25436732,0.07412897,-0.0007412604,0.0,0.0,-0.13998654,0
203957032,0.24231508,0.06324269,-0.0006723708,0.0,0.0,-0.14212419,0
203962001,0.2422109,0.0633981,-0.0006390197,0.0,0.0,-0.14212419,0
203967004,0.24569568,0.07757607,-0.0006265843,0.0,0.0,-0.14471678,0
203972025,0.2456601,0.07762183,-0.00047880257,0.0,0.0,-0.14471678,0
203977008,0.23493423,0.10258828,-0.00025649602,0.0,0.0,-0.14753416,0
203981997,0.23543148,0.102890864,-0.00035945137,0.0,0.0,-0.14753416,0
203987031,0.24063428,0.081288815,-0.00065033324,0.0,0.0,-0.1498015,0
203992020,0.24101408,0.08104168,-0.00067945925,0.0,0.0,-0.1498015,0
203997005,0.24209683,0.08088202,-0.000668711,0.0,0.0,-0.1523384,0
204001999,0.24229698,0.0812184,-0.0006836626,0.0,0.0,-0.1523384,0
204007014,0.2552799,0.0673153,-0.0008955267,0.0,0.0,-0.15502632,0
204012042,0.2553513,0.06730313,-0.00084124843,0.0,0.0,-0.15502632,0
204017003,0.23515853,0.07352488,-0.0007951724,0.0,0.0,-0.15737644,0
204022001,0.2353709,0.073601164,-0.00082501414,0.0,0.0,-0.15737644,0
204027043,0.24355543,0.08237274,-0.0008150822,0.0,0.0,-0.160431,0
204032053,0.24360773,0.082448505,-0.0006526939,0.0,0.0,-0.160431,0
204037037,0.23978464,0.08573972,-0.0006638913,0.0,0.0,-0.16276386,0
204042027,0.23957133,0.08578759,-0.0007708417,0.0,0.0,-0.16276386,0
204047031,0.23669013,0.088289484,-0.00073698966,0.0,0.0,-0.16540013,0
204052045,0.23655027,0.08836569,-0.00073460606,0.0,0.0,-0.16540013,0
204057033,0.23675759,0.07676528,-0.0007773681,0.0,0.0,-0.16771373,0
204061966,0.23676205,0.07659745,-0.0008966513,0.0,0.0,-0.16771373,0
204067052,0.24260508,0.10037065,-0.00087577093,0.0,0.0,-0.17053947,0
204072071,0.24260622,0.10062771,-0.00073605706,0.0,0.0,-0.17053947,0
204077020,0.24977447,0.077634364,-0.0008502972,0.0,0.0,-0.17369553,0
204082016,0.24976136,0.07754084,-0.00083974743,0.0,0.0,-0.17369553,0
204087032,0.23704812,0.08288919,-0.0008647406,0.0,0.0,-0.17601387,0
204092071,0.23730777,0.0833298,-0.0006944302,0.0,0.0,-0.17601387,0
204097019,0.2578639,0.0778991,-0.00081195054,0.0,0.0,-0.17903146,0
204102020,0.25789645,0.077987306,-0.0008059119,0.0,0.0,-0.17903146,0
204107065,0.24498811,0.080154076,-0.00086460833,0.0,0.0,-0.18166806,0
204112029,0.2450687,0.080464326,-0.00096876826,0.0,0.0,-0.18166806,0
204117028,0.25591528,0.076326534,-0.00093686435,0.0,0.0,-0.18469362,0
204122026,0.2557518,0.07650474,-0.0010040989,0.0,0.0,-0.18469362,0
204127028,0.23238768,0.082092255,-0.0008112766,0.0,0.0,-0.18745321,0
204132064,0.23196018,0.08195097,-0.00097414234,0.0,0.0,-0.18745321,0
204137018,0.22866333,0.098677434,-0.00078031624,0.0,0.0,-0.19005059,0
204142015,0.22861011,0.09841576,-0.00067799544,0.0,0.0,-0.19005059,0
204147024,0.2506688,0.088641055,-0.00088897115,0.0,0.0,-0.19320671,0
204152032,0.2504175,0.08791628,-0.0009037246,0.0,0.0,-0.19320671,0
204157058,0.26672417,0.10280138,-0.000806913,0.0,0.0,-0.19655336,0
204162016,0.2663785,0.102424495,-0.00081714906,0.0,0.0,-0.19655336,0
204167052,0.26684365,0.08721323,-0.00085152575,0.0,0.0,-0.19946119,0
204172071,0.26652977,0.08728225,-0.0008674689,0.0,0.0,-0.19946119,0
204177021,0.26359305,0.074377045,-0.00086953293,0.0,0.0,-0.20208746,0
204182014,0.26403373,0.07442592,-0.0009009965,0.0,0.0,-0.20208746,0
204187034,0.26722077,0.09408899,-0.00085736584,0.0,0.0,-0.2048658,0
204192027,0.26718104,0.093962155,-0.00092284376,0.0,0.0,-0.2048658,0
204197048,0.2380316,0.06478801,-0.0010089903,0.0,0.0,-0.2079243,0
204202019,0.23814024,0.064737886,-0.0011661054,0.0,0.0,-0.2079243,0
204207066,0.24870776,0.08588564,-0.0010716583,0.0,0.0,-0.21055919,0
204212057,0.24862278,0.08552948,-0.0010260263,0.0,0.0,-0.21055919,0
204217023,0.22183962,0.062489524,-0.0010342071,0.0,0.0,-0.2136312,0
204222014,0.22189052,0.062374398,-0.0010212618,0.0,0.0,-0.2136312,0
204227021,0.25624683,0.07993352,-0.0009615069,0.0,0.0,-0.21696301,0
204232039,0.2561434,0.08004858,-0.0007566693,0.0,0.0,-0.21696301,0
204237050,0.2586061,0.09018294,-0.0007602694,0.0,0.0,-0.21975568,0
204242015,0.25872725,0.09014859,-0.00079068774,0.0,0.0,-0.21975568,0
204247032,0.23692727,0.069628246,-0.0007010894,0.0,0.0,-0.2225754,0
204252060,0.23661214,0.06952758,-0.0008694103,0.0,0.0,-0.2225754,0
204257051,0.24990933,0.08448811,-0.0009329859,0.0,0.0,-0.22558986,0
204262051,0.24944484,0.0841589,-0.000799944,0.0,0.0,-0.22558986,0
204267023,0.263479,0.09014152,-0.00097564555,0.0,0.0,-0.2292569,0
204272064,0.26303118,0.090435475,-0.0010606495,0.0,0.0,-0.2292569,0
204277019,0.23710302,0.065901525,-0.0009827658,0.0,0.0,-0.23242596,0
204282015,0.2374257,0.06606871,-0.00106186,0.0,0.0,-0.23242596,0
204287035,0.24279924,0.06979195,-0.001039114,0.0,0.0,-0.23508073,0
204292062,0.24292156,0.069481984,-0.0009815266,0.0,0.0,-0.23508073,0
204297016,0.25778675,0.07895242,-0.00068724033,0.0,0.0,-0.23843992,0
204302016,0.25793105,0.078843944,-0.0008155419,0.0,0.0,-0.23843992,0
204307066,0.24085133,0.06769889,-0.0008058796,0.0,0.0,-0.24164435,0
204312034,0.24070396,0.06836575,-0.00073392136,0.0,0.0,-0.24164435,0
204317045,0.26160863,0.07305234,-0.00077814836,0.0,0.0,-0.24458246,0
204322013,0.26137164,0.07294479,-0.0008501553,0.0,0.0,-0.24458246,0
204327027,0.2755167,0.08005675,-0.000829934,0.0,0.0,-0.24783039,0
204332029,0.27541646,0.08034307,-0.0009443355,0.0,0.0,-0.24783039,0
204337021,0.25822535,0.07906599,-0.0010071812,0.0,0.0,-0.25147104,0
204342023,0.25870526,0.07970165,-0.0009956957,0.0,0.0,-0.25147104,0
204347028,0.2890871,0.09324234,-0.0010537494,0.0,0.0,-0.25432712,0
204352068,0.28868908,0.092876546,-0.0009872167,0.0,0.0,-0.25432712,0
204357031,0.23164707,0.05803616,-0.0010937171,0.0,0.0,-0.25759715,0
204362049,0.23080991,0.057457812,-0.0011278563,0.0,0.0,-0.25759715,0
204367024,0.26449195,0.07351347,-0.0008800824,0.0,0.0,-0.26174256,0
204372073,0.2643548,0.07404038,-0.0009914393,0.0,0.0,-0.26174256,0
204377020,0.24202149,0.05817399,-0.001100522,0.0,0.0,-0.26414323,0
204382017,0.2418688,0.057695754,-0.0010923169,0.0,0.0,-0.26414323,0
204387020,0.2782399,0.060981408,-0.0010615138,0.0,0.0,-0.26707023,0
204392032,0.27749732,0.059967093,-0.0011811764,0.0,0.0,-0.26707023,0
204397030,0.26001385,0.06992857,-0.0010694668,0.0,0.0,-0.27301493,0
204402018,0.26044574,0.07201837,-0.0010413232,0.0,0.0,-0.27301493,0
204407044,0.25154012,0.062612124,-0.0010833506,0.0,0.0,-0.27337652,0
204412034,0.25160137,0.062058683,-0.0009959231,0.0,0.0,-0.27337652,0
204417021,0.2640013,0.06423144,-0.0011041737,0.0,0.0,-0.2751794,0
204422014,0.26458186,0.06250461,-0.0010233648,0.0,0.0,-0.2751794,0
204427023,0.24798739,0.08233039,-0.0007581318,0.0,0.0,-0.28329447,0
204432056,0.24815264,0.08423295,-0.00092756614,0.0,0.0,-0.28329447,0
204437020,0.2357404,0.066565424,-0.0010210283,0.0,0.0,-0.28263038,0
204442015,0.23577094,0.06547644,-0.00093783136,0.0,0.0,-0.28263038,0
204447028,0.2460057,0.071499184,-0.0011502354,0.0,0.0,-0.28760985,0
204452057,0.24531712,0.07197773,-0.001246487,0.0,0.0,-0.28760985,0
204457027,0.29019445,0.07893373,-0.0013666697,0.0,0.0,-0.29216215,0
204462020,0.28977507,0.079877436,-0.001421718,0.0,0.0,-0.29216215,0
204467027,0.22881167,0.050099034,-0.001455371,0.0,0.0,-0.29254308,0
204472072,0.2289432,0.04938861,-0.0015846475,0.0,0.0,-0.29254308,0
204477018,0.22214946,0.059254423,-0.0013920063,0.0,0.0,-0.29768217,0
204482015,0.22259727,0.05851793,-0.0012393937,0.0,0.0,-0.29768217,0
204487022,0.26629815,0.06755415,-0.0012286616,0.0,0.0,-0.3024836,0
204492028,0.26615807,0.06857079,-0.0010159923,0.0,0.0,-0.3024836,0
204497021,0.2630795,0.058853038,-0.0009923186,0.0,0.0,-0.30357558,0
204502027,0.262446,0.058023687,-0.0010338397,0.0,0.0,-0.30357558,0
204507066,0.24134499,0.06289968,-0.0009934762,0.0,0.0,-0.30867723,0
204512057,0.24149734,0.06445361,-0.001207842,0.0,0.0,-0.30867723,0
204517048,0.25561884,0.06820169,-0.0013608835,0.0,0.0,-0.31048384,0
204522040,0.25656727,0.06671441,-0.0014824884,0.0,0.0,-0.31048384,0
204527048,0.23393406,0.08725092,-0.0016336452,0.0,0.0,-0.31487232,0
204532057,0.23380068,0.08743152,-0.0015054647,0.0,0.0,-0.31487232,0
204537021,0.25336036,0.08171777,-0.0016541932,0.0,0.0,-0.3211693,0
204542016,0.2523083,0.08417552,-0.0018509174,0.0,0.0,-0.3211693,0
204547066,0.26038575,0.05396325,-0.0017950119,0.0,0.0,-0.32173902,0
204552036,0.26038158,0.053939156,-0.0017604354,0.0,0.0,-0.32173902,0
204557037,0.263378,0.07615457,-0.0016603215,0.0,0.0,-0.32521972,0
204562021,0.26422283,0.074980244,-0.0015354236,0.0,0.0,-0.32521972,0
204567021,0.24747139,0.07389718,-0.0014661407,0.0,0.0,-0.32915634,0
204572065,0.24726419,0.072428405,-0.0014128629,0.0,0.0,-0.32915634,0
204577025,0.25462914,0.067995965,-0.0015419523,0.0,0.0,-0.3359378,0
204582012,0.25391847,0.07069911,-0.0014232877,0.0,0.0,-0.3359378,0
204587023,0.26770958,0.032895636,-0.001793215,0.0,0.0,-0.33544657,0
204592033,0.26848584,0.030878013,-0.0019403058,0.0,0.0,-0.33544657,0
204597024,0.26570022,0.0678284,-0.0016673433,0.0,0.0,-0.34015337,0
204602022,0.2654855,0.067451335,-0.0019329198,0.0,0.0,-0.34015337,0
204607075,0.2339018,0.08030132,-0.0018613879,0.0,0.0,-0.34587532,0
204612070,0.23393735,0.081639946,-0.0017566497,0.0,0.0,-0.34587532,0
204617046,0.24872945,0.06986204,-0.0020278336,0.0,0.0,-0.34703386,0
204622015,0.24914907,0.0689161,-0.0020172028,0.0,0.0,-0.34703386,0
204627021,0.2537169,0.076298,-0.0019304177,0.0,0.0,-0.35145524,0
204632057,0.25323126,0.07621776,-0.0019546153,0.0,0.0,-0.35145524,0
204637020,0.2466932,0.07597566,-0.0020017577,0.0,0.0,-0.35788313,0
204642080,0.24659471,0.078153305,-0.0019977249,0.0,0.0,-0.35788313,0
204647022,0.26821673,0.06108269,-0.0022753219,0.0,0.0,-0.35761613,0
204652037,0.2679536,0.05869053,-0.002360702,0.0,0.0,-0.35761613,0
204657032,0.25536966,0.07622861,-0.0021098012,0.0,0.0,-0.36429727,0
204662021,0.25429097,0.07786769,-0.0023885837,0.0,0.0,-0.36429727,0
204667023,0.24279924,0.043085523,-0.0024573999,0.0,0.0,-0.36641517,0
204672066,0.2442833,0.04292565,-0.0025135996,0.0,0.0,-0.36641517,0
204677020,0.24674237,0.0514391,-0.002528587,0.0,0.0,-0.36795905,0
204682015,0.24635984,0.04978416,-0.0023968017,0.0,0.0,-0.36795905,0
204687023,0.2567059,0.08640851,-0.0021122252,0.0,0.0,-0.37809753,0
204692055,0.25606054,0.08943879,-0.0020018097,0.0,0.0,-0.37809753,0
204697039,0.26984003,0.066079415,-0.0023294762,0.0,0.0,-0.3746428,0
204702021,0.27051383,0.06265006,-0.0022844137,0.0,0.0,-0.3746428,0
204707064,0.23656802,0.068700634,-0.0024784675,0.0,0.0,-0.3834222,0
204712065,0.23549037,0.07058232,-0.0026530225,0.0,0.0,-0.3834222,0
204717021,0.25980055,0.0562782,-0.0028874564,0.0,0.0,-0.38789913,0
204722040,0.2603183,0.05665541,-0.002991309,0.0,0.0,-0.38789913,0
204727049,0.2518469,0.04776763,-0.0028632735,0.0,0.0,-0.3864147,0
204732034,0.25157127,0.046772745,-0.0030415065,0.0,0.0,-0.3864147,0
204737020,0.2335343,0.06709172,-0.0024613058,0.0,0.0,-0.39706647,0
204742018,0.23350021,0.06956895,-0.0025991271,0.0,0.0,-0.39706647,0
204747032,0.24303399,0.05216146,-0.002597311,0.0,0.0,-0.39430517,0
204752038,0.24304155,0.04953862,-0.0025867552,0.0,0.0,-0.39430517,0
204757025,0.23869075,0.07704222,-0.0023581947,0.0,0.0,-0.4030428,0
204762019,0.23870741,0.07760027,-0.002457879,0.0,0.0,-0.4030428,0
204767021,0.24398284,0.06146236,-0.0026345681,0.0,0.0,-0.4035305,0
204772125,0.24400598,0.05926322,-0.0026077987,0.0,0.0,-0.4035305,0
204777043,0.24967916,0.07312495,-0.0026785154,0.0,0.0,-0.4107528,0
204782017,0.2496527,0.074505106,-0.0025699236,0.0,0.0,-0.4107528,0
204787025,0.24491434,0.051924672,-0.003045274,0.0,0.0,-0.41112792,0
204792030,0.24566185,0.050293915,-0.002952172,0.0,0.0,-0.41112792,0
204797057,0.24243607,0.06001125,-0.0030335935,0.0,0.0,-0.4175497,0
204802019,0.24279112,0.06026802,-0.003119316,0.0,0.0,-0.4175497,0
204807082,0.25785866,0.058134794,-0.0030560049,0.0,0.0,-0.4206379,0
204812058,0.25826612,0.057504434,-0.003079299,0.0,0.0,-0.4206379,0
204817027,0.24585533,0.044391472,-0.0031379242,0.0,0.0,-0.42517087,0
204822012,0.24587521,0.044850986,-0.0030376199,0.0,0.0,-0.42517087,0
