timestamp,timestamp_sample,states[0],states[1],states[2],states[3],states[4],states[5],states[6],states[7],states[8],states[9],states[10],states[11],states[12],states[13],states[14],states[15],states[16],states[17],states[18],states[19],states[20],states[21],states[22],states[23],covariances[0],covariances[1],covariances[2],covariances[3],covariances[4],covariances[5],covariances[6],covariances[7],covariances[8],covariances[9],covariances[10],covariances[11],covariances[12],covariances[13],covariances[14],covariances[15],covariances[16],covariances[17],covariances[18],covariances[19],covariances[20],covariances[21],covariances[22],n_states
201024187,200833649,-0.461916,0.014788815,-0.015599422,0.88666314,-0.00013304225,-0.010146464,0.03598903,0.044742342,-0.9892403,-3.0952528,-0.002299643,-0.003486563,0.00080240116,-0.003365923,-0.012357107,0.025058245,0.14494193,0.025821354,0.49669087,0.0007037276,0.00025033593,-0.007518076,0.0,0.0,3.287699e-05,3.2854747e-05,0.050062336,0.0062386952,0.0062445085,0.0042777373,0.030030759,0.030055668,0.052925028,1.8868265e-07,1.8887975e-07,3.939643e-07,0.0019372689,0.0019856917,1.541679e-05,0.0012120031,4.121394e-05,0.0012509639,0.0011638406,0.0011639728,0.0012500312,1.0,1.0,24
202024206,201833648,-0.4623327,0.0147478515,-0.015702931,0.8864448,-0.005560517,-0.0067022047,0.03820608,0.038404457,-1.000532,-3.0522382,-0.0022994555,-0.003492572,0.0007834484,-0.003368814,-0.012355528,0.02509261,0.14497755,0.0258258,0.4966808,0.0007312496,0.00023771267,-0.007514036,0.0,0.0,3.288891e-05,3.286233e-05,0.050058275,0.006242376,0.0062503116,0.0042847116,0.030194925,0.030219724,0.05329548,1.8868741e-07,1.8888232e-07,3.9392282e-07,0.0019373613,0.0019857849,1.5401134e-05,0.0012119821,4.120267e-05,0.0012509641,0.0011637517,0.0011638945,0.0012500265,1.0,1.0,24
203024172,202833648,-0.46275192,0.014784403,-0.015740104,0.88622487,-0.013088247,-0.0039311005,0.03765704,0.017838668,-1.013823,-3.0118792,-0.0023000378,-0.003485796,0.0007652992,-0.0033742562,-0.012348904,0.025122253,0.14503245,0.025833683,0.4966657,0.00076277653,0.00020499046,-0.007506661,0.0,0.0,3.29047e-05,3.2868058e-05,0.05004548,0.0062458497,0.006251332,0.0042831437,0.030329732,0.030354403,0.05339042,1.8868414e-07,1.8887947e-07,3.9388644e-07,0.0019374524,0.001985878,1.5384934e-05,0.0012119407,4.1190997e-05,0.0012509626,0.0011635184,0.0011636806,0.0012500212,1.0,1.0,24
204024172,203833648,-0.46312848,0.014752515,-0.015838541,0.88602686,-0.017727135,0.00090745854,0.042427186,-0.0070938207,-1.0151291,-2.9609952,-0.0022957688,-0.003484738,0.00074734894,-0.003373897,-0.012347144,0.025119718,0.14509995,0.025843993,0.49664962,0.0007982759,0.00015833882,-0.007501383,0.0,0.0,3.2915705e-05,3.2872114e-05,0.05003051,0.0062443363,0.0062503903,0.004288069,0.030449897,0.030474499,0.053694535,1.8867888e-07,1.8887971e-07,3.9383727e-07,0.0019375433,0.0019859707,1.536951e-05,0.001211864,4.117857e-05,0.0012509603,0.0011632876,0.0011634598,0.0012500152,1.0,1.0,24
205024203,204833648,-0.46314684,0.014089317,-0.015445453,0.88603497,-0.020189913,0.015542756,0.0318236,-0.013300804,-1.0126413,-2.9140434,-0.0023202293,-0.00349056,0.0007289944,-0.0033862675,-0.012347732,0.025120925,0.14520067,0.0258598,0.4966211,0.0009487789,0.00016709448,-0.0075005186,0.0,0.0,3.2945336e-05,3.288614e-05,0.04999202,0.006265046,0.0062636877,0.0042868056,0.030570827,0.030595498,0.053770546,1.8928151e-07,1.8950364e-07,3.9651434e-07,0.0019376315,0.0019860622,1.5353542e-05,0.0012117666,4.1165746e-05,0.0012509453,0.0011627334,0.0011629417,0.001249996,1.0,1.0,24
206024171,205833648,-0.48812544,-0.011785263,-0.0019410038,0.87269175,0.19072074,-0.061969113,-0.270952,0.04427151,-1.0400332,-2.9616003,-0.0023368793,-0.0034958331,0.0007027714,-0.0035015084,-0.012267782,0.025109973,0.14849243,0.026444009,0.4969501,0.0018440991,-0.0036339737,-0.008104339,0.0,0.0,3.280249e-05,3.2802775e-05,0.04782351,0.006487132,0.007599589,0.0042912657,0.030669574,0.030698478,0.054054733,1.8988179e-07,1.9008907e-07,3.9947966e-07,0.0019375746,0.0019859883,1.5337948e-05,0.0011925272,4.0550476e-05,0.0012324069,0.0011376394,0.0011233526,0.0012314769,1.0,1.0,24
207024200,206833649,-0.51879984,0.020506904,-0.012524097,0.85455805,-0.019288206,0.05136675,-0.70093966,0.19167313,-1.0523521,-3.4142773,-0.0023615311,-0.0034856726,0.0006855887,-0.0035145849,-0.012133043,0.024927713,0.15087223,0.026869854,0.49682516,0.0026552666,-0.0062326407,-0.00824101,0.0,0.0,3.2402408e-05,3.2356726e-05,0.04196706,0.006538115,0.006855231,0.004295464,0.030753022,0.030787334,0.054290216,1.904093e-07,1.904537e-07,4.0233422e-07,0.0019360286,0.0019841022,1.5311982e-05,0.0011131328,3.8032464e-05,0.001229913,0.0010569436,0.0010005407,0.0012288323,1.0,1.0,24
208024200,207833648,-0.49808455,0.00535114,0.0021812697,0.8671093,-0.19951256,0.07651643,-1.0421436,0.08388725,-1.034718,-4.266122,-0.002398479,-0.0034768472,0.0006745465,-0.003939,-0.012093065,0.02472209,0.15352489,0.027346957,0.49696758,0.002653967,-0.010026287,-0.0086720195,0.0,0.0,3.2114323e-05,3.1856725e-05,0.034496848,0.0065329513,0.0075622457,0.0042984164,0.03087932,0.030911848,0.05425983,1.9067714e-07,1.9156654e-07,4.0656758e-07,0.0019309188,0.0019803299,1.5273628e-05,0.00102171,3.5138342e-05,0.0012274027,0.00093817624,0.0008638364,0.0012259117,1.0,1.0,24
209024108,208833648,-0.44702056,0.041257024,0.021443259,0.89331454,-0.16755779,-0.15666144,-1.2093965,-0.05093447,-1.0034878,-5.412818,-0.0023857562,-0.0034949267,0.0006692471,-0.0039167865,-0.012613836,0.024604194,0.14709336,0.023789063,0.48973307,9.2264e-05,0.0024096395,-0.014174551,0.0,0.0,3.236234e-05,3.1597476e-05,0.062040478,0.008876199,0.0064465264,0.004311019,0.03102673,0.031051408,0.054456037,1.9165843e-07,1.9399947e-07,4.1545954e-07,0.0019265562,0.0019760018,1.5226016e-05,0.0013092003,0.0016102797,0.0012982312,0.0014526662,0.0014647521,0.0012985574,1.0,1.0,24
210024147,209833648,-0.5308389,0.08498787,0.046875387,0.84189665,-0.73252094,-1.1819856,-1.4060935,-0.47470686,-1.6478009,-6.7709246,-0.0024039939,-0.0034938648,0.00067148515,-0.0039941673,-0.012858451,0.02459423,0.14590286,0.026449682,0.4892072,-0.002858328,0.00041376762,-0.014225562,0.0,0.0,3.2753447e-05,3.3580094e-05,0.019549284,0.019733343,0.010041965,0.004328625,0.031332064,0.031175094,0.05437588,1.9821316e-07,1.9522024e-07,4.253239e-07,0.0019262482,0.0019742257,1.5175344e-05,0.0012031253,0.001307689,0.0012233641,0.0012233149,0.0012638408,0.0012252203,1.0,1.0,24
212023955,211833648,-0.55801207,0.010590173,0.0062561654,0.8297417,-1.1519378,-2.6417735,-1.7566309,-2.7676585,-5.9938874,-9.916013,-0.002403942,-0.00350657,0.0006723066,-0.004234661,-0.014258006,0.024420517,0.14511046,0.025370134,0.48922896,-0.0037193045,0.0003941644,-0.014693211,0.0,0.0,3.2635908e-05,4.0286894e-05,0.0035978127,0.0070883264,0.0065045264,0.00434607,0.03154353,0.031314112,0.05462632,2.1630066e-07,1.9535273e-07,4.4513504e-07,0.0019216063,0.0019577004,1.5043718e-05,0.00097314414,0.0009871877,0.0011739526,0.00094520365,0.0009917401,0.0011742212,1.0,1.0,24
213023950,212833648,-0.5527745,-0.05934531,-0.044127606,0.830043,-0.7917986,-2.0980353,-0.702936,-3.8479812,-8.475126,-10.947065,-0.0023575604,-0.0035141937,0.00066531735,-0.0020031226,-0.012468603,0.024770917,0.14449364,0.02492332,0.48964462,-0.004832513,0.0002737999,-0.014716674,0.0,0.0,3.27336e-05,4.1634557e-05,0.003458324,0.007430246,0.0069460673,0.004334856,0.031529892,0.031422928,0.054613475,2.1623039e-07,1.964375e-07,4.547471e-07,0.0019083588,0.0019412332,1.49646385e-05,0.0009355843,0.00090834877,0.0010780517,0.0008577166,0.00095738197,0.00107848,1.0,1.0,24
214023943,213833648,-0.5689289,-0.024417512,-0.036446664,0.82121575,-0.10624185,-0.6318939,-0.62717485,-4.218969,-9.7280035,-11.606546,-0.0023561304,-0.0035235789,0.0006672296,-0.0017850876,-0.012437223,0.02481953,0.1440083,0.025540689,0.49062884,-0.0045605884,0.0005231495,-0.016029533,0.0,0.0,3.2358526e-05,3.4168675e-05,0.0019193022,0.0116080195,0.007545383,0.004370903,0.0317766,0.03177862,0.055172477,1.9796077e-07,1.9647189e-07,4.6356976e-07,0.0018944535,0.0019287198,1.49052985e-05,0.0009024105,0.0007632478,0.0008984643,0.0007196128,0.00092596444,0.00090009795,1.0,1.0,24
215023972,214833648,-0.5780493,0.02010794,-0.0032937883,0.81574744,0.076226644,-0.015687121,-0.7065683,-4.21167,-9.890838,-12.223216,-0.0023329419,-0.003543743,0.0006645817,-0.0018611616,-0.013656177,0.024582107,0.14346138,0.026161835,0.49084193,-0.0049140095,0.000804334,-0.016469987,0.0,0.0,3.24022e-05,3.2583463e-05,0.0012118166,0.008897183,0.0069995984,0.0044269986,0.032709792,0.03260258,0.056038085,1.967255e-07,1.9646332e-07,4.7309152e-07,0.0018898661,0.001920703,1.4862568e-05,0.0008631103,0.0007045528,0.0008725072,0.0006740774,0.00088044145,0.000875416,1.0,1.0,24
216023944,215833648,-0.56438714,0.037197214,0.0005196982,0.8246717,0.15250216,0.21380796,-0.6957345,-4.0726705,-9.787384,-12.835328,-0.0023488551,-0.0035429988,0.00066563603,-0.003157774,-0.014567657,0.024275681,0.14308894,0.025686752,0.49087703,-0.0051469128,0.0009720247,-0.016562983,0.0,0.0,3.256164e-05,3.3174816e-05,0.0010617422,0.007766951,0.007120107,0.004544709,0.03431328,0.034116346,0.05789046,1.9961585e-07,1.9682402e-07,4.8278724e-07,0.0018868207,0.0019152239,1.4836229e-05,0.00083865674,0.00068369455,0.0008662384,0.0006590068,0.0008526699,0.0008700736,1.0,1.0,24
217023942,216833648,-0.55823994,0.05341922,0.019347845,0.82773197,-0.15513241,-0.24512853,-0.57483405,-4.0287066,-9.788917,-13.3149805,-0.0024031496,-0.003516739,0.00066180667,-0.0054808967,-0.015467524,0.023895537,0.14256349,0.025058933,0.4908392,-0.005677858,0.0012544596,-0.016554879,0.0,0.0,3.2321575e-05,3.3406603e-05,0.0010404711,0.0068602306,0.006918532,0.0045712553,0.034963503,0.034820776,0.059510287,2.0002e-07,1.9602834e-07,4.922842e-07,0.0018831303,0.0019125614,1.4810321e-05,0.00082085724,0.00066055864,0.00081554195,0.0006288036,0.0008423277,0.00081957073,1.0,1.0,24
218023948,217833648,-0.5648075,0.10530784,0.0550591,0.81662196,-0.07917742,-0.015075663,-0.62793833,-4.109868,-9.870348,-13.735569,-0.0023893777,-0.0034912394,0.0006628968,-0.008942345,-0.017088084,0.023339218,0.14205827,0.025003385,0.4904834,-0.005972144,0.0016614463,-0.016421203,0.0,0.0,3.1936812e-05,3.315228e-05,0.0010422043,0.006502156,0.0065306323,0.0045048795,0.034603104,0.0345184,0.05986712,1.9859112e-07,1.9509925e-07,5.0179193e-07,0.0018779109,0.001911319,1.4784656e-05,0.000810313,0.00065008097,0.0008047573,0.0006180524,0.00083237723,0.0008089037,1.0,1.0,24
219023945,218833648,-0.5645853,0.010501224,-0.0061339284,0.82528514,-0.5348409,-1.4929967,-0.74206793,-4.527311,-10.96532,-14.211239,-0.0024431462,-0.0034575982,0.00064648147,-0.012275685,-0.018306486,0.022957254,0.14156634,0.024868593,0.49049312,-0.007011755,0.0015044948,-0.016467487,0.0,0.0,3.1672775e-05,3.2367145e-05,0.00091710634,0.007631826,0.0066380054,0.004493599,0.034372263,0.034366433,0.06011958,1.9519132e-07,1.9479654e-07,5.1068184e-07,0.0018697749,0.0019102483,1.47697465e-05,0.0007769348,0.00056878873,0.0006486698,0.0005181776,0.00081672263,0.0006512543,1.0,1.0,24
220023946,219833648,-0.55929273,0.04837324,0.01958592,0.82732594,-0.45346034,-1.1924534,-0.4982937,-5.0933933,-12.244529,-14.658167,-0.0023884808,-0.003423767,0.00065046654,-0.015440893,-0.01918652,0.022627557,0.14135046,0.02474067,0.49027508,-0.006906039,0.0019500138,-0.016273625,0.0,0.0,3.156049e-05,3.2258995e-05,0.00087494915,0.00648388,0.0063726446,0.004495356,0.034353025,0.03435515,0.06025283,1.9446057e-07,1.9446819e-07,5.200075e-07,0.0018600725,0.0019090412,1.4763761e-05,0.0007741821,0.00056521397,0.0006453573,0.00051498105,0.0008134531,0.00064801046,1.0,1.0,24
221023942,220833648,-0.55761874,0.0073500494,-0.014440488,0.829939,-0.35312897,-0.9464595,-0.39127678,-5.561442,-13.410989,-14.90968,-0.0023742751,-0.0034189671,0.0006498072,-0.019109642,-0.019948304,0.022307565,0.14124331,0.024546154,0.49014705,-0.00691801,0.002009919,-0.016211528,0.0,0.0,3.1524123e-05,3.2364398e-05,0.0008773376,0.0063768616,0.006375933,0.004497533,0.034439974,0.03444259,0.06008638,1.9439462e-07,1.9413852e-07,5.2885815e-07,0.0018476663,0.0019074844,1.4764464e-05,0.0007697551,0.00056090934,0.0006402814,0.0005105048,0.0008089591,0.00064301456,1.0,1.0,24
222023943,221833648,-0.5782739,0.015542393,-0.012769215,0.81559473,-0.020790212,-0.13781132,-0.41173553,-5.754741,-13.865758,-15.139802,-0.002334102,-0.003466215,0.0006327532,-0.024096943,-0.020297257,0.021955634,0.14133807,0.024596412,0.49024957,-0.006618058,0.001850338,-0.016421359,0.0,0.0,3.1217824e-05,3.2168362e-05,0.0008698978,0.0066919313,0.0064139967,0.0044798697,0.0343764,0.034376673,0.060028054,1.9414118e-07,1.935365e-07,5.356668e-07,0.0018334928,0.0019059487,1.4770196e-05,0.00076338573,0.0005474708,0.0006270949,0.0004992273,0.00080023316,0.00063013344,1.0,1.0,24
223023942,222833648,-0.5653835,0.022415204,-0.0027313484,0.8245191,-0.057140153,-0.16679326,-0.43379956,-5.7498465,-13.945567,-15.391132,-0.0023354962,-0.0034975018,0.00063131854,-0.029240442,-0.02082046,0.021530474,0.14136817,0.024259007,0.49026424,-0.0065868595,0.0016551084,-0.016475564,0.0,0.0,3.094428e-05,3.2073465e-05,0.00085864356,0.006376802,0.006343859,0.0044314335,0.0342756,0.034272958,0.059508856,1.9442544e-07,1.9313778e-07,5.425277e-07,0.0018215835,0.0019052073,1.47796945e-05,0.0007488223,0.0005383549,0.00062501366,0.0004923318,0.0007836472,0.00062828657,1.0,1.0,24
224023946,223833648,-0.5850325,-0.012852199,0.007962233,0.81086886,-0.10260502,-0.06525896,-0.41090435,-5.936267,-14.028816,-15.640292,-0.0023182605,-0.0035174715,0.00062630145,-0.033678774,-0.021574864,0.02108689,0.14160046,0.024030274,0.49007082,-0.0064055463,0.0013898899,-0.016322885,0.0,0.0,3.0798084e-05,3.2017386e-05,0.0008681549,0.006323321,0.0063230107,0.004398511,0.03416601,0.034163505,0.059205513,1.94364e-07,1.9275129e-07,5.506716e-07,0.0018130583,0.0019043067,1.4783419e-05,0.00074141304,0.0005334626,0.0006202059,0.00048773337,0.000776282,0.00062334805,1.0,1.0,24
225023944,224833648,-0.5459043,0.017708441,-0.0050954935,0.83764493,0.080720514,0.09469814,-0.47311836,-5.9021873,-14.038823,-15.925634,-0.0023436532,-0.0034869674,0.0006358804,-0.0365833,-0.022629865,0.020671938,0.14148389,0.023937847,0.4900858,-0.0064140586,0.0014894191,-0.016349377,0.0,0.0,3.0705687e-05,3.1987784e-05,0.000879495,0.006363187,0.0063675446,0.004391231,0.03410966,0.034109414,0.05895465,1.9436787e-07,1.925357e-07,5.584842e-07,0.001807078,0.0019033641,1.4780241e-05,0.00073337514,0.0005284525,0.00061473635,0.00048236203,0.0007688396,0.00061765336,1.0,1.0,24
226023950,225833648,-0.5587351,0.031240111,-0.01099354,0.8286847,0.011436086,0.04263514,-0.4129473,-5.841756,-13.979214,-16.209196,-0.0023587188,-0.0034753499,0.0006380963,-0.03890751,-0.023831695,0.02026773,0.14146106,0.02387224,0.4900563,-0.006403476,0.0015029365,-0.016336596,0.0,0.0,3.0639796e-05,3.1917683e-05,0.0008926069,0.0063432027,0.0063454066,0.0043783365,0.03409698,0.034099024,0.05854619,1.9399562e-07,1.9219029e-07,5.6612635e-07,0.0018015936,0.0019010247,1.4767963e-05,0.00073131354,0.0005273273,0.0006134208,0.0004812746,0.0007665973,0.0006162831,1.0,1.0,24
227023945,226833648,-0.5642061,0.020521615,0.03606109,0.8245908,-0.09271406,0.07498966,-0.36182997,-5.942396,-13.876149,-16.472145,-0.002365414,-0.0034783396,0.00063850125,-0.04066514,-0.025079299,0.019883828,0.14153707,0.023852402,0.48991016,-0.006317856,0.0014362609,-0.01621238,0.0,0.0,3.062742e-05,3.1861848e-05,0.0009047573,0.0063234153,0.0063261967,0.0043807966,0.034078855,0.034082215,0.05845189,1.9344552e-07,1.9187104e-07,5.7388576e-07,0.001797342,0.0018980633,1.4746531e-05,0.0007260234,0.0005248492,0.0006092334,0.00047919012,0.0007610896,0.0006118553,1.0,1.0,24
228023947,227833648,-0.53933954,0.020444037,0.032936662,0.84119564,-0.057381436,-0.037795976,-0.42876863,-6.02173,-13.861969,-16.701338,-0.002360105,-0.0034727168,0.00063653715,-0.042057667,-0.026759094,0.019521626,0.14147018,0.02391987,0.48986027,-0.006196069,0.0016571719,-0.01614028,0.0,0.0,3.0649797e-05,3.1779935e-05,0.00091627135,0.0063894805,0.0063484386,0.0043834667,0.034060575,0.03406439,0.058074437,1.9283854e-07,1.9162864e-07,5.8098016e-07,0.0017940816,0.0018941305,1.4711597e-05,0.0007160845,0.00052292476,0.0006024028,0.0004772958,0.00075098715,0.00060480734,1.0,1.0,24
229023943,228833648,-0.57872796,0.029876687,0.0022555469,0.81497014,0.22198896,-0.18053713,-0.37861854,-5.933465,-14.01172,-16.932446,-0.002352582,-0.0034694541,0.0006391188,-0.04347167,-0.02887397,0.019107267,0.14147969,0.024081562,0.48961988,-0.005974875,0.0018237869,-0.015929775,0.0,0.0,3.0589516e-05,3.163493e-05,0.00092342356,0.0063685835,0.006335733,0.004381158,0.033982214,0.033984505,0.057878036,1.9228162e-07,1.9141821e-07,5.8762595e-07,0.0017912963,0.0018890569,1.46663515e-05,0.0006992948,0.00051705056,0.0005943989,0.00047308326,0.00073263707,0.0005963885,1.0,1.0,24
230023946,229833648,-0.5735906,0.01580882,0.014516163,0.818861,0.06893111,-0.08676229,-0.38588345,-5.8932114,-14.14724,-17.154564,-0.0023342643,-0.0034397591,0.000643716,-0.044540793,-0.030924594,0.018748611,0.14167367,0.024167696,0.48954317,-0.0057547884,0.0018367025,-0.015903419,0.0,0.0,3.0562416e-05,3.1578085e-05,0.00093841803,0.0063093067,0.0063080206,0.00437958,0.033853974,0.033855487,0.057620637,1.9198804e-07,1.9127219e-07,5.943875e-07,0.0017898601,0.0018848855,1.4618839e-05,0.00069447706,0.000513469,0.0005912995,0.000469778,0.00072746974,0.00059319445,1.0,1.0,24
231023948,230833648,-0.56014246,0.016467461,0.0035802007,0.82822496,0.072315164,0.019658042,-0.5028764,-5.8649697,-14.188447,-17.422773,-0.00232692,-0.0034281348,0.0006446975,-0.045339603,-0.03279612,0.018417193,0.14168723,0.024204012,0.4895482,-0.0056988355,0.001947334,-0.015894813,0.0,0.0,3.0510815e-05,3.15089e-05,0.00095632934,0.006335977,0.0063391533,0.0043691574,0.033720367,0.033722736,0.057089366,1.9177611e-07,1.9108838e-07,6.006947e-07,0.0017887879,0.0018804809,1.4567435e-05,0.00069256575,0.00051212276,0.0005898662,0.00046840956,0.0007256062,0.00059164915,1.0,1.0,24
232023941,231833648,-0.56080997,0.0124091515,0.004013413,0.8278418,0.07855546,-0.0862333,-0.41012862,-5.802649,-14.16106,-17.727633,-0.002321204,-0.003441551,0.0006478696,-0.04620104,-0.034745336,0.018053079,0.14174013,0.024155546,0.48952702,-0.0056740907,0.0019459948,-0.01586265,0.0,0.0,3.0448551e-05,3.143626e-05,0.0009749128,0.0062973024,0.006294003,0.004358109,0.033577967,0.033580966,0.056822803,1.9159431e-07,1.9092063e-07,6.065086e-07,0.0017877416,0.0018762394,1.4518217e-05,0.00069199025,0.0005115041,0.0005887575,0.00046764113,0.0007251625,0.00059049064,1.0,1.0,24
233023973,232833648,-0.5676936,0.03276323,-0.012932057,0.82248604,0.0049786232,0.023103284,-0.35342818,-5.7499084,-14.154287,-18.015665,-0.0023144342,-0.0034511494,0.0006527393,-0.046882857,-0.03629317,0.01773595,0.14172247,0.024075871,0.48958015,-0.005734338,0.0019770486,-0.015912026,0.0,0.0,3.0449475e-05,3.142563e-05,0.000994356,0.006261514,0.006276308,0.0043421383,0.033429403,0.033433657,0.056289755,1.9145132e-07,1.9082147e-07,6.122664e-07,0.0017868676,0.0018726413,1.4472203e-05,0.0006902143,0.00050957856,0.0005872333,0.00046634232,0.0007225835,0.00058902457,1.0,1.0,24
235023951,234833648,-0.57552433,0.003211352,0.007420164,0.8177448,0.18394363,0.025316738,-0.2506563,-5.9735537,-14.004033,-18.474949,-0.0022725125,-0.0034641495,0.0006618914,-0.04828427,-0.039319374,0.01711262,0.14195322,0.024063682,0.48957664,-0.0055790055,0.0019796751,-0.015951037,0.0,0.0,3.0513003e-05,3.1424144e-05,0.0010301919,0.006244085,0.0063147843,0.004341566,0.0331643,0.033169888,0.05580535,1.9117778e-07,1.906169e-07,6.2185455e-07,0.0017849352,0.0018650863,1.4381597e-05,0.0006780423,0.00050522503,0.00057978113,0.00046281313,0.00070953195,0.000581376,1.0,1.0,24
237023957,236833648,-0.5629964,0.006415914,-0.001750987,0.8264326,0.028666243,-0.018526543,-0.30931753,-5.7833767,-14.154692,-18.921972,-0.0022398087,-0.0034800777,0.0006553821,-0.048950985,-0.041122586,0.016702639,0.14239766,0.023999015,0.48928565,-0.005349706,0.0016406658,-0.0157637,0.0,0.0,3.0483729e-05,3.1437074e-05,0.0010664688,0.006269171,0.006276108,0.004321378,0.03292756,0.032934044,0.05511762,1.909807e-07,1.9056897e-07,6.2992183e-07,0.0017842441,0.0018600305,1.4301553e-05,0.000668743,0.0004977129,0.00057509105,0.00045656186,0.00069837796,0.00057677843,1.0,1.0,24
238023981,237833648,-0.5809755,0.011635203,-0.012684667,0.81373906,0.016743986,-0.08199833,-0.36102453,-5.7446475,-14.22444,-19.183968,-0.0022509631,-0.0034854657,0.0006562504,-0.04931226,-0.04210792,0.016428443,0.14250226,0.02391967,0.4892215,-0.0053400393,0.0015327679,-0.015718058,0.0,0.0,3.0453575e-05,3.139257e-05,0.0010889194,0.0062758913,0.0062864763,0.004305284,0.032795418,0.032802932,0.054622665,1.9088743e-07,1.9048501e-07,6.337959e-07,0.001784084,0.0018583643,1.4267756e-05,0.0006663478,0.00049539446,0.00057276245,0.0004549047,0.0006950671,0.00057454855,1.0,1.0,24
239023948,238833648,-0.5823876,-0.007771145,-0.0005312189,0.812874,-0.0919651,0.13602284,-0.26852348,-5.7905617,-14.230282,-19.458136,-0.002264072,-0.0034784279,0.0006630182,-0.049659334,-0.04302239,0.016122576,0.14250785,0.023598006,0.4892985,-0.0056218943,0.001398097,-0.015764976,0.0,0.0,3.0439536e-05,3.1337975e-05,0.0011105044,0.0062651183,0.0062436,0.004301781,0.03264309,0.032651234,0.0543514,1.908385e-07,1.9041968e-07,6.3792066e-07,0.0017839788,0.0018571896,1.42388535e-05,0.00066032365,0.0004888408,0.00056986837,0.00045016213,0.0006867765,0.0005718813,1.0,1.0,24
240023948,239833648,-0.5527859,-0.067234136,0.069650754,0.8276811,1.1669823,0.054005854,0.48292094,-5.531097,-14.132941,-19.318054,-0.0022774313,-0.0034354432,0.00070560566,-0.05009526,-0.04299164,0.016074536,0.14199461,0.023561763,0.48921955,-0.0057811183,0.001894764,-0.01564186,0.0,0.0,3.0712657e-05,3.1676638e-05,0.0011070765,0.0060423855,0.0072669266,0.0043153516,0.03246706,0.032481432,0.054086063,1.913507e-07,1.9081774e-07,6.358704e-07,0.0017834265,0.0018549638,1.4206692e-05,0.0005674512,0.0004850372,0.00049949525,0.00044396424,0.00059687684,0.00050051656,1.0,1.0,24
241023947,240833648,-0.54844046,0.023989879,-0.008225919,0.835805,1.5690956,-0.06883901,0.1004628,-3.9332707,-14.18085,-18.921263,-0.0022871625,-0.0034253208,0.0007363129,-0.050184187,-0.044255253,0.015759384,0.14225857,0.02327234,0.48970193,-0.0058445493,0.0017612629,-0.016137,0.0,0.0,3.11553e-05,3.1778985e-05,0.0009917433,0.006277445,0.0066719516,0.004314664,0.032305524,0.032357838,0.053612538,1.9161884e-07,1.919661e-07,6.162602e-07,0.0017828288,0.0018526264,1.4167099e-05,0.00054731267,0.00048328764,0.00048528466,0.00044131637,0.0005781511,0.0004861994,1.0,1.0,24
242023943,241833648,-0.5605497,0.05153963,-0.025644759,0.8261176,0.60483986,0.00034895353,-0.11490709,-2.8215013,-14.225888,-18.792284,-0.0022884393,-0.003420791,0.0007385806,-0.05020031,-0.046575833,0.015264363,0.14221406,0.023235844,0.4896265,-0.0058723157,0.0019262538,-0.016100207,0.0,0.0,3.0874617e-05,3.142935e-05,0.000994601,0.0063341428,0.006668469,0.004309219,0.03216026,0.032186247,0.053385492,1.9104272e-07,1.9152213e-07,6.149932e-07,0.0017817566,0.0018482688,1.4118591e-05,0.00053617085,0.0004817394,0.0004767904,0.000440761,0.00056602084,0.00047768318,1.0,1.0,24
243023972,242833648,-0.56453425,0.031952027,-0.011563593,0.82470995,-0.11205301,-0.022069747,-0.09862097,-2.6406372,-14.208587,-18.790327,-0.002270484,-0.0034425987,0.0007619426,-0.050307002,-0.047811866,0.014953978,0.14233497,0.02300238,0.48959845,-0.005770177,0.001940728,-0.016097171,0.0,0.0,3.0437777e-05,3.1133102e-05,0.0009486736,0.006275488,0.0070041954,0.0042993645,0.031997852,0.032007158,0.052907106,1.904411e-07,1.903747e-07,6.0985843e-07,0.0017813647,0.0018441399,1.4071613e-05,0.00052651664,0.00048012813,0.00046927534,0.0004402067,0.0005554882,0.0004703326,1.0,1.0,24
244023943,243833648,-0.5624674,0.064296685,-0.034546517,0.8235915,-1.7680815,-0.037575822,-0.14255191,-3.4849238,-14.206345,-18.861897,-0.0022491447,-0.0034644783,0.0007873986,-0.050311767,-0.048836496,0.014671045,0.1419082,0.022741372,0.48968676,-0.0057479795,0.002536483,-0.01623166,0.0,0.0,3.0925738e-05,3.0894524e-05,0.0008440035,0.006253399,0.008525117,0.0043232418,0.031844392,0.031890817,0.05265273,1.9024256e-07,1.909552e-07,5.9920603e-07,0.0017811473,0.0018408106,1.4030694e-05,0.00046521105,0.00047755576,0.00042047087,0.00043620967,0.0004962464,0.00042136168,1.0,1.0,24
245023942,244833648,-0.5671309,-0.019190121,0.024160733,0.8230495,-1.315939,0.072901,-0.09182791,-5.240331,-14.17937,-18.926266,-0.0022229238,-0.0034726565,0.0008008967,-0.05043941,-0.049413525,0.014487222,0.14192618,0.022578467,0.48961174,-0.0057601,0.0025396035,-0.016155051,0.0,0.0,3.2137214e-05,3.0776595e-05,0.000777159,0.006212284,0.006246739,0.004281859,0.031699497,0.031764157,0.052394107,1.9043685e-07,1.9307261e-07,5.954887e-07,0.0017808584,0.0018391381,1.400332e-05,0.0004601972,0.0004761443,0.00041609627,0.00043511525,0.0004915102,0.0004169365,1.0,1.0,24
246023948,245833648,-0.55833274,-0.014363802,0.025467327,0.82910174,-0.19186927,-0.036973163,-0.024007702,-5.952553,-14.133559,-18.904678,-0.0022240342,-0.0035099643,0.0007720256,-0.050782632,-0.049892344,0.01429015,0.14179225,0.022680523,0.4896465,-0.005863924,0.0026110807,-0.016180206,0.0,0.0,3.155621e-05,3.0819174e-05,0.0007729595,0.006202437,0.0070568603,0.0042684292,0.031559292,0.031578425,0.051909648,1.9045639e-07,1.9210152e-07,5.9187687e-07,0.0017806124,0.001838453,1.3985515e-05,0.00044895252,0.0004755548,0.00040664972,0.00043375534,0.0004813324,0.00040721343,1.0,1.0,24
247023941,246833648,-0.5464463,-0.12931491,0.08884145,0.8226672,0.98960376,-0.13080993,-0.14522754,-5.735612,-14.232291,-18.896542,-0.0022274724,-0.0035044244,0.0007865446,-0.05095112,-0.050232526,0.014107718,0.14188683,0.022649623,0.48890463,-0.0057782843,0.0025150918,-0.015449577,0.0,0.0,3.055517e-05,3.0856798e-05,0.0007112277,0.0062556574,0.008185624,0.0042840675,0.031434707,0.031465963,0.051676042,1.9041333e-07,1.908071e-07,5.762567e-07,0.0017800236,0.001837982,1.3971746e-05,0.0004208162,0.00047513185,0.00038279424,0.00042998558,0.00045687504,0.00038315996,1.0,1.0,24
248023977,247833648,-0.5505714,0.051799167,-0.040276513,0.83220536,1.2486482,-0.03640215,-0.45659843,-4.1972566,-14.349512,-19.073189,-0.0022454874,-0.0035011035,0.0007932359,-0.050933484,-0.050743673,0.013871614,0.14203756,0.022464298,0.48942092,-0.0058649355,0.0024255011,-0.015976818,0.0,0.0,3.0232926e-05,3.063849e-05,0.00060521305,0.006324865,0.0067084753,0.004268839,0.031325318,0.031406477,0.05127085,1.9038141e-07,1.9140154e-07,5.543237e-07,0.0017786734,0.0018372111,1.3952558e-05,0.00040193307,0.00047261437,0.00036658236,0.00042588002,0.0004400357,0.0003668767,1.0,1.0,24
249023947,248833648,-0.5611204,0.056430962,-0.037379194,0.82496196,-0.23610955,0.068642326,-0.60805327,-3.6770048,-14.33177,-19.551546,-0.0022624277,-0.0034931311,0.000778142,-0.050809965,-0.051361546,0.013624015,0.1419192,0.022414127,0.48925084,-0.005905569,0.0025466033,-0.01580594,0.0,0.0,2.9894798e-05,3.0340885e-05,0.00060864544,0.0062949886,0.0067275767,0.0042647505,0.031224541,0.031259377,0.051097475,1.9016717e-07,1.9098297e-07,5.542042e-07,0.0017780645,0.0018357348,1.3926841e-05,0.0003860825,0.0004690805,0.00035361567,0.00042535306,0.00042117987,0.0003538164,1.0,1.0,24
250023943,249833648,-0.56842315,0.027088052,-0.017380457,0.82210666,-1.0630958,0.11476568,-0.6046882,-4.41124,-14.289101,-20.126955,-0.0022513762,-0.0034520756,0.0007464365,-0.05074356,-0.05195402,0.013441483,0.14194821,0.02250931,0.48933282,-0.0059906696,0.0024808657,-0.015901888,0.0,0.0,2.9836212e-05,3.0228526e-05,0.0005846392,0.0062203845,0.006815005,0.004269502,0.031131642,0.031143362,0.05093173,1.8996691e-07,1.904518e-07,5.5153663e-07,0.0017779801,0.0018347077,1.3899915e-05,0.00037984664,0.0004664694,0.00034848612,0.0004245121,0.00041311648,0.00034884937,1.0,1.0,24
251023949,250833648,-0.57160777,-0.012041867,0.029421087,0.81991094,-0.8157548,0.17842871,-0.27908325,-5.473283,-14.148935,-20.612156,-0.0022359567,-0.003412815,0.0007312567,-0.050912205,-0.05181721,0.013448251,0.14177106,0.022639921,0.48938417,-0.0061275032,0.0025846765,-0.015926162,0.0,0.0,3.028872e-05,3.0422741e-05,0.0005827533,0.0060998593,0.006124081,0.0042468295,0.031038847,0.03105377,0.05056593,1.9012835e-07,1.9104117e-07,5.5316644e-07,0.0017776692,0.0018337574,1.3874159e-05,0.00037785346,0.00046470182,0.00034690654,0.00042324097,0.00041079827,0.00034720392,1.0,1.0,24
252023947,251833648,-0.56594855,0.00010451067,0.022661302,0.8241291,-0.08816872,0.05782146,-0.00502946,-5.897607,-14.053849,-20.713213,-0.00221366,-0.003398441,0.00073578284,-0.050925504,-0.05134471,0.013532064,0.14161704,0.02276152,0.48944506,-0.006111936,0.0027683286,-0.015966086,0.0,0.0,3.0590327e-05,3.089403e-05,0.00059455447,0.0060832584,0.006307818,0.0042423704,0.030940566,0.030953601,0.050433863,1.9050249e-07,1.9128153e-07,5.53647e-07,0.0017769788,0.0018318767,1.3850293e-05,0.00037328174,0.000463649,0.0003431976,0.00042254524,0.0004060204,0.00034332363,1.0,1.0,24
253023972,252833648,-0.5537789,0.015078136,0.015468148,0.8323836,0.09021086,-0.042933892,0.04369712,-5.827126,-14.058529,-20.653479,-0.0022325255,-0.0033965788,0.0007384964,-0.051010434,-0.051642977,0.013458499,0.14154327,0.022786062,0.48948205,-0.0061081457,0.002862061,-0.015968211,0.0,0.0,3.0696603e-05,3.1237585e-05,0.0005977409,0.006159973,0.006305604,0.004240743,0.030898208,0.03091899,0.050166115,1.9063907e-07,1.9124026e-07,5.509254e-07,0.0017767107,0.0018304056,1.3828111e-05,0.00037243584,0.00046314538,0.000342391,0.00042229128,0.0004049381,0.00034249088,1.0,1.0,24
254023941,253833648,-0.5698943,0.009562655,0.005719534,0.82164246,0.59412116,-0.12694491,0.7201776,-5.430267,-14.165565,-20.151972,-0.0022589865,-0.0033975402,0.00074925274,-0.050880414,-0.051596038,0.013493385,0.14117543,0.022895211,0.4894973,-0.0061583933,0.003226131,-0.01591326,0.0,0.0,3.107502e-05,3.174911e-05,0.0006004344,0.0060711387,0.006299857,0.0042545,0.030900545,0.030934801,0.050190534,1.9095081e-07,1.9164685e-07,5.4802325e-07,0.0017759918,0.0018280655,1.3803139e-05,0.00036589446,0.00046248452,0.0003368196,0.00042190682,0.00039811488,0.00033688403,1.0,1.0,24
255023945,254833648,-0.5637713,0.06385713,-0.0273246,0.8230052,-0.010034217,0.040028445,0.67088974,-4.977594,-14.201478,-19.373518,-0.0022973777,-0.00343569,0.0007296138,-0.050655972,-0.05203584,0.013394192,0.1412185,0.022835417,0.48947942,-0.006217412,0.0031165173,-0.015879571,0.0,0.0,3.132766e-05,3.205371e-05,0.000610382,0.006204563,0.0062515223,0.004253971,0.030956203,0.03098518,0.050295807,1.9094787e-07,1.9172236e-07,5.4759545e-07,0.0017756118,0.0018261217,1.3776902e-05,0.00036086192,0.00046110892,0.00033266685,0.00042108237,0.0003923659,0.00033283583,1.0,1.0,24
256023943,255833648,-0.5474098,0.030642077,0.0045820484,0.8362911,-0.37116086,0.06596492,0.14811856,-5.1867437,-14.101653,-18.835745,-0.0023475357,-0.0035307626,0.0007504069,-0.05175942,-0.053166445,0.012984735,0.14123112,0.022526328,0.48959818,-0.006125162,0.0031263598,-0.01598876,0.0,0.0,3.1066345e-05,3.1741078e-05,0.00061797776,0.006387862,0.006492056,0.004254336,0.031108169,0.031123241,0.050302345,1.9034024e-07,1.9090938e-07,5.477523e-07,0.0017751791,0.0018245777,1.3754309e-05,0.00035779926,0.00046060293,0.00033022088,0.0004202053,0.00038970535,0.00033039475,1.0,1.0,24
258023972,257833648,-0.5723816,0.017086117,0.0038218496,0.81980044,-0.08467133,0.00212581,-0.06584042,-5.666633,-14.157611,-18.676514,-0.0023385074,-0.0035109592,0.00072879856,-0.053471398,-0.05530085,0.0122400625,0.14121723,0.022464618,0.48963675,-0.006109728,0.0031587428,-0.016050303,0.0,0.0,3.0338797e-05,3.095259e-05,0.00064917246,0.006468148,0.006513146,0.004321746,0.032526985,0.032543607,0.051374692,1.8992901e-07,1.904354e-07,5.5016994e-07,0.0017723884,0.0018215051,1.37320885e-05,0.000357025,0.00045911263,0.000329879,0.000418972,0.0003886822,0.00033004934,1.0,1.0,24
259023948,258833648,-0.56386983,-0.0024074886,-0.012866435,0.8257599,0.28746077,0.4814966,-0.30865362,-5.522636,-13.94295,-19.046083,-0.0022991723,-0.0034818572,0.00071548275,-0.054456312,-0.05638951,0.011864988,0.14128923,0.022329861,0.48947728,-0.006192248,0.0030698823,-0.015907096,0.0,0.0,2.9666022e-05,3.042945e-05,0.0006566146,0.0063773487,0.00641581,0.0042992425,0.032494474,0.032514017,0.051602505,1.8971313e-07,1.9002422e-07,5.4724836e-07,0.0017701432,0.001820128,1.372247e-05,0.000355455,0.00045695563,0.0003277422,0.00041641947,0.00038754666,0.00032785023,1.0,1.0,24
260023986,259833648,-0.5650088,0.03152903,-0.018421374,0.8242765,0.15095949,0.89789873,0.00029920597,-5.2515774,-13.205476,-19.170353,-0.0023081573,-0.003491717,0.00071532803,-0.054350816,-0.056361157,0.011867782,0.14134906,0.022139372,0.48948148,-0.006295887,0.0029277594,-0.01588225,0.0,0.0,2.9747063e-05,3.0686806e-05,0.00065923244,0.006248772,0.0061537838,0.004282028,0.03241647,0.032432694,0.051764384,1.905153e-07,1.9035862e-07,5.432998e-07,0.0017689891,0.001819654,1.3715401e-05,0.0003546392,0.00045428905,0.00032621055,0.00041478113,0.0003857182,0.00032632967,1.0,1.0,24
261023943,260833648,-0.54567623,0.036366016,-0.017032629,0.8370335,-0.1515204,0.8339325,0.16331378,-5.268805,-12.332457,-19.041986,-0.0022953404,-0.003464729,0.0007054639,-0.054345533,-0.05627054,0.011914874,0.1414144,0.02215034,0.48958835,-0.006308595,0.0028347366,-0.015972963,0.0,0.0,3.0087498e-05,3.1140906e-05,0.0006708005,0.006138124,0.006163366,0.004260804,0.03232101,0.032332223,0.0516131,1.9111809e-07,1.9068717e-07,5.425863e-07,0.0017675743,0.0018190665,1.3711288e-05,0.0003524635,0.00045362595,0.00032466048,0.0004144283,0.00038323246,0.00032479785,1.0,1.0,24
262023945,261833648,-0.5649056,0.025808273,0.021253387,0.824478,-0.3739691,0.6790631,0.06340467,-5.5632663,-11.518384,-18.818872,-0.002301065,-0.0034724833,0.00070415647,-0.054603867,-0.056414377,0.011800042,0.14138739,0.022142507,0.48962346,-0.006292637,0.0028531759,-0.016003644,0.0,0.0,3.0371555e-05,3.1343436e-05,0.0006843983,0.0062665376,0.006265022,0.004254327,0.032235373,0.032247543,0.051612888,1.9095548e-07,1.9077245e-07,5.431108e-07,0.0017665415,0.0018186641,1.3710561e-05,0.0003505719,0.00045190786,0.00032292615,0.00041338426,0.00038066422,0.00032302816,1.0,1.0,24
263023977,262833648,-0.5762302,0.03517123,0.025962755,0.8161174,-0.061367363,0.12837638,-0.039722294,-5.7825656,-11.140678,-18.75951,-0.0022919555,-0.0034601495,0.00071609224,-0.05508662,-0.05656323,0.011598997,0.14136147,0.022222655,0.4895654,-0.0061889538,0.0029358035,-0.015934154,0.0,0.0,3.0299096e-05,3.1110503e-05,0.0006901299,0.006500523,0.0063214446,0.004250062,0.03220401,0.032221247,0.051375188,1.9029694e-07,1.9047211e-07,5.4083944e-07,0.0017660037,0.001818637,1.3711714e-05,0.00035010697,0.00044864943,0.00032104872,0.0004110094,0.00037931083,0.00032110492,1.0,1.0,24
264023947,263833648,-0.58359516,0.030417861,-0.018060807,0.8112739,0.09260429,-0.17988104,-0.099872254,-5.7090416,-11.234017,-18.753597,-0.0023004015,-0.0034750737,0.0007007631,-0.055569455,-0.056674723,0.011447421,0.14134605,0.022118883,0.4896346,-0.006317932,0.0028607638,-0.016001461,0.0,0.0,3.014759e-05,3.100956e-05,0.00068343483,0.00643758,0.006340455,0.004255735,0.03221742,0.032233294,0.051368244,1.9003404e-07,1.9036577e-07,5.355139e-07,0.0017650597,0.001818442,1.3717436e-05,0.00034837282,0.0004448887,0.0003199752,0.0004079031,0.00037681533,0.0003200561,1.0,1.0,24
265023954,264833648,-0.55400336,0.05381269,0.04062709,0.82977945,0.09501699,-0.9770404,-0.13847323,-5.6045623,-11.72408,-18.862513,-0.0022989241,-0.0034923102,0.00068986404,-0.05611088,-0.056695286,0.01125572,0.14123853,0.022418125,0.48958746,-0.006095995,0.0030569276,-0.015949521,0.0,0.0,2.9956977e-05,3.1045423e-05,0.0006791266,0.006653783,0.0062791253,0.0042675575,0.032265056,0.032271888,0.051402602,1.9008024e-07,1.9042061e-07,5.31022e-07,0.0017635846,0.0018178443,1.3724724e-05,0.00034732607,0.00043088634,0.0003124267,0.00039638855,0.0003730511,0.00031248687,1.0,1.0,24
266023959,265833648,-0.562101,0.03138288,0.0005346855,0.8264728,-0.07212795,-1.3287517,-0.08198965,-5.5922027,-12.958014,-18.833572,-0.0022853957,-0.0034998544,0.0006899154,-0.0565926,-0.05672362,0.011082292,0.14127162,0.022443447,0.48964244,-0.0059974026,0.0030676278,-0.015996797,0.0,0.0,2.9998722e-05,3.15858e-05,0.00067071087,0.006352013,0.0062527373,0.0042669857,0.032325342,0.03231815,0.051270325,1.9085286e-07,1.9073057e-07,5.266806e-07,0.0017625517,0.001817841,1.3731068e-05,0.00034698762,0.00042720218,0.00031018842,0.00039292878,0.0003724884,0.0003102687,1.0,1.0,24
267023943,266833648,-0.5586518,0.00043141446,-0.035935104,0.82862335,-0.08083789,-0.70373595,-0.10826451,-5.7116413,-14.054369,-18.82165,-0.0022660652,-0.0034755243,0.0006892741,-0.05763078,-0.05688192,0.0108083645,0.14122814,0.022453777,0.4896171,-0.005956843,0.003099183,-0.015973648,0.0,0.0,2.9997189e-05,3.1590393e-05,0.0006819964,0.0064577297,0.0062676836,0.004263286,0.03235473,0.0323644,0.051368453,1.9093515e-07,1.9059974e-07,5.2600484e-07,0.0017614373,0.0018178775,1.3737765e-05,0.0003467192,0.00042232286,0.00030747356,0.00038922878,0.00037092026,0.00030755173,1.0,1.0,24
268023971,267833648,-0.57026863,-0.0019181604,-0.026415918,0.8210312,-0.0731096,-0.024369529,-0.12717047,-5.7897863,-14.375013,-18.827892,-0.002277533,-0.0034832838,0.00071442156,-0.058562614,-0.05699218,0.010516995,0.14125474,0.022382958,0.48974526,-0.005897957,0.0030555355,-0.016099783,0.0,0.0,2.9954586e-05,3.1090087e-05,0.0006660168,0.0068441913,0.0062734475,0.0042607756,0.03240926,0.03242826,0.05128635,1.9036104e-07,1.9029794e-07,5.1745315e-07,0.0017601493,0.0018178286,1.37438e-05,0.0003464437,0.00041531693,0.00030403354,0.00038371133,0.00036912202,0.00030411175,1.0,1.0,24
269023943,268833648,-0.56337464,0.008776552,-0.010006982,0.8260944,0.006098942,0.20850286,-0.116189174,-5.80176,-14.230411,-18.850006,-0.0022870263,-0.0035094933,0.00073680124,-0.059285607,-0.05705386,0.010221219,0.14129722,0.0222104,0.48977605,-0.0059122937,0.0029788213,-0.016119711,0.0,0.0,2.9916633e-05,3.092992e-05,0.00064788555,0.006537291,0.006269391,0.0042588646,0.032452762,0.032461375,0.051390227,1.905045e-07,1.9017075e-07,5.094874e-07,0.0017593985,0.0018178514,1.3747756e-05,0.00034629053,0.0004128665,0.00030307693,0.00038178603,0.00036855476,0.000303159,1.0,1.0,24
270023942,269833648,-0.7961617,0.012127791,-0.0049091503,0.60494256,0.124003105,0.817457,-0.09645525,-5.7792287,-13.557856,-18.886845,-0.002246829,-0.0035152761,0.00070727,-0.05945856,-0.0572536,0.009960494,0.1403956,0.023087095,0.48990902,-0.005586725,0.004087986,-0.01623399,0.0,0.0,2.9786677e-05,3.103571e-05,0.0006359213,0.006565551,0.0063486085,0.004262624,0.03250692,0.032497413,0.05148985,1.914648e-07,1.9026855e-07,5.0599397e-07,0.001757688,0.0018160639,1.3745576e-05,0.00028769168,0.00032087573,0.00029724796,0.00029926162,0.00029919678,0.0002975145,1.0,1.0,24
271023941,270833648,-0.9889914,0.026496172,-0.011038707,0.14516245,0.09726061,0.43563557,-0.10737357,-5.699662,-12.914534,-18.883114,-0.002220259,-0.0034860387,0.00070934306,-0.05648543,-0.054094814,0.009728175,0.14136475,0.026451444,0.48988467,-0.0022947285,0.004283858,-0.016282398,0.0,0.0,2.7342521e-05,2.8585582e-05,0.00065053883,0.007535148,0.0075420067,0.004256456,0.032544207,0.032543316,0.051357485,1.9313505e-07,1.9148621e-07,5.1274367e-07,0.0016742505,0.0017271918,1.3615734e-05,0.000104659164,0.00010941777,0.00029605572,9.939463e-05,0.000102453385,0.0002961003,1.0,1.0,24
272023940,271833648,-0.93851864,0.013299902,-0.012205744,-0.34475648,0.04295586,0.10107717,-0.09721742,-5.6452394,-12.754236,-18.908527,-0.0022383772,-0.0034179015,0.00072517106,-0.052642632,-0.035018045,0.010006512,0.14169668,0.028398884,0.49015254,-0.000593709,0.003722201,-0.0163874,0.0,0.0,1.9957724e-05,2.0470066e-05,0.0006655562,0.009546427,0.009374161,0.004274758,0.032653168,0.032661635,0.051425833,1.977013e-07,1.9644709e-07,5.184139e-07,0.0013258087,0.0013606335,1.3069738e-05,4.166904e-05,4.721398e-05,0.00029562454,3.7916714e-05,3.9901537e-05,0.00029576855,1.0,1.0,24
273024179,272833648,-0.673718,0.0018993164,-0.015625777,-0.73882097,0.007332807,0.014271964,-0.07253208,-5.5973263,-12.814915,-18.921764,-0.0022530574,-0.0033801775,0.0007281466,-0.037091933,-0.012877159,0.010220215,0.1413314,0.030516328,0.4903458,0.00045026664,0.0036973644,-0.016433943,0.0,0.0,1.35285245e-05,1.3621281e-05,0.00068149244,0.009422417,0.009306149,0.0042706006,0.03280627,0.03281088,0.05132349,2.063808e-07,2.0525466e-07,5.231193e-07,0.0009282834,0.00094457663,1.2449927e-05,2.3520017e-05,3.0587544e-05,0.0002955092,2.1916625e-05,2.282984e-05,0.00029571992,1.0,1.0,24
274024113,273833648,-0.26992702,-0.0005344761,-0.018094625,-0.9627106,-0.022777358,0.07969947,-0.046089575,-5.5886927,-12.800513,-18.921694,-0.0022564563,-0.0033820714,0.0007394573,-0.032984916,-0.004986694,0.010297661,0.14138386,0.031261288,0.49039942,0.0009395318,0.0034819685,-0.01643049,0.0,0.0,1.0889414e-05,1.0889823e-05,0.00069830177,0.008532405,0.008492463,0.004333461,0.033624776,0.03362331,0.05195579,2.15979e-07,2.1490813e-07,5.2630486e-07,0.00069522526,0.0007040679,1.2092447e-05,1.7303537e-05,2.5077648e-05,0.00029544206,1.6846827e-05,1.7020226e-05,0.0002956569,1.0,1.0,24
275024152,274833648,0.22237542,-0.0040275347,-0.0129611995,-0.9748667,-0.0052072834,0.00925291,-0.07854504,-5.608525,-12.74957,-18.923285,-0.0022508253,-0.003386942,0.00077076285,-0.032840002,-0.0029921487,0.010182644,0.14166942,0.031312324,0.49033308,0.0010542063,0.003104634,-0.016348071,0.0,0.0,1.0098711e-05,1.0076573e-05,0.0007121282,0.0074132127,0.0074072923,0.004384244,0.034259114,0.034258444,0.052731596,2.2532079e-07,2.243383e-07,5.26677e-07,0.00057899154,0.00058434304,1.1909795e-05,1.5330848e-05,2.345518e-05,0.00029528484,1.5425832e-05,1.5168944e-05,0.00029550615,1.0,1.0,24
276024115,275833648,0.6668311,-0.013068946,0.0049873353,-0.7450776,0.008434815,-0.090666994,-0.08429871,-5.6340246,-12.832221,-18.927273,-0.0022495822,-0.0033786972,0.00084605237,-0.033433344,-0.0049034986,0.009905028,0.14194907,0.031183688,0.4902854,0.0009902163,0.002866957,-0.016317679,0.0,0.0,9.971653e-06,9.944968e-06,0.00072204845,0.0065686223,0.0065738987,0.0044060876,0.034628037,0.034632567,0.053384624,2.3452965e-07,2.3362513e-07,5.241692e-07,0.00053245784,0.00053605926,1.1827915e-05,1.5039449e-05,2.317844e-05,0.00029512824,1.5210808e-05,1.490115e-05,0.00029533473,1.0,1.0,24
277024118,276833648,0.9409602,-0.012710044,0.005233163,-0.33823803,0.031563353,-0.016774246,-0.0633596,-5.6398277,-12.919886,-18.907246,-0.0022526074,-0.00337527,0.00091649743,-0.03330801,-0.005943991,0.009609972,0.14159025,0.031146059,0.49038875,0.000719979,0.003203173,-0.016392568,0.0,0.0,1.0016201e-05,9.991555e-06,0.000735152,0.006335315,0.006364894,0.004426263,0.035015583,0.035025764,0.054289497,2.4390278e-07,2.430476e-07,5.2381387e-07,0.00051710266,0.00051979057,1.1791548e-05,1.4473166e-05,2.2404918e-05,0.0002949128,1.4390835e-05,1.4318709e-05,0.0002950855,1.0,1.0,24
278024111,277833648,0.99953914,-0.0034743636,0.017552868,-0.024522401,0.107165,0.01106748,-0.11760728,-5.5641174,-12.983306,-18.89264,-0.0022558498,-0.0033674603,0.0009629559,-0.034703955,-0.0053241933,0.009422456,0.14108263,0.031268347,0.49045137,0.0006749086,0.0036925476,-0.016400164,0.0,0.0,9.975094e-06,9.95511e-06,0.00075503037,0.006254555,0.006282674,0.0043556234,0.034598075,0.03461005,0.054366603,2.5350718e-07,2.526755e-07,5.2849543e-07,0.0005032198,0.0005059112,1.1751571e-05,1.2889694e-05,2.0606994e-05,0.00029460184,1.2563363e-05,1.2754755e-05,0.00029472538,1.0,1.0,24
279024125,278833648,0.99794656,0.0055855373,0.017983971,-0.061221797,-0.011682288,0.11188587,-0.022580888,-5.4937897,-12.966755,-18.931059,-0.002249466,-0.003362729,0.0009890385,-0.035555735,-0.0033184872,0.00940272,0.14068407,0.031344865,0.49074036,0.0006204011,0.004008036,-0.016616244,0.0,0.0,1.0422356e-05,1.0387573e-05,0.0007772387,0.006515648,0.0064982697,0.00433269,0.0345175,0.034528464,0.054172974,2.6283777e-07,2.620299e-07,5.347471e-07,0.00047772896,0.00048057092,1.1700353e-05,1.1549649e-05,1.9048937e-05,0.00029379153,1.1050236e-05,1.1436057e-05,0.00029393393,1.0,1.0,24
281024136,280833648,0.99552506,-0.024823418,0.027975945,-0.08678243,0.01702792,0.049669947,0.012740297,-5.533117,-12.7098675,-18.811161,-0.0022384766,-0.0033633213,0.0010232665,-0.035725515,-0.001162862,0.009192354,0.14014907,0.031495046,0.49092948,0.0005394385,0.004467918,-0.016722435,0.0,0.0,1.26327905e-05,1.2547438e-05,0.000824508,0.0065434175,0.006561726,0.004295852,0.034410823,0.0344188,0.053757127,2.751165e-07,2.743713e-07,5.4783004e-07,0.000416111,0.00041933285,1.1589151e-05,9.803911e-06,1.6977616e-05,0.00029315345,9.13236e-06,9.860914e-06,0.00029334927,1.0,1.0,24
282024128,281833648,0.9949899,-0.026000235,0.024787614,-0.093299374,-0.006951536,-0.014883642,-0.034193117,-5.5623946,-12.735836,-18.790895,-0.0022358033,-0.0033928128,0.0010350852,-0.033883546,-0.0008026094,0.0089617,0.1400705,0.03157759,0.4908914,0.0005149998,0.0045709596,-0.01667007,0.0,0.0,1.4048734e-05,1.39272215e-05,0.0008492489,0.0067020487,0.006718994,0.004340709,0.035004586,0.035014715,0.054058574,2.7622323e-07,2.7556905e-07,5.5483133e-07,0.0003973353,0.00040077654,1.1555821e-05,9.203851e-06,1.6344651e-05,0.00029268052,8.489237e-06,9.345176e-06,0.0002929125,1.0,1.0,24
283023941,282833648,0.9959546,-0.01733706,0.027358625,-0.08381832,-0.036574252,-0.12847212,-0.081638224,-5.606459,-12.810883,-18.789825,-0.0022055032,-0.0034263097,0.0010518165,-0.032851502,0.00037864858,0.008808369,0.13995637,0.03167157,0.4908584,0.00052728987,0.004674692,-0.01661418,0.0,0.0,1.5437963e-05,1.5285374e-05,0.0008754818,0.0070065106,0.007015786,0.0044167712,0.03604542,0.03605652,0.054674733,2.743546e-07,2.738182e-07,5.620359e-07,0.00038609194,0.0003899782,1.1535573e-05,8.753532e-06,1.5865155e-05,0.00029230036,7.999712e-06,8.962219e-06,0.00029255834,1.0,1.0,24
284023953,283833648,0.93382704,-0.021637611,0.012640364,-0.3568461,0.23694775,0.017294083,0.14235078,-5.6287847,-12.86718,-18.767271,-0.0022171375,-0.003485583,0.001046704,-0.031586196,0.00061528746,0.008705457,0.13991912,0.03173357,0.49087092,0.0004980117,0.0047106077,-0.016627828,0.0,0.0,1.652821e-05,1.635854e-05,0.0009001504,0.007158403,0.007290321,0.004488118,0.03725058,0.03726607,0.05532146,2.695139e-07,2.6914412e-07,5.679862e-07,0.00037938458,0.0003839261,1.1521226e-05,8.384446e-06,1.542316e-05,0.00029218386,7.570176e-06,8.649176e-06,0.00029244594,1.0,1.0,24
285023940,284833648,0.56208134,-0.044145238,-0.014222542,-0.8257806,0.45073003,-0.039676256,0.015412232,-5.3142047,-12.778635,-18.816769,-0.0022967372,-0.0035153793,0.0010588043,-0.030329531,0.0009367472,0.008654455,0.13996515,0.031726673,0.49077806,0.00034409497,0.0045802826,-0.016546194,0.0,0.0,1.7304057e-05,1.7090784e-05,0.00090349215,0.009870598,0.010176511,0.0049573374,0.04529332,0.045416288,0.060748093,2.6792506e-07,2.6757692e-07,5.6156057e-07,0.00037356516,0.00037891787,1.1540524e-05,8.353601e-06,1.532124e-05,0.00029138068,7.4517484e-06,8.51808e-06,0.0002916436,1.0,1.0,24
286023941,285833648,0.55635613,-0.043818627,-0.023219187,-0.8294629,0.6142726,-0.4325451,-0.13756469,-4.8003335,-12.977416,-18.908224,-0.0023122237,-0.0035266504,0.0011212642,-0.029857213,0.0016112824,0.008679552,0.14007626,0.031614468,0.49003106,0.00022198902,0.0043771886,-0.01580469,0.0,0.0,1.9834877e-05,1.946152e-05,0.00090573693,0.01925229,0.020027647,0.0060365633,0.087144025,0.088455744,0.081050865,2.7633354e-07,2.7578596e-07,5.5434595e-07,0.00036972633,0.0003759477,1.1608593e-05,8.310597e-06,1.5280133e-05,0.00028901358,7.3684632e-06,8.312296e-06,0.00028926088,1.0,1.0,24
287023943,286833648,0.59607244,-0.051458206,0.020947702,-0.80100626,0.7313137,-0.7716546,-0.14493042,-4.091787,-13.618399,-18.979006,-0.0023205758,-0.003540376,0.0011718891,-0.029523259,0.002185692,0.008634351,0.1401483,0.031531896,0.4896732,0.00013149851,0.0042221337,-0.015467307,0.0,0.0,2.3002216e-05,2.2375918e-05,0.00091122807,0.032803267,0.034427874,0.0069817076,0.17880593,0.18475895,0.106209725,2.8460173e-07,2.8401539e-07,5.49587e-07,0.0003663242,0.00037353302,1.1665665e-05,8.283436e-06,1.5251499e-05,0.00028674176,7.301227e-06,8.1582475e-06,0.00028699194,1.0,1.0,24
288023946,287833651,0.58290803,-0.044300865,0.03137415,-0.81072277,0.57079566,-0.6462431,-0.14908753,-3.454625,-14.323506,-19.07235,-0.0023212575,-0.0035560552,0.0012139303,-0.029400544,0.002711058,0.008556045,0.14020704,0.03148625,0.49002892,7.581699e-05,0.004094717,-0.015850412,0.0,0.0,2.67093e-05,2.5720396e-05,0.0009196407,0.050352857,0.05322108,0.007718693,0.35623583,0.3737057,0.1336037,2.9246047e-07,2.9204378e-07,5.4691714e-07,0.00036328952,0.00037151313,1.1708281e-05,8.253534e-06,1.5242354e-05,0.00028417428,7.2489315e-06,8.035695e-06,0.00028444495,1.0,1.0,24
289023943,288833671,0.5684659,-0.03994795,0.017730137,-0.8215451,0.34509572,-0.5087964,-0.23604208,-2.995659,-14.876005,-19.191254,-0.0023213974,-0.0035723392,0.0012519574,-0.02927142,0.003170056,0.0084904665,0.14026596,0.03144589,0.49027854,2.7238211e-05,0.0039801137,-0.016128037,0.0,0.0,3.0769912e-05,2.93019e-05,0.0009294282,0.072999336,0.07755524,0.008192777,0.66558343,0.70731086,0.15829651,2.996985e-07,2.9970982e-07,5.453948e-07,0.00036042745,0.00036975596,1.1732053e-05,8.221102e-06,1.5235928e-05,0.000282657,7.2021767e-06,7.921638e-06,0.00028292986,1.0,1.0,24
290023936,289833681,0.5501791,-0.03815664,0.013507831,-0.83406514,0.27736884,-0.33453196,0.020044206,-2.7532136,-15.283033,-19.334545,-0.002320291,-0.0035896215,0.0012866701,-0.029177338,0.0035817444,0.008462052,0.14033234,0.031404395,0.4903663,-1.7268416e-05,0.0038707892,-0.016204223,0.0,0.0,3.51565e-05,3.306138e-05,0.0009403564,0.10004196,0.107630506,0.008537591,1.1645274,1.2520114,0.18127711,3.0622013e-07,3.0692317e-07,5.4478534e-07,0.00035775726,0.0003682235,1.1747782e-05,8.188882e-06,1.5229168e-05,0.0002816855,7.15837e-06,7.813478e-06,0.00028194688,1.0,1.0,24
291023969,290833648,0.5351352,-0.008111648,-0.0019011209,-0.8447254,0.7565641,-0.13686956,-0.33097562,-2.2323866,-15.455145,-19.557402,-0.002320255,-0.0036070072,0.001317453,-0.029027075,0.0039607463,0.008356857,0.14039256,0.031369854,0.49042526,-5.442842e-05,0.0037721738,-0.016284449,0.0,0.0,3.9701998e-05,3.686521e-05,0.00095249724,0.13422868,0.14953427,0.008659557,1.921312,2.1010172,0.1966465,3.117454e-07,3.1363643e-07,5.449105e-07,0.0003551636,0.00036688958,1.1750354e-05,8.147623e-06,1.52249e-05,0.0002810438,7.120026e-06,7.7103905e-06,0.0002812785,1.0,1.0,24
292023941,291833648,0.52429825,-0.010305123,-0.0027812265,-0.8514678,0.89943415,-0.15213566,-0.3130564,-1.3741556,-15.546161,-19.70849,-0.0023232102,-0.0036214304,0.0013391845,-0.028829636,0.0042610033,0.008186064,0.14044656,0.031344566,0.4905221,-9.116233e-05,0.003702014,-0.01637982,0.0,0.0,4.4500634e-05,4.073287e-05,0.00096588366,0.17267509,0.19708915,0.008772146,3.0154862,3.3647814,0.21014772,3.1645342e-07,3.1983006e-07,5.4568903e-07,0.0003527934,0.00036575473,1.1754158e-05,8.105217e-06,1.5223026e-05,0.00028059562,7.083891e-06,7.613848e-06,0.00028081035,1.0,1.0,24
293023940,292833648,0.55076367,-0.005792386,-0.0022480497,-0.83463824,1.2048557,-0.35601488,-0.3141789,-0.32830662,-15.692353,-19.877073,-0.0023244123,-0.003638681,0.0013617782,-0.028688045,0.0045492025,0.00806914,0.14049698,0.0313165,0.49055055,-0.00012489634,0.003633124,-0.01640495,0.0,0.0,4.958937e-05,4.4699707e-05,0.0009807188,0.21619111,0.2550887,0.008853744,4.535716,5.1717715,0.21977958,3.203246e-07,3.2544403e-07,5.4714513e-07,0.00035070293,0.00036483558,1.1756635e-05,8.072302e-06,1.5220382e-05,0.00027981005,7.0537935e-06,7.533848e-06,0.00028001086,1.0,1.0,24
294023935,293833649,0.53544325,0.005040806,0.0073553575,-0.8445242,1.4138091,-0.63339543,-0.28950086,0.97555935,-16.17473,-20.063654,-0.0023265346,-0.0036523303,0.0013770344,-0.028572043,0.0047397614,0.007975416,0.14052947,0.031298935,0.49060294,-0.00015004065,0.0035920965,-0.016456362,0.0,0.0,5.500044e-05,4.875377e-05,0.0009973875,0.26477602,0.32184944,0.008843809,6.5786796,7.6775265,0.22238362,3.233621e-07,3.3040652e-07,5.4939017e-07,0.0003489259,0.00036412713,1.1753204e-05,8.051415e-06,1.5218989e-05,0.00027934875,7.031084e-06,7.474257e-06,0.00027954244,1.0,1.0,24
295023936,294833648,0.5522053,0.004191286,0.003056262,-0.833692,1.6483365,-0.4344284,-0.3141682,2.5140183,-16.63964,-20.142157,-0.002327836,-0.0036673222,0.0013936048,-0.028478969,0.004976437,0.0077697067,0.14056146,0.03128287,0.4907136,-0.00017134321,0.0035472256,-0.016570637,0.0,0.0,6.0587787e-05,5.2749205e-05,0.0010157856,0.31998697,0.40018237,0.008916291,9.250463,11.06096,0.22681847,3.255612e-07,3.3471383e-07,5.523065e-07,0.00034738096,0.0003635741,1.1755742e-05,8.031089e-06,1.5220487e-05,0.0002786058,7.0126157e-06,7.424533e-06,0.00027880335,1.0,1.0,24
296023970,295833647,0.5483206,-0.00560542,0.0070323762,-0.83621997,1.7954775,-0.36553264,-0.33806407,4.283918,-16.95625,-20.242048,-0.0023306191,-0.0036821929,0.0014086924,-0.028384328,0.0051902854,0.00752195,0.14058554,0.03126731,0.4907655,-0.00018973717,0.003508718,-0.016629674,0.0,0.0,6.634449e-05,5.6660658e-05,0.0010356945,0.38049832,0.48871565,0.008907005,12.670364,15.531286,0.22578317,3.2697147e-07,3.382979e-07,5.5575174e-07,0.00034607074,0.00036315195,1.1752989e-05,8.018976e-06,1.5221328e-05,0.0002781218,6.9978887e-06,7.3850574e-06,0.00027832866,1.0,1.0,24
297023955,296833648,0.564359,-0.09725603,0.17532551,-0.8008129,-0.5186406,0.6533989,-0.47526604,5.1686554,-17.01034,-20.466269,-0.002324789,-0.003673404,0.0014037696,-0.028481053,0.005170482,0.007350605,0.14055325,0.031307247,0.49130332,-0.0001612685,0.0035474855,-0.017213756,0.0,0.0,7.296311e-05,6.06298e-05,0.0010572263,0.45401683,0.5473793,0.009160237,17.043825,21.204372,0.22800685,3.2836695e-07,3.411366e-07,5.609841e-07,0.0003451155,0.0003628782,1.1756602e-05,7.9669335e-06,1.5204081e-05,0.00025001256,6.9822618e-06,7.3433434e-06,0.00025008392,1.0,1.0,24
299023927,298833649,0.5585165,-0.09703779,-0.001590417,-0.8237964,-2.764862,-0.49688184,0.0868836,1.1482794,-16.466785,-21.20814,-0.0023135294,-0.003680159,0.0014300636,-0.028742198,0.005107313,0.007596041,0.14065695,0.03090158,0.4919147,-0.00029085542,0.0034322971,-0.017855112,0.0,0.0,8.583939e-05,6.849704e-05,0.0010721481,0.59598166,0.7167563,0.009800704,29.073586,36.349808,0.22847901,3.2953744e-07,3.432831e-07,5.7040194e-07,0.0003435567,0.00036215744,1.1763593e-05,7.8883395e-06,1.413933e-05,0.00022866044,6.8359836e-06,7.2277817e-06,0.00022848054,1.0,1.0,24
300024050,299833648,0.5445525,-0.11308306,-0.008914836,-0.8310206,-3.3379004,-1.247683,0.29048052,-1.9102114,-17.237307,-20.890793,-0.0023136435,-0.0036867321,0.0014351486,-0.028866591,0.005241585,0.007479185,0.14069071,0.030686831,0.49177292,-0.00036400114,0.003387125,-0.017731896,0.0,0.0,9.222421e-05,7.208063e-05,0.0010814315,0.6738665,0.8246311,0.010101605,36.887924,46.44474,0.23157455,3.2879072e-07,3.4364194e-07,5.7585027e-07,0.00034292843,0.00036182415,1.1772627e-05,7.861314e-06,1.36102835e-05,0.00022243483,6.7659735e-06,7.1803074e-06,0.00022213967,1.0,1.0,24
301023956,300833648,0.5168395,-0.004817757,4.9534352e-05,-0.85606873,-3.2363596,-1.1016482,0.32808486,-5.4729214,-18.581795,-20.495983,-0.002297926,-0.003684772,0.0014444228,-0.029103909,0.0053039473,0.0073505035,0.14073925,0.030488815,0.49167204,-0.00042711882,0.0033388638,-0.017638374,0.0,0.0,9.820726e-05,7.4729985e-05,0.0010951682,0.7581108,0.96027774,0.009854148,45.989346,58.612694,0.23043783,3.2687868e-07,3.434653e-07,5.8227477e-07,0.00034225718,0.0003615562,1.1777886e-05,7.831593e-06,1.3131767e-05,0.00022101992,6.704061e-06,7.136487e-06,0.00022066451,1.0,1.0,24
302023929,301833647,0.5158383,-0.0032893,0.0012650274,-0.85667866,-2.6669903,-0.93871766,0.76018035,-8.589921,-19.517673,-19.99722,-0.002283695,-0.0036996203,0.0014578437,-0.029184965,0.0052495995,0.007387303,0.140802,0.030301282,0.491582,-0.00049378496,0.0032827482,-0.017542372,0.0,0.0,0.00010320915,7.623295e-05,0.0011107497,0.83421373,1.1122439,0.009564652,56.355595,73.137596,0.2327875,3.234799e-07,3.4214017e-07,5.8848815e-07,0.00034155752,0.00036125537,1.1789619e-05,7.799622e-06,1.2688501e-05,0.00021898058,6.646364e-06,7.0951824e-06,0.00021862522,1.0,1.0,24
303023930,302833648,0.52550954,-0.00044200898,4.3849504e-05,-0.8507876,-2.279065,-0.86178005,1.2396162,-11.203422,-20.344961,-19.013582,-0.0022703635,-0.0037090788,0.0014724935,-0.029270148,0.0051808804,0.007387745,0.14086409,0.030124392,0.49148548,-0.0005595833,0.003230526,-0.017443664,0.0,0.0,0.000108221095,7.770718e-05,0.0011282789,0.91233,1.2752777,0.009447567,68.342354,90.57765,0.23434797,3.2041243e-07,3.4074648e-07,5.9488565e-07,0.000340982,0.00036101,1.1802078e-05,7.772856e-06,1.227583e-05,0.00021736843,6.5933864e-06,7.059025e-06,0.00021702028,1.0,1.0,24
304023931,303833648,0.5137338,0.010805899,0.01918319,-0.85766715,-1.895656,-0.6843405,1.3495995,-13.286915,-21.04739,-17.692068,-0.002267709,-0.0037181342,0.0014820268,-0.029322268,0.0051639215,0.007394312,0.14090903,0.029964816,0.49144748,-0.0006135216,0.0031864308,-0.017408514,0.0,0.0,0.000113495575,7.9263824e-05,0.001148517,1.0002282,1.4644876,0.009318119,82.1782,111.488594,0.23117614,3.1789742e-07,3.3967956e-07,6.0180105e-07,0.0003405259,0.00036085135,1.18095095e-05,7.749634e-06,1.1890494e-05,0.00021557613,6.5445947e-06,7.0287406e-06,0.00021524816,1.0,1.0,24
305024061,304833649,0.5271518,-0.003581298,0.0061534108,-0.8497413,-1.1255041,-0.6583606,1.351095,-14.823432,-21.401321,-16.37313,-0.0022642128,-0.0037387526,0.0014883201,-0.029387888,0.0051900097,0.0073951986,0.14095563,0.02981821,0.49146312,-0.0006632143,0.0031479204,-0.017427275,0.0,0.0,0.00011843497,8.063743e-05,0.0011706084,1.0898968,1.6922885,0.009364598,97.92718,136.41232,0.2322451,3.1535063e-07,3.3856784e-07,6.08729e-07,0.00034015137,0.00036071864,1.1821374e-05,7.728276e-06,1.1528182e-05,0.00021187677,6.4993396e-06,6.9988596e-06,0.00021160883,1.0,1.0,24
306023958,305833648,0.5324089,-0.0006171241,-0.014232199,-0.8463674,-0.7604864,-0.6675514,1.3492547,-15.795631,-21.86736,-15.048056,-0.0022634093,-0.0037548929,0.0014960782,-0.029448234,0.005217346,0.007395945,0.14099048,0.029678611,0.4914205,-0.00070763653,0.003111752,-0.017388789,0.0,0.0,0.00012361273,8.218177e-05,0.0011945374,1.185544,1.9235824,0.009362863,116.03573,165.89783,0.22923498,3.132136e-07,3.3729685e-07,6.158727e-07,0.00033990474,0.00036062545,1.1826807e-05,7.715327e-06,1.1189532e-05,0.00021070853,6.458415e-06,6.975899e-06,0.00021047366,1.0,1.0,24
307023931,306833648,0.52132165,-0.0021344463,-0.0020694963,-0.85335517,-0.47579473,-0.62597966,1.2417176,-16.383017,-22.38308,-13.754601,-0.0022643122,-0.003765324,0.0015059415,-0.02947638,0.0051825894,0.007394347,0.14103127,0.029545944,0.49141553,-0.0007554866,0.0030766758,-0.01738719,0.0,0.0,0.00012868877,8.3582025e-05,0.0012199292,1.2877121,2.172743,0.009445209,136.63734,200.40997,0.23086016,3.1112552e-07,3.3579826e-07,6.2308453e-07,0.00033973757,0.0003605487,1.1835836e-05,7.703749e-06,1.08720515e-05,0.00021005086,6.4195992e-06,6.9552534e-06,0.00020984255,1.0,1.0,24
308023946,307833648,0.515581,-0.0058853,-0.009028184,-0.8567731,0.6141319,0.24397922,1.0081966,-10.235204,-10.224716,-8.544996,-0.0022819743,-0.0037763142,0.0015145207,-0.029442154,0.0051631588,0.0073840967,0.14105542,0.029487317,0.49149868,-0.00077670784,0.003051029,-0.017475594,0.0,0.0,0.00012980922,8.339871e-05,0.0012398703,0.016425567,0.01732282,0.03399474,0.55934405,0.5593562,0.60123825,3.0674627e-07,3.3036605e-07,6.259481e-07,0.00033960695,0.00036001028,1.1892055e-05,7.69272e-06,1.0743267e-05,0.00020954837,6.3991115e-06,6.936382e-06,0.00020937063,1.0,1.0,24
