timestamp,timestamp_sample,gps_hvel[0],gps_hvel[1],gps_vvel,gps_hpos[0],gps_hpos[1],gps_vpos,ev_hvel[0],ev_hvel[1],ev_vvel,ev_hpos[0],ev_hpos[1],ev_vpos,rng_vpos,baro_vpos,aux_hvel[0],aux_hvel[1],flow[0],flow[1],terr_flow[0],terr_flow[1],heading,mag_field[0],mag_field[1],mag_field[2],gravity[0],gravity[1],gravity[2],drag[0],drag[1],airspeed,beta,hagl,hagl_rate
200532250,200341730,0.017061476,-0.042312294,0.00038341992,0.013851054,0.050231695,-0.18639207,0.0,0.0,0.0,0.0,0.0,0.0,0.0,0.15430856,0.0,0.0,0.0,0.0,0.0,0.0,0.00040870905,-0.000487044,-0.0040757135,0.00040870905,-0.0017702281,-0.00036176667,1.6093254e-06,0.0,0.0,0.0,0.0,0.0,0.0
201032238,200841730,-0.009625955,-0.05336314,0.0029898733,0.00018989295,0.049359024,-0.17649913,0.0,0.0,0.0,0.0,0.0,0.0,0.0,0.27306032,0.0,0.0,0.0,0.0,0.0,0.0,0.0008367896,-0.0005882705,-0.00423114,0.0008367896,-0.0048379004,0.007611055,0.00025892258,0.0,0.0,0.0,0.0,0.0,0.0
201532446,201341729,-0.043875046,-0.039649446,0.060217023,0.00225503,0.04009658,-0.13499928,0.0,0.0,0.0,0.0,0.0,0.0,0.0,0.016947985,0.0,0.0,0.0,0.0,0.0,0.0,0.0010004342,-0.0011770255,-0.0033828393,0.0010004342,0.011027649,0.011863988,0.00017613173,0.0,0.0,0.0,0.0,0.0,0.0
202032210,201841729,-0.07176,0.033791203,0.08756849,0.0003692843,0.049952865,-0.12041068,0.0,0.0,0.0,0.0,0.0,0.0,0.0,0.28240466,0.0,0.0,0.0,0.0,0.0,0.0,0.0014541447,-0.00018282223,-0.0040394515,0.0014541447,-0.0028778017,-5.1882118e-05,1.9133091e-05,0.0,0.0,0.0,0.0,0.0,0.0
202532340,202341729,0.05625144,-0.03304882,0.07438293,0.020601738,0.0323627,-0.12118888,0.0,0.0,0.0,0.0,0.0,0.0,0.0,0.18986201,0.0,0.0,0.0,0.0,0.0,0.0,0.0002451241,-0.0018750514,-0.002898045,0.0002451241,-0.010712885,0.00027668476,4.5120716e-05,0.0,0.0,0.0,0.0,0.0,0.0
203032243,202841729,-0.0053324425,0.08269589,0.014132455,0.008496419,0.040372968,-0.13722062,0.0,0.0,0.0,0.0,0.0,0.0,0.0,0.26217556,0.0,0.0,0.0,0.0,0.0,0.0,9.146333e-05,-0.0022730606,-0.0022413582,9.146333e-05,0.0048043206,0.005801404,0.00012671947,0.0,0.0,0.0,0.0,0.0,0.0
203532308,203341729,0.039622158,-0.035959512,0.060300183,0.020390334,0.02142179,-0.112611294,0.0,0.0,0.0,0.0,0.0,0.0,0.0,0.12307048,0.0,0.0,0.0,0.0,0.0,0.0,-0.00025722384,-0.0017310649,-0.0013371482,-0.00025722384,-0.00079753064,-0.0039857365,-0.0001373291,0.0,0.0,0.0,0.0,0.0,0.0
204032208,203841729,0.016508471,-0.030154895,-0.0029474795,0.019347563,0.011558175,-0.12477183,0.0,0.0,0.0,0.0,0.0,0.0,0.0,0.104860306,0.0,0.0,0.0,0.0,0.0,0.0,0.0017438531,-0.0013690447,-0.0028221384,0.0017438531,-0.0189736,0.022937372,0.00050485134,0.0,0.0,0.0,0.0,0.0,0.0
204532430,204341729,0.0044520106,0.026196066,0.034113143,0.013518836,0.015010953,-0.089217424,0.0,0.0,0.0,0.0,0.0,0.0,0.0,0.35595512,0.0,0.0,0.0,0.0,0.0,0.0,0.0026441514,-0.0014195389,-0.002992466,0.0026441514,-0.035619795,0.07075107,-0.00045263767,0.0,0.0,0.0,0.0,0.0,0.0
205032267,204841729,-0.011040468,-0.0031117164,0.030679192,0.001307263,0.009754539,-0.08432984,0.0,0.0,0.0,0.0,0.0,0.0,0.0,0.2909565,0.0,0.0,0.0,0.0,0.0,0.0,0.00561589,-0.0017970302,-0.0033037513,0.00561589,0.003564238,0.04902023,0.00039738417,0.0,0.0,0.0,0.0,0.0,0.0
205532185,205341729,0.051017202,-0.021862248,0.06984223,0.012840499,0.011066675,-0.038074493,0.0,0.0,0.0,0.0,0.0,0.0,0.0,0.2963798,0.0,0.0,0.0,0.0,0.0,0.0,0.011650294,-0.002194713,-0.0058179647,0.011650294,-0.005628425,-0.055704832,-0.0029817224,0.0,0.0,0.0,0.0,0.0,0.0
206032206,205841729,-0.040948197,-0.07111924,-0.04455792,-0.026975345,0.011328578,0.024160862,0.0,0.0,0.0,0.0,0.0,0.0,0.0,0.2963605,0.0,0.0,0.0,0.0,0.0,0.0,0.014556259,-0.0018232751,-0.0033296868,0.014556259,0.105007336,0.04142188,-0.0042755604,0.0,0.0,0.0,0.0,0.0,0.0
207032238,206841729,0.092755735,0.07400794,-0.12715983,0.0017736405,0.015800834,0.119916916,0.0,0.0,0.0,0.0,0.0,0.0,0.0,0.47133088,0.0,0.0,0.0,0.0,0.0,0.0,0.015170753,-0.0018693006,-0.0029682964,0.015170753,0.12469873,0.0006045401,-0.010154605,0.0,0.0,0.0,0.0,0.0,0.0
207532198,207341729,0.019769385,-0.061359815,-0.060186207,-0.00902313,0.0046052933,0.17845511,0.0,0.0,0.0,0.0,0.0,0.0,0.0,0.33009863,0.0,0.0,0.0,0.0,0.0,0.0,0.014703751,-0.0022673802,-0.003344804,0.014703751,0.093547255,-0.0012714248,-0.004729748,0.0,0.0,0.0,0.0,0.0,0.0
208032235,207841729,-0.026627213,0.052449614,-0.042438567,0.0019482449,0.011585832,0.22187948,0.0,0.0,0.0,0.0,0.0,0.0,0.0,0.39080286,0.0,0.0,0.0,0.0,0.0,0.0,0.01432839,0.000100559555,-0.005270064,0.01432839,0.029126402,-0.017594868,-0.00069618225,0.0,0.0,0.0,0.0,0.0,0.0
208532251,208341729,0.047810063,-0.07594178,-0.03667867,-0.002159793,-0.00019931793,0.26175547,0.0,0.0,0.0,0.0,0.0,0.0,0.0,0.42010498,0.0,0.0,0.0,0.0,0.0,0.0,0.006095499,-0.00022785203,-0.0006485805,0.006095499,-0.0067560337,0.00031097792,6.8843365e-05,0.0,0.0,0.0,0.0,0.0,0.0
209032495,208841729,0.12050914,0.034545794,-0.024406433,0.017033348,0.015279412,0.30934668,0.0,0.0,0.0,0.0,0.0,0.0,0.0,0.45683146,0.0,0.0,0.0,0.0,0.0,0.0,0.0016328096,-0.0010040265,-0.0012516305,0.0016328096,-0.08436909,0.0703436,0.0010254979,0.0,0.0,0.0,0.0,0.0,0.0
209532353,209341729,0.1061019,-0.019236922,0.0023716688,0.03224261,0.030486345,0.30730677,0.0,0.0,0.0,0.0,0.0,0.0,0.0,0.13651276,0.0,0.0,0.0,0.0,0.0,0.0,0.0016094893,-0.0004937154,0.0016094893,0.0015497208,-0.080457985,-0.06297686,0.005314529,0.0,0.0,0.0,0.0,0.0,0.0
210032419,209841729,-0.034706056,0.032085776,0.02846396,0.02916786,0.057451963,0.3202634,0.0,0.0,0.0,0.0,0.0,0.0,0.0,0.80262995,0.0,0.0,0.0,0.0,0.0,0.0,0.0011025965,-0.0008254711,0.0007798597,0.0011025965,-0.16327375,0.030599147,0.017117143,0.0,0.0,0.0,0.0,0.0,0.0
210532671,210341729,0.10326612,0.09693587,-0.03283155,0.07213026,0.1067915,0.29517365,0.0,0.0,0.0,0.0,0.0,0.0,0.0,0.53621674,0.0,0.0,0.0,0.0,0.0,0.0,0.0010024309,2.0572683e-05,0.0010024309,-0.00056296587,-0.13891397,-0.012713506,0.01014179,0.0,0.0,0.0,0.0,0.0,0.0
211532350,211341729,0.002439499,0.0016658306,-0.015610695,0.054569006,0.10578203,0.29057598,0.0,0.0,0.0,0.0,0.0,0.0,0.0,0.45504093,0.0,0.0,0.0,0.0,0.0,0.0,0.001824528,-0.0001003365,-0.00025713444,0.001824528,0.19474599,0.062773645,-0.036670327,0.0,0.0,0.0,0.0,0.0,0.0
212032596,211841729,0.13519096,0.04680872,0.020728111,0.052592278,0.08410311,0.27000332,0.0,0.0,0.0,0.0,0.0,0.0,0.0,0.18770409,0.0,0.0,0.0,0.0,0.0,0.0,0.0013298707,0.0013298707,0.0011563376,-0.0043708086,0.012756284,0.010342311,-0.00041663647,0.0,0.0,0.0,0.0,0.0,0.0
212532624,212341729,-0.020592332,-0.08135104,0.29623526,0.031122923,0.057406425,0.12780857,0.0,0.0,0.0,0.0,0.0,0.0,0.0,0.6564255,0.0,0.0,0.0,0.0,0.0,0.0,0.0014459193,0.00022018934,0.0004917905,0.0014459193,0.21966834,-0.035462946,-0.026674688,0.0,0.0,0.0,0.0,0.0,0.0
213032425,212841729,0.028964043,0.10158372,0.17756504,0.02733612,0.041056633,0.08576584,0.0,0.0,0.0,0.0,0.0,0.0,0.0,0.53669167,0.0,0.0,0.0,0.0,0.0,0.0,0.0027219877,-0.00018861121,0.0027219877,0.0016957223,-0.01379624,-0.035791647,-0.0029600859,0.0,0.0,0.0,0.0,0.0,0.0
213532611,213341729,0.038639456,0.024476409,0.09714919,-0.025159836,-0.053639412,0.0223732,0.0,0.0,0.0,0.0,0.0,0.0,0.0,0.040750504,0.0,0.0,0.0,0.0,0.0,0.0,0.0027656853,0.0011246672,0.0015414506,0.0027656853,0.042274997,-0.104249686,-0.0034632683,0.0,0.0,0.0,0.0,0.0,0.0
214032361,213841729,-0.09541527,0.08358705,0.051092505,-0.046295166,-0.08687115,-0.0021514893,0.0,0.0,0.0,0.0,0.0,0.0,0.0,-0.0,0.0,0.0,0.0,0.0,0.0,0.0,0.0019182488,0.0017219323,0.0019182488,0.0015701354,0.11265624,-0.058674663,6.1392784e-06,0.0,0.0,0.0,0.0,0.0,0.0
214532652,214341729,-0.07927547,0.050788537,0.014722228,-0.052155495,-0.11286545,-0.033970833,0.0,0.0,0.0,0.0,0.0,0.0,0.0,-0.0,0.0,0.0,0.0,0.0,0.0,0.0,0.0012930436,0.0012930436,0.0010253266,0.0010512769,0.138728,-0.01548484,-0.0045291185,0.0,0.0,0.0,0.0,0.0,0.0
215032647,214841729,0.07877853,0.02521727,-0.031920195,-0.009267807,-0.10847092,-0.13054943,0.0,0.0,0.0,0.0,0.0,0.0,0.0,-0.0,0.0,0.0,0.0,0.0,0.0,0.0,0.0013121963,0.00079582864,0.00115183,0.0013121963,0.09547161,-0.029347658,-0.008144081,0.0,0.0,0.0,0.0,0.0,0.0
215532609,215341729,0.0651118,-0.04331868,-0.01244849,-0.013062954,-0.11223602,-0.12740707,0.0,0.0,0.0,0.0,0.0,0.0,0.0,-0.0,0.0,0.0,0.0,0.0,0.0,0.0,0.0024261177,-0.0005975454,0.0012478977,0.0024261177,-0.24257112,-0.07428725,-0.035463452,0.0,0.0,0.0,0.0,0.0,0.0
216032597,215841729,-0.12534241,0.023785636,0.0046123266,-0.034282684,-0.095196724,-0.17262268,0.0,0.0,0.0,0.0,0.0,0.0,0.0,-0.0,0.0,0.0,0.0,0.0,0.0,0.0,0.0006765425,-0.0010224271,-0.00091347843,0.0006765425,-0.108278096,0.012663869,0.00073701143,0.0,0.0,0.0,0.0,0.0,0.0
216532601,216341729,-0.06137684,-0.013755779,-0.030531526,0.0012001991,-0.0687809,-0.2343607,0.0,0.0,0.0,0.0,0.0,0.0,0.0,-0.3466978,0.0,0.0,0.0,0.0,0.0,0.0,0.0008276403,0.0002991259,-0.0021052435,0.0008276403,0.10364613,-0.070196345,-0.026322246,0.0,0.0,0.0,0.0,0.0,0.0
217032618,216841729,-0.07883031,-0.008401364,-0.13938156,0.043757915,-0.043056488,-0.30839634,0.0,0.0,0.0,0.0,0.0,0.0,0.0,-0.16618538,0.0,0.0,0.0,0.0,0.0,0.0,0.0013106465,-0.002677509,0.0009168163,0.0013106465,0.1656106,0.07223217,-0.032438397,0.0,0.0,0.0,0.0,0.0,0.0
217532577,217341729,0.0714908,-0.04178532,-0.16052014,0.054350853,-0.06494999,-0.32635498,0.0,0.0,0.0,0.0,0.0,0.0,0.0,-0.058047295,0.0,0.0,0.0,0.0,0.0,0.0,0.0018087327,-0.0009437655,0.00084719807,0.0018087327,-0.036794066,-0.10155262,-0.007041037,0.0,0.0,0.0,0.0,0.0,0.0
218032598,217841729,0.155341,0.19576788,0.02332741,0.074615,-0.029263496,-0.17565632,0.0,0.0,0.0,0.0,0.0,0.0,0.0,-0.13824463,0.0,0.0,0.0,0.0,0.0,0.0,0.0030394555,0.0030394555,-0.002071157,0.0029674172,-0.011371851,0.15884417,-0.006529629,0.0,0.0,0.0,0.0,0.0,0.0
218532633,218341729,-0.003001064,0.14250469,-0.0053156614,0.09764767,0.06202221,-0.21711063,0.0,0.0,0.0,0.0,0.0,0.0,0.0,-0.1332941,0.0,0.0,0.0,0.0,0.0,0.0,0.0025102198,-0.001787792,-0.0024655834,0.0025102198,0.23883337,-0.048969354,-0.112327754,0.0,0.0,0.0,0.0,0.0,0.0
219032427,218841729,0.13069493,0.013674855,-0.12208843,0.11808252,0.026657104,-0.2542343,0.0,0.0,0.0,0.0,0.0,0.0,0.0,0.65301704,0.0,0.0,0.0,0.0,0.0,0.0,0.0020073056,-0.0026765107,0.0020073056,0.0011173189,0.34949458,-0.037215732,-0.066105485,0.0,0.0,0.0,0.0,0.0,0.0
219532356,219341729,-0.034686357,0.03676641,-0.043190837,0.1004405,0.010804176,-0.2454567,0.0,0.0,0.0,0.0,0.0,0.0,0.0,0.2635193,0.0,0.0,0.0,0.0,0.0,0.0,0.0010967553,7.960526e-05,0.0009846911,0.0010967553,0.028192833,0.013316255,-0.0023645163,0.0,0.0,0.0,0.0,0.0,0.0
220032430,219841729,0.056508124,0.09985411,-0.058172315,0.11903143,0.0017642975,-0.24530602,0.0,0.0,0.0,0.0,0.0,0.0,0.0,0.60465527,0.0,0.0,0.0,0.0,0.0,0.0,0.0003355667,1.29141845e-05,0.0003355667,0.00015425682,0.24796808,0.05156092,-0.057738483,0.0,0.0,0.0,0.0,0.0,0.0
221032270,220841729,0.014807224,0.036034286,-0.09194091,0.08518696,-0.040442467,-0.29898548,0.0,0.0,0.0,0.0,0.0,0.0,0.0,0.34243107,0.0,0.0,0.0,0.0,0.0,0.0,0.00050825626,-0.00040082075,0.00050825626,8.067489e-05,-0.03681111,-0.0013972353,-0.0009807348,0.0,0.0,0.0,0.0,0.0,0.0
221532175,221341729,-0.0022045076,0.053272247,-0.08060709,0.07057667,-0.072831154,-0.31438828,0.0,0.0,0.0,0.0,0.0,0.0,0.0,0.09632206,0.0,0.0,0.0,0.0,0.0,0.0,0.0024915338,-0.0005500368,0.0013243258,0.0024915338,0.0014496446,-0.117976286,-0.009913862,0.0,0.0,0.0,0.0,0.0,0.0
222032197,221841729,-0.02424575,-0.052737355,-0.10871804,0.056450367,-0.10215092,-0.33375168,0.0,0.0,0.0,0.0,0.0,0.0,0.0,0.28010845,0.0,0.0,0.0,0.0,0.0,0.0,0.0013255179,0.0003812993,0.0012063459,0.0013255179,0.20089965,0.062541656,-0.022504449,0.0,0.0,0.0,0.0,0.0,0.0
223032220,222841729,-0.14160323,-0.005901441,-0.07743874,0.06530857,-0.06670761,-0.26547623,0.0,0.0,0.0,0.0,0.0,0.0,0.0,0.35838127,0.0,0.0,0.0,0.0,0.0,0.0,0.00084584206,-0.0002638572,0.00084584206,0.00059890747,-0.02912248,0.013256107,0.000764966,0.0,0.0,0.0,0.0,0.0,0.0
223532201,223341734,-0.022078976,-0.051647425,-0.09545863,0.10308695,-0.058926582,-0.23970795,0.0,0.0,0.0,0.0,0.0,0.0,0.0,0.07291508,0.0,0.0,0.0,0.0,0.0,0.0,0.0009295726,0.0009295726,-0.00019752234,0.00012275577,0.058405288,-0.005981532,-0.0031777024,0.0,0.0,0.0,0.0,0.0,0.0
224032183,223841729,0.06158252,-0.07533203,-0.085701376,0.10178661,-0.0591259,-0.21742249,0.0,0.0,0.0,0.0,0.0,0.0,0.0,0.0029039383,0.0,0.0,0.0,0.0,0.0,0.0,0.001438424,8.424884e-05,0.001438424,0.0012343228,-0.061728463,-0.03096103,-0.0019364357,0.0,0.0,0.0,0.0,0.0,0.0
224532211,224341729,-0.045145676,0.08136229,0.0044357777,0.085418224,-0.04492569,-0.1767025,0.0,0.0,0.0,0.0,0.0,0.0,0.0,-0.0677042,0.0,0.0,0.0,0.0,0.0,0.0,0.0014332971,0.0014332971,0.00087630004,-0.00024354458,-0.07628368,-0.015598477,-0.0010274053,0.0,0.0,0.0,0.0,0.0,0.0
225032244,224841729,-0.0956687,-0.0055194087,-0.060217887,0.08280611,-0.049521446,-0.15431786,0.0,0.0,0.0,0.0,0.0,0.0,0.0,-0.057774544,0.0,0.0,0.0,0.0,0.0,0.0,0.001052808,0.001052808,0.0004048869,-0.00051561,0.067817226,0.04150426,-0.004003525,0.0,0.0,0.0,0.0,0.0,0.0
226032440,225841732,-0.061041858,0.010207432,-0.0730627,0.09092808,-0.035952568,-0.09295845,0.0,0.0,0.0,0.0,0.0,0.0,0.0,0.05638981,0.0,0.0,0.0,0.0,0.0,0.0,3.4451485e-05,-0.00045705587,-0.00077646226,3.4451485e-05,-0.0088891685,0.07936931,0.0007060766,0.0,0.0,0.0,0.0,0.0,0.0
226532203,226341729,-0.093880676,0.03437466,-0.06415944,0.09736633,-0.04123974,-0.07567978,0.0,0.0,0.0,0.0,0.0,0.0,0.0,-0.13387012,0.0,0.0,0.0,0.0,0.0,0.0,0.00021441793,0.00021441793,0.00010545552,-0.00010243058,0.0069187805,-0.04797333,-0.0002809167,0.0,0.0,0.0,0.0,0.0,0.0
227032215,226841729,0.028441355,0.08487037,0.011969164,0.10203743,-0.02915287,-0.054368973,0.0,0.0,0.0,0.0,0.0,0.0,0.0,0.032281876,0.0,0.0,0.0,0.0,0.0,0.0,0.0018184679,0.0018184679,-0.00029946864,0.00019493699,0.04228291,-0.012242258,-0.0035511851,0.0,0.0,0.0,0.0,0.0,0.0
227532217,227341729,0.070670396,0.07659802,0.002420336,0.106184006,-0.026076317,-0.07546997,0.0,0.0,0.0,0.0,0.0,0.0,0.0,0.49751854,0.0,0.0,0.0,0.0,0.0,0.0,0.0009870012,0.0009870012,-0.0023222268,-0.0009797812,-0.09292291,0.010913115,2.4855137e-05,0.0,0.0,0.0,0.0,0.0,0.0
228032182,227841729,0.04809337,0.06860082,-0.010259181,0.1011219,-0.012649536,-0.045316696,0.0,0.0,0.0,0.0,0.0,0.0,0.0,0.09133339,0.0,0.0,0.0,0.0,0.0,0.0,0.0025313213,0.0025313213,-0.001522392,-0.0019388795,0.035706595,-0.044345856,-0.0022408366,0.0,0.0,0.0,0.0,0.0,0.0
228532215,228341729,0.051188417,0.05269178,-0.0571256,0.08759689,-0.005256653,-0.057250977,0.0,0.0,0.0,0.0,0.0,0.0,0.0,-0.17868233,0.0,0.0,0.0,0.0,0.0,0.0,0.001433596,0.00088439276,0.001433596,0.00037953258,-0.06504972,-0.09436133,0.004058957,0.0,0.0,0.0,0.0,0.0,0.0
229032223,228841729,-0.034169957,0.080702364,-0.031155959,0.07612753,0.008960724,-0.0025367737,0.0,0.0,0.0,0.0,0.0,0.0,0.0,-0.20579529,0.0,0.0,0.0,0.0,0.0,0.0,0.0006275354,0.0006275354,-0.00050955266,-0.0012863278,0.0065741614,0.13552237,-0.0063350797,0.0,0.0,0.0,0.0,0.0,0.0
229532166,229341729,0.013832106,0.050437726,-0.046547025,0.091825485,-0.003487587,-0.010856628,0.0,0.0,0.0,0.0,0.0,0.0,0.0,0.17699432,0.0,0.0,0.0,0.0,0.0,0.0,0.0013558567,0.00018612342,0.0010558069,0.0013558567,0.027471863,0.010658164,-0.0018075109,0.0,0.0,0.0,0.0,0.0,0.0
230032212,229841728,-0.007779222,0.06647384,-0.024919614,0.08641338,-0.0049858093,0.007352829,0.0,0.0,0.0,0.0,0.0,0.0,0.0,0.23506165,0.0,0.0,0.0,0.0,0.0,0.0,0.0021909485,0.0021909485,0.0009864867,-0.0007276237,-0.025365679,0.011074944,0.00053942204,0.0,0.0,0.0,0.0,0.0,0.0
230532209,230341729,0.0007555261,-0.020132316,-0.02097316,0.08797884,-0.022253036,-0.02271843,0.0,0.0,0.0,0.0,0.0,0.0,0.0,0.045204163,0.0,0.0,0.0,0.0,0.0,0.0,0.000981614,0.0008429666,0.000981614,-0.000793308,0.030489758,-0.031552464,-0.0018591285,0.0,0.0,0.0,0.0,0.0,0.0
231032213,230841729,-0.023659304,0.060286924,-0.063051105,0.09353924,-0.017166138,-0.015996933,0.0,0.0,0.0,0.0,0.0,0.0,0.0,0.21627808,0.0,0.0,0.0,0.0,0.0,0.0,0.0011214912,0.0008110171,0.0011214912,-0.0023635328,0.17669795,-0.013102921,-0.021386802,0.0,0.0,0.0,0.0,0.0,0.0
231532196,231341729,0.05677467,0.021334596,-0.042299777,0.09814882,-0.024350166,-0.0076961517,0.0,0.0,0.0,0.0,0.0,0.0,0.0,0.1487484,0.0,0.0,0.0,0.0,0.0,0.0,0.0007518083,0.0005236673,0.0007518083,-0.001363337,-0.055643514,-0.018733963,0.001570046,0.0,0.0,0.0,0.0,0.0,0.0
232032193,231841729,-0.004376948,-0.0010296106,0.0020516515,0.08934069,-0.023047447,-0.0064907074,0.0,0.0,0.0,0.0,0.0,0.0,0.0,0.44091606,0.0,0.0,0.0,0.0,0.0,0.0,0.0018896312,-0.00036905613,0.0018896312,-0.001139909,-0.15470792,-0.086759984,-0.011898339,0.0,0.0,0.0,0.0,0.0,0.0
232532213,232341729,-0.004514247,-0.018679643,-0.03515926,0.08210659,-0.028710365,-0.020431519,0.0,0.0,0.0,0.0,0.0,0.0,0.0,0.36715698,0.0,0.0,0.0,0.0,0.0,0.0,0.0029037744,0.0014558872,0.0029037744,6.0647726e-05,0.18931295,0.025755554,-0.023126006,0.0,0.0,0.0,0.0,0.0,0.0
233032421,232841729,0.011233859,0.08983086,-0.0068365335,0.08118677,-0.016649246,0.015886307,0.0,0.0,0.0,0.0,0.0,0.0,0.0,-0.42043686,0.0,0.0,0.0,0.0,0.0,0.0,0.00049041864,0.00049041864,-0.00048127025,-0.000687927,0.08710246,0.106575824,-0.007545531,0.0,0.0,0.0,0.0,0.0,0.0
233532180,233341729,-0.016890824,-0.018593788,-0.0024075508,0.08932495,-0.027269363,0.014284134,0.0,0.0,0.0,0.0,0.0,0.0,0.0,-0.16670227,0.0,0.0,0.0,0.0,0.0,0.0,0.0011088252,0.00022616098,0.0011088252,-0.00020879507,0.0290909,-0.081553236,-0.004197836,0.0,0.0,0.0,0.0,0.0,0.0
235032275,234841729,0.1100399,-0.0060929637,0.013324171,0.06760597,-0.018576622,0.059724808,0.0,0.0,0.0,0.0,0.0,0.0,0.0,-0.4096775,0.0,0.0,0.0,0.0,0.0,0.0,0.0015589595,0.0010673977,0.0015589595,0.00062549114,-0.0076244664,-0.1367451,-0.0068615675,0.0,0.0,0.0,0.0,0.0,0.0
235532201,235341729,-0.0047962368,-0.028558694,0.014177293,0.044297695,-0.018350601,0.05691147,0.0,0.0,0.0,0.0,0.0,0.0,0.0,0.039527893,0.0,0.0,0.0,0.0,0.0,0.0,0.00307209,0.00307209,0.002153866,-0.0065491796,-0.03270388,-0.018770449,0.0006173849,0.0,0.0,0.0,0.0,0.0,0.0
236532169,236341729,0.04111667,-0.023994938,0.03679374,0.057361126,0.00029087067,0.08442497,0.0,0.0,0.0,0.0,0.0,0.0,0.0,-0.13835144,0.0,0.0,0.0,0.0,0.0,0.0,0.0014063949,0.0014063949,-0.0006996915,-0.0066506863,0.023396108,-0.050803572,-0.0037450194,0.0,0.0,0.0,0.0,0.0,0.0
237032228,236841729,0.061247293,-0.031309895,-0.021659046,0.06418753,-0.0008058548,0.05422592,0.0,0.0,0.0,0.0,0.0,0.0,0.0,-0.1812706,0.0,0.0,0.0,0.0,0.0,0.0,0.0013995096,0.0006014728,0.0013995096,-0.00019079447,0.045300715,-0.039848484,-0.0018686056,0.0,0.0,0.0,0.0,0.0,0.0
237532201,237341729,0.009177044,-0.050021116,-0.008066982,0.042794228,0.0034151077,0.04377365,0.0,0.0,0.0,0.0,0.0,0.0,0.0,-0.17802048,0.0,0.0,0.0,0.0,0.0,0.0,0.00114427,0.00114427,-0.0004512444,-0.0029204488,-0.04238785,-0.0379572,-0.0015309453,0.0,0.0,0.0,0.0,0.0,0.0
238032196,237841729,-0.02025504,-0.077189915,-0.07111384,0.03985977,0.009095192,0.017810822,0.0,0.0,0.0,0.0,0.0,0.0,0.0,-0.24134254,0.0,0.0,0.0,0.0,0.0,0.0,0.0016890094,-0.0003202022,0.0016890094,-0.0018108785,-0.09346868,0.031350818,-0.0036606193,0.0,0.0,0.0,0.0,0.0,0.0
238532167,238341729,0.0371098,-0.079036616,-0.041023254,0.041080475,0.01776123,0.015989304,0.0,0.0,0.0,0.0,0.0,0.0,0.0,-0.037988663,0.0,0.0,0.0,0.0,0.0,0.0,0.0005808696,0.0005808696,0.00035896897,-0.009865373,0.03607415,0.0329431,-0.00018537045,0.0,0.0,0.0,0.0,0.0,0.0
239032210,238841729,0.015220605,-0.043375142,-0.023031145,0.043628693,0.014964104,-0.0051288605,0.0,0.0,0.0,0.0,0.0,0.0,0.0,0.4443035,0.0,0.0,0.0,0.0,0.0,0.0,0.003922388,-1.0912772e-05,0.003922388,-0.00014254451,0.15360942,-0.007502892,-0.009763718,0.0,0.0,0.0,0.0,0.0,0.0
239532205,239341729,-0.021869462,0.113681644,-0.0036257058,0.020176888,0.036393166,-0.06006813,0.0,0.0,0.0,0.0,0.0,0.0,0.0,0.04578209,0.0,0.0,0.0,0.0,0.0,0.0,0.012540609,0.00016840082,0.012540609,-0.0071347356,-0.061055608,-0.10838525,0.011759877,0.0,0.0,0.0,0.0,0.0,0.0
240032210,239841729,0.09605765,0.10977268,0.15463793,-0.030994892,0.04759121,-0.1831379,0.0,0.0,0.0,0.0,0.0,0.0,0.0,-0.01924324,0.0,0.0,0.0,0.0,0.0,0.0,0.0034967093,0.0034967093,-0.002020508,0.00034990907,-0.0043243095,-0.22096185,0.018953323,0.0,0.0,0.0,0.0,0.0,0.0
240532209,240341729,0.13051629,-0.02827013,-0.059713125,-0.07311869,0.04090023,-0.19227982,0.0,0.0,0.0,0.0,0.0,0.0,0.0,-0.08240509,0.0,0.0,0.0,0.0,0.0,0.0,0.0029610116,0.0029610116,-0.0046319216,-0.00023806095,0.016019167,-0.033129036,0.0014592409,0.0,0.0,0.0,0.0,0.0,0.0
241032212,240841729,0.0450269,-0.004380189,-0.11740498,-0.06268501,0.049455643,-0.18381691,0.0,0.0,0.0,0.0,0.0,0.0,0.0,-0.025787354,0.0,0.0,0.0,0.0,0.0,0.0,0.0004127766,0.0004127766,-0.0009923652,0.00022566319,-0.07929966,0.068308234,-0.00090032816,0.0,0.0,0.0,0.0,0.0,0.0
241532259,241341729,-0.03664875,0.018325105,-0.1376494,-0.033831835,0.054585457,-0.16807175,0.0,0.0,0.0,0.0,0.0,0.0,0.0,-0.12306404,0.0,0.0,0.0,0.0,0.0,0.0,0.00040373206,-0.000698077,0.00040373206,0.00017270446,0.077354416,0.09431849,-0.003912449,0.0,0.0,0.0,0.0,0.0,0.0
242032181,241841729,0.045895994,-0.04436655,-0.11530647,0.0077245235,0.04943371,-0.14708328,0.0,0.0,0.0,0.0,0.0,0.0,0.0,-0.12335205,0.0,0.0,0.0,0.0,0.0,0.0,0.0004820153,-0.000835184,0.0004820153,0.00040641427,-0.11714968,0.023707144,0.0014709234,0.0,0.0,0.0,0.0,0.0,0.0
242532173,242341729,0.06491737,-0.041102897,-0.08640568,0.04594803,0.048947334,-0.14572716,0.0,0.0,0.0,0.0,0.0,0.0,0.0,-0.055503845,0.0,0.0,0.0,0.0,0.0,0.0,0.00094771385,-3.5579782e-05,0.00042308867,0.00094771385,-0.1579137,0.002490528,-0.003409505,0.0,0.0,0.0,0.0,0.0,0.0
243032221,242841729,0.063734055,0.018253008,-0.0098412335,0.05675459,0.051813126,-0.14650726,0.0,0.0,0.0,0.0,0.0,0.0,0.0,-0.13664436,0.0,0.0,0.0,0.0,0.0,0.0,0.0005145073,-0.000884518,0.00038994104,0.0005145073,-0.036095366,0.067381255,0.0014692545,0.0,0.0,0.0,0.0,0.0,0.0
243532219,243341729,0.22438985,-0.051503714,-0.091748275,0.097258806,0.046355247,-0.13848877,0.0,0.0,0.0,0.0,0.0,0.0,0.0,0.10560417,0.0,0.0,0.0,0.0,0.0,0.0,0.0020336509,-0.00073188683,-0.004692046,0.0020336509,-0.114206746,0.23628673,0.05976218,0.0,0.0,0.0,0.0,0.0,0.0
244032193,243841729,0.090562224,0.021860175,-0.05574236,0.15483952,0.047164917,-0.13102722,0.0,0.0,0.0,0.0,0.0,0.0,0.0,0.23391533,0.0,0.0,0.0,0.0,0.0,0.0,0.0032510646,-0.0027642543,0.0032510646,0.000610888,-0.2889098,0.10196764,-0.01657033,0.0,0.0,0.0,0.0,0.0,0.0
244532163,244341729,-0.058131218,0.017230831,-0.07535427,0.11506033,0.036927223,-0.14822197,0.0,0.0,0.0,0.0,0.0,0.0,0.0,0.22049141,0.0,0.0,0.0,0.0,0.0,0.0,0.0020358562,-0.00010599382,0.0020358562,-0.001830399,-0.13311797,-0.017803695,-0.0070183873,0.0,0.0,0.0,0.0,0.0,0.0
245032255,244841729,-0.004043579,-0.06444337,-0.03276942,0.06815004,0.02202797,-0.16096878,0.0,0.0,0.0,0.0,0.0,0.0,0.0,0.23300934,0.0,0.0,0.0,0.0,0.0,0.0,0.00049491227,0.00034887576,0.00049491227,-0.00013935566,0.08841764,-0.06320135,-0.0010153055,0.0,0.0,0.0,0.0,0.0,0.0
246032189,245841729,-0.046398535,-0.010716307,-0.034140717,-0.024825573,0.024223328,-0.14865875,0.0,0.0,0.0,0.0,0.0,0.0,0.0,-0.12006378,0.0,0.0,0.0,0.0,0.0,0.0,0.00041677477,0.00041677477,-0.0005796999,-0.0004976988,0.15414509,-0.18447459,-0.017597795,0.0,0.0,0.0,0.0,0.0,0.0
246532204,246341729,0.0026495978,0.04337029,-0.044162013,-0.04809141,0.030454636,-0.13407898,0.0,0.0,0.0,0.0,0.0,0.0,0.0,0.07396126,0.0,0.0,0.0,0.0,0.0,0.0,0.00021275878,-0.00062345667,-0.0008300394,0.00021275878,0.013714296,-0.08315362,-0.0011216998,0.0,0.0,0.0,0.0,0.0,0.0
247032268,246841729,0.0047537684,0.029368073,-0.07974865,-0.10335398,0.03242588,-0.112270355,0.0,0.0,0.0,0.0,0.0,0.0,0.0,-0.18297005,0.0,0.0,0.0,0.0,0.0,0.0,0.0032727988,0.0032727988,-0.0008710027,-0.0007444322,0.26146215,-0.25519398,0.03859496,0.0,0.0,0.0,0.0,0.0,0.0
248032413,247841729,0.023873925,0.02236516,-0.04051122,-0.12099314,0.02311325,-0.025569916,0.0,0.0,0.0,0.0,0.0,0.0,0.0,0.15762138,0.0,0.0,0.0,0.0,0.0,0.0,5.5640936e-05,-0.0010790969,-0.0011983514,5.5640936e-05,-0.0071160905,0.24853706,-0.0019629002,0.0,0.0,0.0,0.0,0.0,0.0
248532172,248341729,-0.04006207,-0.06797184,-0.053320557,-0.08351898,0.008951187,-0.025972366,0.0,0.0,0.0,0.0,0.0,0.0,0.0,-0.218359,0.0,0.0,0.0,0.0,0.0,0.0,0.0009548068,-0.002040523,-0.001981672,0.0009548068,-0.1672967,0.13387132,0.005497575,0.0,0.0,0.0,0.0,0.0,0.0
249032209,248841729,0.08231883,-0.029310659,-0.0613814,-0.017434835,0.015582085,-0.015159607,0.0,0.0,0.0,0.0,0.0,0.0,0.0,0.010896683,0.0,0.0,0.0,0.0,0.0,0.0,0.00033038855,-0.001443482,0.00033038855,0.0003117025,-0.15023607,0.0963909,0.002960205,0.0,0.0,0.0,0.0,0.0,0.0
249532201,249341729,-0.13805377,-0.08365582,-0.05045396,-0.006780863,0.018024445,-0.008432388,0.0,0.0,0.0,0.0,0.0,0.0,0.0,0.14037132,0.0,0.0,0.0,0.0,0.0,0.0,0.0016582906,-0.0012448966,0.0016582906,-0.00077554584,-0.024316162,-0.0070966333,-5.7160854e-05,0.0,0.0,0.0,0.0,0.0,0.0
250032214,249841729,0.17922461,-0.07743816,-0.025655389,0.041819572,0.020114899,-0.021497726,0.0,0.0,0.0,0.0,0.0,0.0,0.0,0.15097237,0.0,0.0,0.0,0.0,0.0,0.0,0.00050777197,-0.0007353155,0.00050777197,5.26011e-05,0.12137623,0.0336142,-0.009351611,0.0,0.0,0.0,0.0,0.0,0.0
250532163,250341729,0.13909137,0.048644155,0.037381053,0.032276154,0.041137695,-0.0025672913,0.0,0.0,0.0,0.0,0.0,0.0,0.0,0.3211918,0.0,0.0,0.0,0.0,0.0,0.0,0.0011021644,0.0006911452,0.0011021644,-0.0015141964,-0.0015728083,-0.05399643,-0.0004557371,0.0,0.0,0.0,0.0,0.0,0.0
251032225,250841729,0.05085653,-0.030023888,0.08117801,-0.004887581,0.03187847,-0.062927246,0.0,0.0,0.0,0.0,0.0,0.0,0.0,0.50439644,0.0,0.0,0.0,0.0,0.0,0.0,0.0010306453,0.0010306453,0.0009877384,-0.0015603304,0.15617631,-0.038637128,-0.012369812,0.0,0.0,0.0,0.0,0.0,0.0
251532236,251341729,-0.00020545721,-0.0432026,0.06953825,-0.055975437,0.034892082,-0.12444115,0.0,0.0,0.0,0.0,0.0,0.0,0.0,0.24222183,0.0,0.0,0.0,0.0,0.0,0.0,0.0011322075,0.0011322075,0.000105172396,-0.0004348755,0.05283132,-0.09099201,-7.534027e-05,0.0,0.0,0.0,0.0,0.0,0.0
252032182,251841729,0.080152795,-0.03486511,0.027210584,-0.067383766,0.03746891,-0.16128731,0.0,0.0,0.0,0.0,0.0,0.0,0.0,0.32263374,0.0,0.0,0.0,0.0,0.0,0.0,0.0007411516,0.0007411516,0.0002362132,-0.00077572465,-0.13290562,-0.09997365,-0.005473733,0.0,0.0,0.0,0.0,0.0,0.0
252532218,252341729,0.045434386,0.0032559782,-0.04848294,-0.08073759,0.048710823,-0.19979668,0.0,0.0,0.0,0.0,0.0,0.0,0.0,0.42621994,0.0,0.0,0.0,0.0,0.0,0.0,-0.00014216825,-0.00014216825,-0.0014072955,-0.0019083619,0.0010583848,-0.032895487,-0.0001552701,0.0,0.0,0.0,0.0,0.0,0.0
253032220,252841729,0.006974511,0.039505012,-0.07223094,-0.08554077,0.05829811,-0.23610115,0.0,0.0,0.0,0.0,0.0,0.0,0.0,0.38924408,0.0,0.0,0.0,0.0,0.0,0.0,0.00014137337,0.00014137337,-0.0008480251,-0.0012365282,-0.16480052,0.0020444281,-0.006678283,0.0,0.0,0.0,0.0,0.0,0.0
253532246,253341729,0.09812489,-0.07411918,0.07177597,-0.092012405,0.052350044,-0.32059097,0.0,0.0,0.0,0.0,0.0,0.0,0.0,0.12543869,0.0,0.0,0.0,0.0,0.0,0.0,0.0019955137,0.0019955137,-0.0003077984,-0.0019325614,0.05879261,-0.06702275,0.005810261,0.0,0.0,0.0,0.0,0.0,0.0
254032371,253841729,0.007451415,-0.17885165,0.07908207,-0.13970709,0.045752525,-0.32349777,0.0,0.0,0.0,0.0,0.0,0.0,0.0,-0.07889938,0.0,0.0,0.0,0.0,0.0,0.0,0.0010954365,0.0010954365,-0.0004195422,-0.00010102987,0.055937678,0.04021168,-0.003976345,0.0,0.0,0.0,0.0,0.0,0.0
254532184,254341729,0.047052205,-0.008853342,-0.02049756,-0.120699406,0.05857277,-0.3687992,0.0,0.0,0.0,0.0,0.0,0.0,0.0,0.19862556,0.0,0.0,0.0,0.0,0.0,0.0,-0.0002555549,-0.0006137397,-0.0002555549,-0.0011218488,-0.12159197,0.04419951,0.0014690757,0.0,0.0,0.0,0.0,0.0,0.0
255032413,254841729,-0.012211066,-0.082334906,-0.015524745,-0.08755112,0.04923916,-0.3608818,0.0,0.0,0.0,0.0,0.0,0.0,0.0,-0.11761665,0.0,0.0,0.0,0.0,0.0,0.0,0.00052031875,-0.00061078835,-0.00038407743,0.00052031875,-0.12119408,0.13814671,0.0070382357,0.0,0.0,0.0,0.0,0.0,0.0
255532384,255341729,-0.012721568,-0.049687244,-0.20908454,-0.06796551,0.054815292,-0.357687,0.0,0.0,0.0,0.0,0.0,0.0,0.0,0.06751633,0.0,0.0,0.0,0.0,0.0,0.0,0.00084361434,-0.0014895215,0.0007917583,0.00084361434,-0.0052057803,-0.21744287,-0.033381164,0.0,0.0,0.0,0.0,0.0,0.0
256032184,255841729,-0.08296639,-0.017745443,-0.22310075,-0.08093405,0.060907364,-0.33908653,0.0,0.0,0.0,0.0,0.0,0.0,0.0,0.11043167,0.0,0.0,0.0,0.0,0.0,0.0,0.0001540482,-0.00080573186,4.9754977e-05,0.0001540482,0.17979719,-0.13844976,-0.039237082,0.0,0.0,0.0,0.0,0.0,0.0
256532382,256341730,-0.06070304,0.07347493,-0.2423341,-0.07789183,0.0787735,-0.32403183,0.0,0.0,0.0,0.0,0.0,0.0,0.0,0.30303955,0.0,0.0,0.0,0.0,0.0,0.0,0.0008500293,-0.0003534658,0.0008500293,6.2555075e-05,0.024834473,-0.08685228,-0.006294012,0.0,0.0,0.0,0.0,0.0,0.0
257532204,257341729,0.0143518,-0.07176579,-0.08983516,-0.062238216,0.054541588,-0.28624725,0.0,0.0,0.0,0.0,0.0,0.0,0.0,0.13705826,0.0,0.0,0.0,0.0,0.0,0.0,0.0009856522,0.00077554677,-5.1140785e-05,0.0009856522,0.021682627,-0.06549682,-0.0030523539,0.0,0.0,0.0,0.0,0.0,0.0
258032196,257841729,0.07460486,-0.042511344,-0.03777743,-0.049916267,0.06253147,-0.27433014,0.0,0.0,0.0,0.0,0.0,0.0,0.0,0.11919212,0.0,0.0,0.0,0.0,0.0,0.0,0.007865131,-0.00072884094,-0.0029603243,0.007865131,-0.034737047,-0.04034079,-0.00027024746,0.0,0.0,0.0,0.0,0.0,0.0
258532354,258341729,0.1782158,-0.06367251,-0.16817343,-0.04506302,0.039061546,-0.1850071,0.0,0.0,0.0,0.0,0.0,0.0,0.0,0.07816124,0.0,0.0,0.0,0.0,0.0,0.0,0.0010197903,0.0010197903,-6.297231e-05,-0.001809001,0.10223419,0.086695924,-0.009555042,0.0,0.0,0.0,0.0,0.0,0.0
259032213,258841731,0.12044215,0.13233551,-0.011360258,-0.056835175,0.048294067,-0.17728424,0.0,0.0,0.0,0.0,0.0,0.0,0.0,0.12039566,0.0,0.0,0.0,0.0,0.0,0.0,0.0012950823,-0.00044993917,0.0012950823,-0.00020715594,0.14392729,-0.008163532,-0.008204401,0.0,0.0,0.0,0.0,0.0,0.0
259532203,259341729,0.0063198507,-0.034700453,0.09682059,-0.0788064,0.010194778,-0.20833015,0.0,0.0,0.0,0.0,0.0,0.0,0.0,0.48453712,0.0,0.0,0.0,0.0,0.0,0.0,0.0008540079,0.0003218078,0.0008540079,-0.0016478598,0.00088898744,-0.008823056,-0.00048744678,0.0,0.0,0.0,0.0,0.0,0.0
260032227,259841729,0.03099221,-0.11327672,0.09072548,-0.06411743,0.0005340576,-0.24590683,0.0,0.0,0.0,0.0,0.0,0.0,0.0,-0.0248909,0.0,0.0,0.0,0.0,0.0,0.0,0.00018517673,-0.0010328558,0.00018517673,-0.0008471906,-0.07198867,0.0012587011,-0.00013560057,0.0,0.0,0.0,0.0,0.0,0.0
260532173,260341729,0.042213865,-0.053092957,0.12006703,-0.056153774,0.009832382,-0.24561882,0.0,0.0,0.0,0.0,0.0,0.0,0.0,0.08331108,0.0,0.0,0.0,0.0,0.0,0.0,0.00027874857,3.6903657e-05,0.00027874857,-0.0007006526,-0.12916376,0.04689892,0.00095802546,0.0,0.0,0.0,0.0,0.0,0.0
261032248,260841729,0.10695212,0.03691542,0.05081439,-0.041962147,0.030510902,-0.26579094,0.0,0.0,0.0,0.0,0.0,0.0,0.0,0.81334305,0.0,0.0,0.0,0.0,0.0,0.0,0.00025495468,0.00025495468,-0.0003867224,-0.0015397072,-0.24299043,0.1097594,-0.019014537,0.0,0.0,0.0,0.0,0.0,0.0
261532230,261341729,0.00089529157,-0.050528765,0.053150535,-0.035820007,0.024142265,-0.25330544,0.0,0.0,0.0,0.0,0.0,0.0,0.0,0.25777817,0.0,0.0,0.0,0.0,0.0,0.0,0.0013392717,3.8123224e-05,0.0013392717,-0.0004992485,0.11834876,0.14376724,-0.016482472,0.0,0.0,0.0,0.0,0.0,0.0
262032189,261841729,-0.035881937,0.02568692,-0.08523807,-0.025330067,0.036989212,-0.25811386,0.0,0.0,0.0,0.0,0.0,0.0,0.0,0.115392685,0.0,0.0,0.0,0.0,0.0,0.0,0.000837028,-0.00038996898,0.000837028,-0.0005669892,0.15349652,-0.041155294,-0.022459328,0.0,0.0,0.0,0.0,0.0,0.0
262532172,262341729,0.0012580305,-0.028059274,-0.05684705,-0.018192768,0.04681301,-0.24527359,0.0,0.0,0.0,0.0,0.0,0.0,0.0,0.15415955,0.0,0.0,0.0,0.0,0.0,0.0,0.00071804225,-0.0003993949,0.00071804225,-0.0010109544,-0.024299536,0.05001326,-0.0007427335,0.0,0.0,0.0,0.0,0.0,0.0
263032213,262841729,0.0047065094,-0.020787582,-0.022542477,-0.008439541,0.053492546,-0.2306652,0.0,0.0,0.0,0.0,0.0,0.0,0.0,0.27703476,0.0,0.0,0.0,0.0,0.0,0.0,-0.0002670288,-0.0007709926,-0.00057935715,-0.0002670288,-0.2530642,-0.059099145,-0.011544943,0.0,0.0,0.0,0.0,0.0,0.0
263532206,263341729,0.036168244,0.112987496,0.020803064,-0.005337715,0.07113552,-0.21638489,0.0,0.0,0.0,0.0,0.0,0.0,0.0,0.3306961,0.0,0.0,0.0,0.0,0.0,0.0,0.0010729432,-0.00068346737,0.00034559518,0.0010729432,-0.066582575,0.003260722,0.0018860698,0.0,0.0,0.0,0.0,0.0,0.0
264032174,263841729,-0.12267227,-0.07731053,-0.0074530616,-0.0063381195,0.035845757,-0.20721626,0.0,0.0,0.0,0.0,0.0,0.0,0.0,0.34554863,0.0,0.0,0.0,0.0,0.0,0.0,0.0009804294,-0.0017563016,0.0009804294,-0.00017774105,0.07614985,0.042465657,-0.0036036372,0.0,0.0,0.0,0.0,0.0,0.0
264532166,264341729,0.014145203,0.14066479,-0.059514493,0.019003391,0.0524168,-0.22186089,0.0,0.0,0.0,0.0,0.0,0.0,0.0,0.14355087,0.0,0.0,0.0,0.0,0.0,0.0,2.0880252e-05,2.0880252e-05,-0.0024343878,-0.0010981262,-0.15659463,-0.2000202,0.009972036,0.0,0.0,0.0,0.0,0.0,0.0
265032222,264841729,-0.026106536,0.0052279234,-0.017900288,0.039595127,0.060424805,-0.23729897,0.0,0.0,0.0,0.0,0.0,0.0,0.0,0.3437004,0.0,0.0,0.0,0.0,0.0,0.0,-0.0004893383,-0.0004893383,-0.0012345761,-0.0012318492,-0.08750321,0.09931956,0.0012288094,0.0,0.0,0.0,0.0,0.0,0.0
265532390,265341729,-0.0019178241,-0.029180646,-0.028178737,0.056338787,0.078125,-0.2925148,0.0,0.0,0.0,0.0,0.0,0.0,0.0,0.52448845,0.0,0.0,0.0,0.0,0.0,0.0,-0.00022479892,-0.0008501392,-0.00077445805,-0.00022479892,0.081224345,-0.056667957,-0.012665987,0.0,0.0,0.0,0.0,0.0,0.0
266032371,265841729,0.018926807,-0.027020812,-0.063181624,0.08176279,0.0644722,-0.30523682,0.0,0.0,0.0,0.0,0.0,0.0,0.0,0.49607658,0.0,0.0,0.0,0.0,0.0,0.0,0.0007971227,-0.001731243,0.0007971227,0.00033268332,-0.061000872,0.1253481,-0.0035515428,0.0,0.0,0.0,0.0,0.0,0.0
266532242,266341729,0.055004224,0.06130874,-0.04266352,0.084748745,0.04211998,-0.29818535,0.0,0.0,0.0,0.0,0.0,0.0,0.0,0.45693016,0.0,0.0,0.0,0.0,0.0,0.0,0.0015481189,-0.0019651214,0.0015481189,0.00036218762,0.08948964,-0.041067213,-0.0045197606,0.0,0.0,0.0,0.0,0.0,0.0
267032417,266841729,-0.06296703,-0.033433795,-0.04410132,0.0765419,-0.013081551,-0.28549767,0.0,0.0,0.0,0.0,0.0,0.0,0.0,0.4349079,0.0,0.0,0.0,0.0,0.0,0.0,0.0012550727,-0.0011733794,0.0012550727,0.0002861917,0.06697385,0.11981602,-0.0006532669,0.0,0.0,0.0,0.0,0.0,0.0
267532461,267341729,0.0041639954,0.016717374,-0.033172198,0.08680773,-0.040302277,-0.28637886,0.0,0.0,0.0,0.0,0.0,0.0,0.0,0.31074524,0.0,0.0,0.0,0.0,0.0,0.0,0.0008226931,-0.00074541755,0.0008226931,0.00026345253,0.21400413,-0.0009671338,-0.014659882,0.0,0.0,0.0,0.0,0.0,0.0
268032224,267841729,-0.025501525,0.01482176,-0.0022261925,0.07225561,-0.060276985,-0.27254868,0.0,0.0,0.0,0.0,0.0,0.0,0.0,0.11149597,0.0,0.0,0.0,0.0,0.0,0.0,0.0009504631,-0.0007796148,0.0009504631,-0.00024071336,-0.040129386,-0.045031518,-0.0046381354,0.0,0.0,0.0,0.0,0.0,0.0
268532355,268341729,0.04768631,0.058180183,-0.045849264,0.08171129,-0.057992935,-0.24533844,0.0,0.0,0.0,0.0,0.0,0.0,0.0,0.4206562,0.0,0.0,0.0,0.0,0.0,0.0,0.00056216866,-0.00053371117,0.00056216866,-0.0010972023,0.052913923,-0.03298863,-0.0020065904,0.0,0.0,0.0,0.0,0.0,0.0
269032428,268841729,-0.043982744,0.15267023,-0.01683639,0.06748533,-0.047380447,-0.2102871,0.0,0.0,0.0,0.0,0.0,0.0,0.0,0.54242516,0.0,0.0,0.0,0.0,0.0,0.0,0.0018941183,0.0018941183,0.00018528849,3.4928322e-05,0.068462074,-0.003915297,-0.0022393465,0.0,0.0,0.0,0.0,0.0,0.0
269532390,269341729,0.07682358,-0.03783524,-0.022219136,0.08794451,-0.098734856,-0.17045021,0.0,0.0,0.0,0.0,0.0,0.0,0.0,0.38402748,0.0,0.0,0.0,0.0,0.0,0.0,0.00042922003,0.00042922003,-0.000836432,-0.0014070272,-0.10490525,0.021965379,-0.014040172,0.0,0.0,0.0,0.0,0.0,0.0
270032372,269841729,0.045498967,0.015653312,-0.021970343,0.09051752,-0.08617973,-0.17185593,0.0,0.0,0.0,0.0,0.0,0.0,0.0,0.23796463,0.0,0.0,0.0,0.0,0.0,0.0,-0.000544481,-0.000544481,-0.0026160479,-0.002947837,-0.09473193,0.04708623,-0.0038366318,0.0,0.0,0.0,0.0,0.0,0.0
270532352,270341729,-0.06449859,-0.0776729,-0.0053975307,0.07459307,-0.07009792,-0.164217,0.0,0.0,0.0,0.0,0.0,0.0,0.0,0.21963501,0.0,0.0,0.0,0.0,0.0,0.0,-0.0012396276,-0.0022905357,-0.0017014518,-0.0012396276,-0.08572236,0.02263003,-0.001201272,0.0,0.0,0.0,0.0,0.0,0.0
271032220,270841729,-0.012977734,0.05615014,0.008280236,0.09548712,-0.026803017,-0.13265228,0.0,0.0,0.0,0.0,0.0,0.0,0.0,0.27848053,0.0,0.0,0.0,0.0,0.0,0.0,-0.0005592108,-0.0038275374,-0.0005592108,-0.0006021857,0.071607076,0.10467979,-0.0020425916,0.0,0.0,0.0,0.0,0.0,0.0
272032208,271841729,-0.060069554,-0.003774032,-0.016412906,0.07418156,-0.0006198883,-0.15837479,0.0,0.0,0.0,0.0,0.0,0.0,0.0,0.2646618,0.0,0.0,0.0,0.0,0.0,0.0,0.0003591776,-0.0030425254,0.0003591776,-0.0004541278,0.19630584,0.04961711,-0.0141323805,0.0,0.0,0.0,0.0,0.0,0.0
272532171,272341729,-0.026903123,0.20807336,-0.021939794,0.07566595,0.03895378,-0.1753788,0.0,0.0,0.0,0.0,0.0,0.0,0.0,0.29745102,0.0,0.0,0.0,0.0,0.0,0.0,-0.00010525435,-0.0032294795,-0.00010525435,-0.0001899004,0.118474945,0.018705018,-0.002085209,0.0,0.0,0.0,0.0,0.0,0.0
273032257,272841729,0.083551615,0.07183604,0.024790581,0.07357216,0.03626442,-0.122413635,0.0,0.0,0.0,0.0,0.0,0.0,0.0,0.4666443,0.0,0.0,0.0,0.0,0.0,0.0,0.0010815114,-0.0023437287,0.0010815114,0.00054740906,0.11373642,-0.04992944,-0.003851056,0.0,0.0,0.0,0.0,0.0,0.0
274032243,273841729,0.052922882,0.014068477,0.009177053,0.054846287,0.01867199,-0.11935425,0.0,0.0,0.0,0.0,0.0,0.0,0.0,0.15659904,0.0,0.0,0.0,0.0,0.0,0.0,0.0034198835,-0.0011505623,0.0034198835,0.0009340346,0.16095409,-0.10355812,-0.012429953,0.0,0.0,0.0,0.0,0.0,0.0
274532170,274341729,0.042323537,0.015202712,0.01580406,0.04840803,0.030186653,-0.07613373,0.0,0.0,0.0,0.0,0.0,0.0,0.0,0.19892693,0.0,0.0,0.0,0.0,0.0,0.0,0.0033485629,0.0006540815,0.0033485629,0.0005776882,-0.13464081,0.07920057,-0.014685929,0.0,0.0,0.0,0.0,0.0,0.0
275032176,274841729,-0.052161027,0.014649967,0.089449406,0.025051117,0.039298058,-0.0034046173,0.0,0.0,0.0,0.0,0.0,0.0,0.0,0.02565384,0.0,0.0,0.0,0.0,0.0,0.0,0.0058448985,0.003231034,0.0058448985,-0.00036019087,0.07486816,-0.065530464,-0.003918886,0.0,0.0,0.0,0.0,0.0,0.0
275532208,275341729,0.04788711,0.08688136,-0.01920216,0.04033041,0.03767395,-0.040725708,0.0,0.0,0.0,0.0,0.0,0.0,0.0,0.22650146,0.0,0.0,0.0,0.0,0.0,0.0,0.005723375,0.005723375,0.0028658956,-0.00029203296,0.041206557,-0.07854728,-0.0039901137,0.0,0.0,0.0,0.0,0.0,0.0
276032417,275841729,0.012712851,0.15498756,-0.027506333,0.047706604,0.0491457,0.0062351227,0.0,0.0,0.0,0.0,0.0,0.0,0.0,0.045305252,0.0,0.0,0.0,0.0,0.0,0.0,0.006629949,0.006629949,0.00087089837,-0.001843214,0.22773756,0.007836297,-0.029473543,0.0,0.0,0.0,0.0,0.0,0.0
276532387,276341729,0.01635639,0.008214865,-0.070356354,0.025972366,0.023011208,0.011518478,0.0,0.0,0.0,0.0,0.0,0.0,0.0,-0.13750267,0.0,0.0,0.0,0.0,0.0,0.0,0.007472987,0.007472987,-0.0006379932,-0.0022920668,-0.038730163,-0.020013344,-0.0011050105,0.0,0.0,0.0,0.0,0.0,0.0
277032367,276841729,-0.026567422,0.021944625,-0.08152795,-0.0037178993,0.0098257065,0.014545441,0.0,0.0,0.0,0.0,0.0,0.0,0.0,-0.31575203,0.0,0.0,0.0,0.0,0.0,0.0,0.0060371137,0.0060371137,-0.0025451258,-0.0020677447,-0.31894737,-0.10257271,-0.060053527,0.0,0.0,0.0,0.0,0.0,0.0
277532213,277341731,0.057800323,0.05496668,-0.062944576,-0.005135536,0.014331818,0.054214478,0.0,0.0,0.0,0.0,0.0,0.0,0.0,-0.23975372,0.0,0.0,0.0,0.0,0.0,0.0,0.0028815484,0.0028815484,-0.0033206493,-0.0003928244,-0.0016590352,0.011500364,0.00016438961,0.0,0.0,0.0,0.0,0.0,0.0
278032445,277841729,-0.037790164,-0.09246128,-0.062581375,-0.041251183,-0.014763832,0.07730675,0.0,0.0,0.0,0.0,0.0,0.0,0.0,-0.1182251,0.0,0.0,0.0,0.0,0.0,0.0,0.0017410734,0.0017410734,-0.0020417273,-0.0015155375,-0.089047246,0.0015991768,-0.0071285367,0.0,0.0,0.0,0.0,0.0,0.0
278532170,278341729,-0.033477753,-0.045896046,-0.0471308,-0.033040047,-0.005551338,0.115465164,0.0,0.0,0.0,0.0,0.0,0.0,0.0,-0.13027191,0.0,0.0,0.0,0.0,0.0,0.0,0.0014655152,0.0014655152,-0.0014879666,-0.0033242404,-0.060897958,-0.07062584,-0.007880032,0.0,0.0,0.0,0.0,0.0,0.0
279032206,278841729,-0.06878281,-0.0108275,0.040107347,-0.034475327,-0.00228405,0.13379097,0.0,0.0,0.0,0.0,0.0,0.0,0.0,-0.14245796,0.0,0.0,0.0,0.0,0.0,0.0,0.0024570297,0.0024570297,-0.002645187,-0.002259016,0.019808292,-0.055615503,-0.00035208464,0.0,0.0,0.0,0.0,0.0,0.0
279532451,279341729,-0.07646006,0.021504901,-0.023992095,-0.03488493,0.00039482117,0.14055634,0.0,0.0,0.0,0.0,0.0,0.0,0.0,-0.3612404,0.0,0.0,0.0,0.0,0.0,0.0,0.001996212,0.001996212,-0.0016188398,-0.0028686821,-0.05627477,-0.07600044,-0.007879496,0.0,0.0,0.0,0.0,0.0,0.0
280532590,280341729,-0.06655212,-0.03951014,-0.099756494,-0.033489227,0.0043058395,0.12409401,0.0,0.0,0.0,0.0,0.0,0.0,0.0,-0.16474342,0.0,0.0,0.0,0.0,0.0,0.0,0.00040397313,0.00040397313,-0.0011126064,-0.0015836954,0.23981324,0.0027293637,-0.017696619,0.0,0.0,0.0,0.0,0.0,0.0
281032577,280841729,0.21495828,-0.040179096,-0.08100043,-0.0049967766,0.008940697,0.12392998,0.0,0.0,0.0,0.0,0.0,0.0,0.0,-0.2291069,0.0,0.0,0.0,0.0,0.0,0.0,0.0010925018,0.0010925018,-0.0020446219,-0.00052306056,-0.16797547,0.006235447,-0.02284509,0.0,0.0,0.0,0.0,0.0,0.0
281532375,281341729,0.063677266,-0.021352205,-0.08611456,-0.016232967,0.023740768,0.14962769,0.0,0.0,0.0,0.0,0.0,0.0,0.0,-0.36572838,0.0,0.0,0.0,0.0,0.0,0.0,0.0010666129,0.0010666129,-0.0010468997,-0.002269864,0.29152566,0.06357074,-0.028126895,0.0,0.0,0.0,0.0,0.0,0.0
282032608,281841729,-0.026344158,-0.023947721,-0.10955083,-0.027413368,0.024679184,0.11668968,0.0,0.0,0.0,0.0,0.0,0.0,0.0,-0.20326233,0.0,0.0,0.0,0.0,0.0,0.0,0.0014122342,0.0014122342,-0.0021403693,-0.0009723604,0.07858986,0.09143164,0.0009786487,0.0,0.0,0.0,0.0,0.0,0.0
282532562,282341729,0.12604155,0.047988523,-0.119071454,0.02189684,0.054696083,0.13066292,0.0,0.0,0.0,0.0,0.0,0.0,0.0,-0.20103073,0.0,0.0,0.0,0.0,0.0,0.0,0.0024515577,0.0024515577,-0.0027551018,-0.00058707595,0.038386926,0.030998971,0.0022678375,0.0,0.0,0.0,0.0,0.0,0.0
283032382,282841729,-0.0080246795,0.041312665,-0.10748637,0.031680584,0.07092953,0.12861061,0.0,0.0,0.0,0.0,0.0,0.0,0.0,0.023094177,0.0,0.0,0.0,0.0,0.0,0.0,0.0016932492,0.0016932492,-0.0004651323,-0.00082680583,-0.17257549,0.042807966,-0.023863077,0.0,0.0,0.0,0.0,0.0,0.0
283532605,283341730,0.09375329,-0.0006428547,-0.092821404,0.05046749,0.065060616,0.10864258,0.0,0.0,0.0,0.0,0.0,0.0,0.0,-0.0736351,0.0,0.0,0.0,0.0,0.0,0.0,0.0014207414,0.0014207414,-0.00044736266,-0.0019496083,0.019363066,-0.0024249367,0.0006518364,0.0,0.0,0.0,0.0,0.0,0.0
284032606,283841729,0.0050299913,-0.17504081,-0.048864007,0.021479607,0.019209862,0.031354904,0.0,0.0,0.0,0.0,0.0,0.0,0.0,-0.08852959,0.0,0.0,0.0,0.0,0.0,0.0,0.0050804317,-0.0009210012,0.0026793107,0.0050804317,0.023476526,0.120753765,-0.0019826293,0.0,0.0,0.0,0.0,0.0,0.0
284532569,284341729,-0.05625269,0.05185532,-0.039176047,-0.01545763,0.022137642,0.070920944,0.0,0.0,0.0,0.0,0.0,0.0,0.0,0.16434097,0.0,0.0,0.0,0.0,0.0,0.0,0.0043517225,0.0043517225,0.0003543347,-0.0008867979,-0.15169351,-0.035552107,-0.010737538,0.0,0.0,0.0,0.0,0.0,0.0
285032360,284841729,-0.0886184,-0.10250616,-0.031513788,-0.03091669,-0.0031766891,0.049459457,0.0,0.0,0.0,0.0,0.0,0.0,0.0,0.023382187,0.0,0.0,0.0,0.0,0.0,0.0,0.004637164,0.004637164,-0.0009736419,0.00091797113,0.08286468,0.010396415,-0.010539949,0.0,0.0,0.0,0.0,0.0,0.0
285532412,285341729,0.07842621,0.012755536,-0.09171435,-0.035904408,-0.0109939575,0.049459457,0.0,0.0,0.0,0.0,0.0,0.0,0.0,0.07287979,0.0,0.0,0.0,0.0,0.0,0.0,0.005974896,0.005974896,0.00057359785,-0.0009377003,0.37915117,-0.0030480414,-0.11639017,0.0,0.0,0.0,0.0,0.0,0.0
286032449,285841729,0.09487462,-0.039814115,-0.07267015,0.012932777,0.008051872,0.049459457,0.0,0.0,0.0,0.0,0.0,0.0,0.0,0.3411045,0.0,0.0,0.0,0.0,0.0,0.0,0.0038581935,0.0038581935,0.0010366887,7.125735e-05,-0.070225514,-0.11803801,-0.003550768,0.0,0.0,0.0,0.0,0.0,0.0
286532338,286341729,0.030498683,-0.0770787,0.00977058,0.061221123,0.020801544,0.049459457,0.0,0.0,0.0,0.0,0.0,0.0,0.0,-0.30515862,0.0,0.0,0.0,0.0,0.0,0.0,0.003012273,0.003012273,0.0012648255,0.0018360317,0.06474521,0.09948139,-0.008003414,0.0,0.0,0.0,0.0,0.0,0.0
287032390,286841729,0.07572061,0.07454896,-0.07593271,0.10652161,0.027009964,0.049459457,0.0,0.0,0.0,0.0,0.0,0.0,0.0,-0.22908401,0.0,0.0,0.0,0.0,0.0,0.0,0.0023062825,0.0021354267,0.0020515248,0.0023062825,0.02498379,0.07330141,0.002381444,0.0,0.0,0.0,0.0,0.0,0.0
287532385,287341729,-0.08252257,-0.048123002,-0.056486063,0.10706878,0.00022602081,0.049459457,0.0,0.0,0.0,0.0,0.0,0.0,0.0,-0.3163929,0.0,0.0,0.0,0.0,0.0,0.0,0.0025768578,0.0023407533,0.00244347,0.0025768578,-0.003956843,0.073232494,0.004786253,0.0,0.0,0.0,0.0,0.0,0.0
288032435,287841729,-0.06279689,0.08862463,-0.017549999,0.10444045,-0.02034378,0.049459457,0.0,0.0,0.0,0.0,0.0,0.0,0.0,-0.16812706,0.0,0.0,0.0,0.0,0.0,0.0,0.0026474297,0.0020063168,0.0017738193,0.0026474297,0.019747298,0.02028539,0.0009499788,0.0,0.0,0.0,0.0,0.0,0.0
288532347,288341729,-0.050168216,-0.042180672,-0.107829794,0.07945585,-0.046471596,0.049459457,0.0,0.0,0.0,0.0,0.0,0.0,0.0,-0.06701279,0.0,0.0,0.0,0.0,0.0,0.0,0.0032594884,0.0032594884,0.0020931736,0.003171295,0.08390665,-0.027869165,-0.009446144,0.0,0.0,0.0,0.0,0.0,0.0
289032363,288841729,0.03472933,-0.19606298,-0.13641222,0.07275796,-0.13621235,0.049459457,0.0,0.0,0.0,0.0,0.0,0.0,0.0,-0.15415001,0.0,0.0,0.0,0.0,0.0,0.0,0.0033599045,0.0033599045,0.0009477511,0.00043207407,0.013932552,-0.069706194,-0.008153975,0.0,0.0,0.0,0.0,0.0,0.0
289532389,289341729,-0.21782607,-0.16702993,-0.08980006,-0.0039224625,-0.19029903,0.049459457,0.0,0.0,0.0,0.0,0.0,0.0,0.0,0.13391876,0.0,0.0,0.0,0.0,0.0,0.0,0.0033328012,0.0022931276,0.0033328012,0.00079372525,0.20809978,0.13444218,-0.028142035,0.0,0.0,0.0,0.0,0.0,0.0
290032387,289841729,0.4035188,0.29735866,0.11586059,0.19671774,-0.06148815,0.049459457,0.0,0.0,0.0,0.0,0.0,0.0,0.0,0.24692917,0.0,0.0,0.0,0.0,0.0,0.0,0.007978916,0.0018518633,0.0007112846,0.007978916,-0.11179608,-0.16546135,-0.024920106,0.0,0.0,0.0,0.0,0.0,0.0
290532199,290341730,0.3472495,-0.3066665,-0.20030616,0.29736948,-0.09777355,0.049459457,0.0,0.0,0.0,0.0,0.0,0.0,0.0,-0.2501011,0.0,0.0,0.0,0.0,0.0,0.0,0.0038884974,0.0038884974,0.0011325479,-6.133318e-05,-0.026771035,0.0452513,-0.0011249185,0.0,0.0,0.0,0.0,0.0,0.0
291032194,290841729,0.23693854,-0.22964293,0.04600528,0.35950375,-0.12078285,0.049459457,0.0,0.0,0.0,0.0,0.0,0.0,0.0,0.06477165,0.0,0.0,0.0,0.0,0.0,0.0,0.0036323103,0.0036323103,0.0014960691,-0.006404996,0.06133476,-0.029012524,-0.00327605,0.0,0.0,0.0,0.0,0.0,0.0
291532217,291341729,0.03882116,-0.031204462,0.068069145,0.39610958,-0.14575958,0.049459457,0.0,0.0,0.0,0.0,0.0,0.0,0.0,-0.40016365,0.0,0.0,0.0,0.0,0.0,0.0,0.004059016,0.004059016,-0.000476256,-0.0008146167,-0.06909258,-0.11847794,-0.010114014,0.0,0.0,0.0,0.0,0.0,0.0
292032228,291841730,-0.24144423,0.26929986,-0.004910201,0.41539657,0.030769348,0.049459457,0.0,0.0,0.0,0.0,0.0,0.0,0.0,-0.19696808,0.0,0.0,0.0,0.0,0.0,0.0,0.0038290182,0.0038290182,-0.00083527714,0.00096693635,-0.058409166,0.040848088,-0.0012264848,0.0,0.0,0.0,0.0,0.0,0.0
292532214,292341729,0.15703374,-0.232977,0.04228449,0.42092133,-0.035830498,0.049459457,0.0,0.0,0.0,0.0,0.0,0.0,0.0,-0.15122604,0.0,0.0,0.0,0.0,0.0,0.0,0.004866831,0.004866831,-0.00012924522,0.0002746582,-0.19690046,-0.029500455,-0.01786375,0.0,0.0,0.0,0.0,0.0,0.0
293032216,292841729,-0.18981946,-0.040651903,-0.13803549,0.43750894,-0.026330948,0.049459457,0.0,0.0,0.0,0.0,0.0,0.0,0.0,-0.45480347,0.0,0.0,0.0,0.0,0.0,0.0,0.0026082443,0.0026082443,0.00024038553,0.0006759763,-0.12207269,-0.10549292,-0.011903763,0.0,0.0,0.0,0.0,0.0,0.0
293532243,293341729,-0.34499037,-0.2944907,-0.10960704,0.2880538,0.008710861,0.049459457,0.0,0.0,0.0,0.0,0.0,0.0,0.0,-0.19714165,0.0,0.0,0.0,0.0,0.0,0.0,0.003474962,0.003474962,-0.0012852252,0.000269413,-0.28080052,-0.12655132,-0.04093522,0.0,0.0,0.0,0.0,0.0,0.0
294032227,293841729,-0.18923378,-0.38280624,-0.17458278,0.21217188,-0.15051365,0.049459457,0.0,0.0,0.0,0.0,0.0,0.0,0.0,-0.24633408,0.0,0.0,0.0,0.0,0.0,0.0,0.0020144861,0.0020144861,-0.00033298135,0.0009623468,-0.11501872,-0.11730728,-0.016378403,0.0,0.0,0.0,0.0,0.0,0.0
294532213,294341729,-0.10949683,0.07143616,-0.043208852,0.17150116,-0.07234764,0.049459457,0.0,0.0,0.0,0.0,0.0,0.0,0.0,-0.67624664,0.0,0.0,0.0,0.0,0.0,0.0,0.0025121297,0.0025121297,-0.0006792098,-0.0029099286,0.11364793,-0.050074786,-0.0061926246,0.0,0.0,0.0,0.0,0.0,0.0
295032191,294841732,-0.95349455,-0.010895789,-0.14156468,-0.2630484,-0.010798454,0.049459457,0.0,0.0,0.0,0.0,0.0,0.0,0.0,-0.50021553,0.0,0.0,0.0,0.0,0.0,0.0,0.00089166657,0.00089166657,0.0005406067,0.00077569485,-0.117969826,0.07045814,-0.011071324,0.0,0.0,0.0,0.0,0.0,0.0
295532207,295341729,-0.7444352,-0.12013103,-0.27287805,-0.46863723,0.06039238,0.049459457,0.0,0.0,0.0,0.0,0.0,0.0,0.0,-0.74175644,0.0,0.0,0.0,0.0,0.0,0.0,0.0015566007,0.0015566007,-0.0013474524,0.00038647652,0.12199568,0.019529441,-0.008073688,0.0,0.0,0.0,0.0,0.0,0.0
296032223,295841729,0.1246413,0.114419825,-0.32873407,-0.3973732,0.1441307,0.049459457,0.0,0.0,0.0,0.0,0.0,0.0,0.0,-0.5938854,0.0,0.0,0.0,0.0,0.0,0.0,0.0023587807,0.0023587807,-0.0013767928,0.00030562282,0.1338432,0.10298405,-0.012511969,0.0,0.0,0.0,0.0,0.0,0.0
297032181,296841729,-1.5395187,0.36368442,-0.29404035,-0.8710966,0.10263252,0.049459457,0.0,0.0,0.0,0.0,0.0,0.0,0.0,-0.06847572,0.0,0.0,0.0,0.0,0.0,0.0,0.0029633343,-0.0048181834,0.0013727844,0.0029633343,0.10133549,0.3508907,0.07623762,0.0,0.0,0.0,0.0,0.0,0.0
297532189,297341729,-1.4116325,0.016624331,-0.13689667,-1.4239845,0.19762897,0.0,0.0,0.0,0.0,0.0,0.0,0.0,0.0,0.85881233,0.0,0.0,0.0,0.0,0.0,0.0,0.0015886767,0.0015886767,-0.00022468902,0.0011792183,-0.20482482,0.16450661,0.035099506,0.0,0.0,0.0,0.0,0.0,0.0
298532161,298341728,-0.98222065,-0.015895367,-0.06321779,-1.9002266,0.14290237,0.0,0.0,0.0,0.0,0.0,0.0,0.0,0.0,0.36031723,0.0,0.0,0.0,0.0,0.0,0.0,0.00082795694,-8.873286e-05,0.00082795694,-0.0007196963,0.10795911,0.01570189,-0.018780112,0.0,0.0,0.0,0.0,0.0,0.0
299032218,298841729,-0.7963598,-0.18797596,-0.119881645,-2.1337743,0.101389885,0.0,0.0,0.0,0.0,0.0,0.0,0.0,0.0,0.6827202,0.0,0.0,0.0,0.0,0.0,0.0,0.0008235276,0.00077923085,-0.00074691325,0.0008235276,-0.18274194,0.18825762,0.014226258,0.0,0.0,0.0,0.0,0.0,0.0
299532234,299341729,-0.62122655,-0.08662645,-0.25771135,-2.2837763,0.06398201,0.0,0.0,0.0,0.0,0.0,0.0,0.0,0.0,0.09810257,0.0,0.0,0.0,0.0,0.0,0.0,0.0029303432,0.0018588372,-0.0012009814,0.0029303432,0.3389218,-0.09273251,-0.15350926,0.0,0.0,0.0,0.0,0.0,0.0
300032271,299841729,-0.5562389,-0.19031584,-0.24789456,-2.4564269,0.036239624,0.0,0.0,0.0,0.0,0.0,0.0,0.0,0.0,-0.8299675,0.0,0.0,0.0,0.0,0.0,0.0,-0.00026303157,-0.00027851536,-0.00026303157,-0.004614383,-0.3511486,-0.24406424,-0.052153766,0.0,0.0,0.0,0.0,0.0,0.0
300532160,300341729,-0.44984627,-0.013680637,-0.23140526,-2.7198088,-0.011813164,0.0,0.0,0.0,0.0,0.0,0.0,0.0,0.0,-0.42904472,0.0,0.0,0.0,0.0,0.0,0.0,0.0006416834,0.0006416834,-6.262213e-05,-0.00060135126,0.045168407,0.095814124,-0.0019559264,0.0,0.0,0.0,0.0,0.0,0.0
301032211,300841729,-0.5186877,-0.25213805,-0.07216966,-3.020213,-0.08209038,0.0,0.0,0.0,0.0,0.0,0.0,0.0,0.0,0.14816093,0.0,0.0,0.0,0.0,0.0,0.0,0.0023107901,0.0010936395,0.0023107901,-0.0016400814,0.46560585,0.16490059,-0.1331914,0.0,0.0,0.0,0.0,0.0,0.0
301532192,301341729,-0.47277927,-0.008254468,-0.10327488,-3.3076115,-0.06102085,0.0,0.0,0.0,0.0,0.0,0.0,0.0,0.0,0.58465767,0.0,0.0,0.0,0.0,0.0,0.0,0.0014777563,0.0014777563,0.00010754913,-0.0012412965,0.2617784,0.0047683516,-0.031760693,0.0,0.0,0.0,0.0,0.0,0.0
302032331,301841729,-0.3924017,0.07687983,-0.07225108,-3.5161347,0.0060300827,0.0,0.0,0.0,0.0,0.0,0.0,0.0,0.0,0.18884468,0.0,0.0,0.0,0.0,0.0,0.0,0.0016378388,0.0012712553,0.0016378388,0.00083461404,0.14947979,-0.007894922,-0.011412263,0.0,0.0,0.0,0.0,0.0,0.0
302532199,302341729,-0.49123013,-0.17901705,-0.122305036,-3.7780094,-0.021074295,0.0,0.0,0.0,0.0,0.0,0.0,0.0,0.0,-0.0,0.0,0.0,0.0,0.0,0.0,0.0,0.0016526768,0.0016526768,0.00013716519,-0.00068214536,-0.18690716,-0.05336166,-0.018676639,0.0,0.0,0.0,0.0,0.0,0.0
303032209,302841729,-0.4852382,0.09359986,-0.019016743,-3.99473,0.05257225,0.0,0.0,0.0,0.0,0.0,0.0,0.0,0.0,-0.0,0.0,0.0,0.0,0.0,0.0,0.0,0.0027240813,0.0010365391,0.00060650706,0.0027240813,-0.41162503,-0.044474076,-0.09114814,0.0,0.0,0.0,0.0,0.0,0.0
303532167,303341729,-0.67001176,-0.0035690218,-0.12876546,-4.2176094,0.07772446,0.0,0.0,0.0,0.0,0.0,0.0,0.0,0.0,0.18703842,0.0,0.0,0.0,0.0,0.0,0.0,0.0016083199,0.0016083199,8.679181e-05,0.00013947487,0.53729963,0.10861676,-0.16347146,0.0,0.0,0.0,0.0,0.0,0.0
304032221,303841729,-0.23077345,0.36009896,-0.100037694,-4.207424,0.14704227,0.0,0.0,0.0,0.0,0.0,0.0,0.0,0.0,-0.0,0.0,0.0,0.0,0.0,0.0,0.0,0.0013193114,0.0013193114,-0.0014586821,-0.00040006638,-0.004544921,0.16754581,-0.011048615,0.0,0.0,0.0,0.0,0.0,0.0
305032168,304841729,-0.47570747,0.014938414,-0.21988797,-4.5668907,0.1492796,0.0,0.0,0.0,0.0,0.0,0.0,0.0,0.0,-0.0,0.0,0.0,0.0,0.0,0.0,0.0,0.0013254881,0.00046198067,0.00010565668,0.0013254881,0.19367865,0.13741966,-0.026764989,0.0,0.0,0.0,0.0,0.0,0.0
305532220,305341729,-0.64045393,0.08883862,-0.1866138,-4.84356,0.18923855,0.0,0.0,0.0,0.0,0.0,0.0,0.0,0.0,-0.0,0.0,0.0,0.0,0.0,0.0,0.0,0.0006098274,0.0006098274,-0.00084781647,0.00016376376,-0.07215142,0.098945476,-0.008654892,0.0,0.0,0.0,0.0,0.0,0.0
306032323,305841729,-0.6690562,0.10339798,-0.2302537,-5.0939283,0.26358604,0.0,0.0,0.0,0.0,0.0,0.0,0.0,0.0,-0.0,0.0,0.0,0.0,0.0,0.0,0.0,0.0026455224,0.0026455224,-0.0001423806,-0.0008446276,0.102873355,0.09902114,-0.014102161,0.0,0.0,0.0,0.0,0.0,0.0
306532193,306341729,-0.62935376,0.12708482,-0.23512626,-5.226218,0.3265314,0.0,0.0,0.0,0.0,0.0,0.0,0.0,0.0,-0.0,0.0,0.0,0.0,0.0,0.0,0.0,0.0017018914,0.00023625564,-0.00030649453,0.0017018914,0.0066727847,-0.039952863,-0.0011979938,0.0,0.0,0.0,0.0,0.0,0.0
307032177,306841729,-0.5255184,0.2556569,-0.28128076,-5.454173,0.43298817,0.0,0.0,0.0,0.0,0.0,0.0,0.0,0.0,-0.0,0.0,0.0,0.0,0.0,0.0,0.0,0.0026611388,0.0014035896,-0.0017691329,0.0026611388,0.06954687,-0.15295762,-0.013846636,0.0,0.0,0.0,0.0,0.0,0.0
307532357,307341729,0.009343654,0.08910479,0.032286048,0.015690804,-0.00094795227,0.011980057,0.0,0.0,0.0,0.0,0.0,0.0,0.0,-0.0,0.0,0.0,0.0,0.0,0.0,0.0,0.001113236,0.00031796395,-0.001656279,0.001113236,0.026235793,-0.047939125,-0.0015128851,0.0,0.0,0.0,0.0,0.0,0.0
308532388,308341729,0.085027695,0.11156471,-0.05722344,0.03095913,-0.019295692,0.17881155,0.0,0.0,0.0,0.0,0.0,0.0,0.0,-0.0,0.0,0.0,0.0,0.0,0.0,0.0,0.00024223328,-7.5180375e-05,-0.0057320744,0.00024223328,-0.11882636,-0.29904824,-0.053516865,0.0,0.0,0.0,0.0,0.0,0.0
309032367,308841729,0.47946334,-0.1941421,-0.71908134,0.048864365,-0.04257393,0.2769394,0.0,0.0,0.0,0.0,0.0,0.0,0.0,-0.0,0.0,0.0,0.0,0.0,0.0,0.0,0.009833604,0.004198528,-0.006064236,0.009833604,-0.2896202,-0.15706362,0.017431796,0.0,0.0,0.0,0.0,0.0,0.0
309532389,309341729,0.58515286,-0.011329293,-1.263571,0.07113838,0.0044136047,0.30146408,0.0,0.0,0.0,0.0,0.0,0.0,0.0,-0.0,0.0,0.0,0.0,0.0,0.0,0.0,0.00988251,0.003920624,-0.008532986,0.00988251,-0.052101888,-0.054638848,0.01825875,0.0,0.0,0.0,0.0,0.0,0.0
310032423,309841729,-0.06228161,0.16080928,-1.3530551,-0.066357136,0.029817581,0.47900867,0.0,0.0,0.0,0.0,0.0,0.0,0.0,-0.0,0.0,0.0,0.0,0.0,0.0,0.0,0.004259169,-0.0007277922,-0.010288477,0.004259169,-0.2135538,-0.07045251,-0.013878226,0.0,0.0,0.0,0.0,0.0,0.0
310532387,310341729,-0.28329754,0.18707323,-0.90999186,-0.10388756,-0.04732704,0.73341656,0.0,0.0,0.0,0.0,0.0,0.0,0.0,-0.0,0.0,0.0,0.0,0.0,0.0,0.0,0.0013225675,-0.0023000229,-0.008697998,0.0013225675,0.29461306,0.15511593,-0.03073597,0.0,0.0,0.0,0.0,0.0,0.0
311032370,310841729,-0.56953347,0.009739041,-0.18162203,-0.10406399,-0.12040615,0.7336035,0.0,0.0,0.0,0.0,0.0,0.0,0.0,-0.0,0.0,0.0,0.0,0.0,0.0,0.0,0.004079342,-0.0029280167,-0.003961007,0.004079342,0.077970356,0.28752905,0.029570818,0.0,0.0,0.0,0.0,0.0,0.0
312032261,311841729,-0.79291576,0.7763508,1.840569,-0.31143665,0.07898235,0.7903547,0.0,0.0,0.0,0.0,0.0,0.0,0.0,-0.0,0.0,0.0,0.0,0.0,0.0,0.0,0.0045667887,-0.0017345585,0.0019185217,0.0045667887,-0.055910315,0.11084125,0.014257848,0.0,0.0,0.0,0.0,0.0,0.0
312532210,312341729,-0.3654545,0.322269,1.4107845,-0.44621086,0.19381618,0.7903547,0.0,0.0,0.0,0.0,0.0,0.0,0.0,0.2817974,0.0,0.0,0.0,0.0,0.0,0.0,0.002605237,-0.000527735,0.002605237,0.0022608638,-0.24164589,0.0047190934,-0.026660502,0.0,0.0,0.0,0.0,0.0,0.0
313032209,312841729,-0.24532804,-0.17239773,1.2067477,-0.5149548,0.06743908,0.7903547,0.0,0.0,0.0,0.0,0.0,0.0,0.0,0.72773266,0.0,0.0,0.0,0.0,0.0,0.0,0.0066016614,7.283117e-05,0.0019473508,0.0066016614,0.16891938,-0.13440752,-0.04387158,0.0,0.0,0.0,0.0,0.0,0.0
313532176,313341729,-0.3749457,-0.028689664,1.0602832,-0.6886474,0.0072546005,0.7903547,0.0,0.0,0.0,0.0,0.0,0.0,0.0,1.1014128,0.0,0.0,0.0,0.0,0.0,0.0,0.0023174882,-0.00044899835,0.0023174882,0.0010650158,0.05050895,0.08357029,-0.0026710033,0.0,0.0,0.0,0.0,0.0,0.0
314032224,313841729,-0.1563021,-0.11495818,0.8329879,-0.73288345,-0.11929417,0.7903547,0.0,0.0,0.0,0.0,0.0,0.0,0.0,1.2523661,0.0,0.0,0.0,0.0,0.0,0.0,0.004242517,-0.0017899871,0.004242517,0.0023787022,-0.33254883,-0.0019298121,-0.050979435,0.0,0.0,0.0,0.0,0.0,0.0
314532247,314341729,0.027456671,-0.24182187,0.73258775,-0.6761086,-0.27511597,0.7903547,0.0,0.0,0.0,0.0,0.0,0.0,0.0,1.3094807,0.0,0.0,0.0,0.0,0.0,0.0,0.003336914,-0.0008290211,0.003336914,0.0015156269,-0.013515215,0.14717707,-0.003763616,0.0,0.0,0.0,0.0,0.0,0.0
315032200,314841730,-0.14264275,-0.21351177,0.70323205,-0.7067294,-0.38224602,0.7903547,0.0,0.0,0.0,0.0,0.0,0.0,0.0,1.207015,0.0,0.0,0.0,0.0,0.0,0.0,0.0035169125,0.0014760118,0.0031703115,0.0035169125,-0.24041,0.01694128,-0.020145416,0.0,0.0,0.0,0.0,0.0,0.0
315532187,315341729,-0.037927285,-0.13929573,0.62191457,-0.73301244,-0.46514893,0.7903547,0.0,0.0,0.0,0.0,0.0,0.0,0.0,1.4174442,0.0,0.0,0.0,0.0,0.0,0.0,0.000947766,-0.00012950902,0.000947766,0.0005994439,0.10536807,-0.12232071,-0.02217263,0.0,0.0,0.0,0.0,0.0,0.0
316032222,315841729,-0.16304916,-0.2205695,0.59623396,-0.74159837,-0.63379955,0.7903547,0.0,0.0,0.0,0.0,0.0,0.0,0.0,1.5585151,0.0,0.0,0.0,0.0,0.0,0.0,0.007014215,-0.001431,0.0024973303,0.007014215,-0.18269885,0.118457094,-0.015617013,0.0,0.0,0.0,0.0,0.0,0.0
316532207,316341729,-0.082362935,-0.29030842,0.73067945,-0.73278856,-0.79468346,0.7903547,0.0,0.0,0.0,0.0,0.0,0.0,0.0,1.6865773,0.0,0.0,0.0,0.0,0.0,0.0,0.000524573,-0.00017539313,0.000524573,-0.00047332048,-0.22990827,0.043974794,-0.017381132,0.0,0.0,0.0,0.0,0.0,0.0
317032184,316841729,-0.2844264,-0.22196214,0.69067925,-0.7885964,-0.93591404,0.7903547,0.0,0.0,0.0,0.0,0.0,0.0,0.0,1.8378134,0.0,0.0,0.0,0.0,0.0,0.0,0.0021620542,-0.0014453174,0.0021620542,0.0007672906,-0.03902573,0.22940382,0.007318616,0.0,0.0,0.0,0.0,0.0,0.0
317532176,317341729,-0.11329454,-0.23707812,0.6699689,-0.7845974,-1.1143942,0.7903547,0.0,0.0,0.0,0.0,0.0,0.0,0.0,1.8842597,0.0,0.0,0.0,0.0,0.0,0.0,0.0048114583,-0.0006631087,0.0048114583,-9.688735e-05,-0.1825502,-0.08922331,-0.023334503,0.0,0.0,0.0,0.0,0.0,0.0
318032229,317841729,-0.1270724,-0.55753124,0.5685128,-0.82892084,-1.4490433,0.7903547,0.0,0.0,0.0,0.0,0.0,0.0,0.0,1.3915243,0.0,0.0,0.0,0.0,0.0,0.0,0.0019200742,0.00023859047,0.0013778806,0.0019200742,-0.093248196,4.4251792e-05,-0.0040516853,0.0,0.0,0.0,0.0,0.0,0.0
318532254,318341729,-0.05185914,-0.5375315,0.3304547,-0.73723054,-1.7069368,0.7903547,0.0,0.0,0.0,0.0,0.0,0.0,0.0,1.9363928,0.0,0.0,0.0,0.0,0.0,0.0,0.0010922328,0.00061361823,0.0010922328,0.00089642406,-0.013178412,0.0026753333,0.00010877848,0.0,0.0,0.0,0.0,0.0,0.0
319032224,318841729,-0.08699724,-0.6122121,0.1273694,-0.7693515,-2.0757017,0.7903547,0.0,0.0,0.0,0.0,0.0,0.0,0.0,1.0577765,0.0,0.0,0.0,0.0,0.0,0.0,0.002895683,-0.00040103222,0.0024821386,0.002895683,-0.019353922,0.041062202,-0.0011434555,0.0,0.0,0.0,0.0,0.0,0.0
319532213,319341729,0.34712458,-0.3535181,0.039830804,-0.62182236,-2.28053,0.7903547,0.0,0.0,0.0,0.0,0.0,0.0,0.0,0.7398448,0.0,0.0,0.0,0.0,0.0,0.0,0.0018953998,0.0018953998,-0.000639379,0.0016818941,0.025833128,-0.046452455,-0.0019854903,0.0,0.0,0.0,0.0,0.0,0.0
320032216,319841730,0.17274374,-0.5943265,0.089855194,-0.45148993,-2.4884806,0.7903547,0.0,0.0,0.0,0.0,0.0,0.0,0.0,0.9046087,0.0,0.0,0.0,0.0,0.0,0.0,0.0029540956,-0.00049863564,-0.0024535283,0.0029540956,0.12482056,0.106434315,-0.005282223,0.0,0.0,0.0,0.0,0.0,0.0
320532213,320341729,-0.07636225,-0.71339226,0.14474511,-0.42943096,-2.7547445,0.7903547,0.0,0.0,0.0,0.0,0.0,0.0,0.0,0.777616,0.0,0.0,0.0,0.0,0.0,0.0,0.0012304187,-0.0004576482,-0.0005554557,0.0012304187,-0.19367868,0.07616529,-0.0150491595,0.0,0.0,0.0,0.0,0.0,0.0
