timestamp,timestamp_sample,device_id,x,y,z,temperature,error_count,clip_counter[0],clip_counter[1],clip_counter[2],samples
201010002,201009919,3407890,1.5957354,0.047884032,-11.240178,22.705315,0,0,0,0,8
202010002,202009919,3407890,2.8293478,1.8834137,-7.756615,22.463768,0,0,0,0,8
203010019,203009929,3407890,1.0379529,0.7169304,-9.180633,22.77241,0,0,0,0,9
204010002,204009919,3407890,2.2343888,1.8836381,-8.418612,22.780798,0,0,0,0,8
205009999,205009918,3407890,1.8722657,-1.9207484,-8.583213,22.712862,0,0,0,0,8
206009999,206009918,3407890,13.806763,3.5649664,-1.3784616,22.886473,0,0,0,0,8
207010001,207009919,3407890,2.700061,-0.076614454,-10.557831,22.841183,0,0,0,0,8
208010012,208009920,3407890,13.10852,3.835511,-9.6332035,22.846216,0,0,0,0,9
209010013,209009931,3407890,-11.120468,3.2034419,-19.205687,22.660025,0,0,0,0,8
210009999,210009919,3407890,18.347366,4.224569,-19.36969,22.735508,0,0,0,0,8
212009998,212009918,3407890,12.113463,10.887632,7.471705,22.735508,0,0,0,0,8
213010000,213009919,3407890,-28.497583,10.1544075,-11.08276,22.826086,0,0,0,0,8
214010003,214009921,3407890,6.619369,17.413628,-10.056246,22.712862,0,0,0,0,8
215010014,215009925,3407890,15.79907,6.362724,-3.5726807,22.584541,0,0,0,0,9
216010005,216009924,3407890,-8.222287,2.2918496,3.383007,22.886473,0,0,0,0,8
217010003,217009921,3407890,-41.51905,-16.758215,-28.669968,22.826086,0,0,0,0,8
218010009,218009923,3407890,-48.07497,-5.7269306,-11.621455,22.984602,0,0,0,0,8
219010006,219009924,3407890,30.492554,-2.7401638,-5.5383873,22.863829,0,0,0,0,8
220010009,220009919,3407890,-67.892105,-10.604185,-12.324818,22.805958,0,0,0,0,9
221010007,221009923,3407890,-12.525865,1.4610616,-0.2861071,22.826086,0,0,0,0,8
222009999,222009919,3407890,-16.627132,-16.102802,-4.4807487,22.765701,0,0,0,0,8
223009999,223009919,3407890,-12.232575,-6.915053,-5.466561,22.773249,0,0,0,0,8
224009999,224009918,3407890,-10.4728365,8.09719,-26.649858,22.675121,0,0,0,0,8
225010010,225009920,3407890,4.9618497,10.128005,-22.610308,22.624798,0,0,0,0,9
226010006,226009924,3407890,14.393941,-4.9105077,3.5823243,22.675121,0,0,0,0,8
227010002,227009919,3407890,19.990387,1.590947,-5.1200004,22.886473,0,0,0,0,8
228009999,228009919,3407890,-11.684901,-14.5884695,-12.424111,22.750605,0,0,0,0,8
229010000,229009919,3407890,-11.161768,-16.127941,-19.349937,22.916666,0,0,0,0,8
230009999,230009919,3407890,-4.5154643,2.480393,-8.14687,22.705315,0,0,0,0,8
231010000,231009919,3407890,-2.9658175,2.2469583,-12.238561,22.826086,0,0,0,0,8
232010010,232009920,3407890,0.5352371,0.6554792,-23.760057,22.712023,0,0,0,0,9
233009999,233009918,3407890,-9.336788,0.66139823,-12.13142,22.652475,0,0,0,0,8
235009999,235009918,3407890,-30.45185,-7.0263834,-19.33677,22.644928,0,0,0,0,8
237010007,237009919,3407890,15.805986,-6.412204,5.6604247,22.745571,0,0,0,0,9
238010000,238009919,3407890,-0.54647654,20.648193,5.046977,22.524155,0,0,0,0,8
239009999,239009918,3407890,-4.0904937,0.55725044,-6.579266,22.871376,0,0,0,0,8
240009999,240009919,3407890,-5.801749,7.3406224,-24.053347,22.705315,0,0,0,0,8
241009999,241009918,3407890,7.3352356,-10.418967,-9.059659,22.826086,0,0,0,0,8
242010010,242009922,3407890,-4.715513,-2.9246502,-12.270549,22.490606,0,0,0,0,9
243010000,243009918,3407890,18.770542,2.5893292,9.284714,22.705315,0,0,0,0,8
244009999,244009918,3407890,0.16160862,12.31278,-18.950705,22.690218,0,0,0,0,8
245010002,245009920,3407890,18.916588,-6.7929487,11.66515,22.735508,0,0,0,0,8
246010003,246009919,3407890,16.422428,-7.0012445,9.2494,22.690218,0,0,0,0,8
247010007,247009918,3407890,-4.278704,-3.9743745,-9.409744,22.60467,0,0,0,0,9
248009999,248009919,3407890,-8.209718,11.657368,-11.4359045,22.637379,0,0,0,0,8
249010000,249009918,3407890,-4.5980644,-6.223727,-9.650429,22.637379,0,0,0,0,8
250009999,250009919,3407890,7.1191587,4.9440265,-3.1950622,22.554348,0,0,0,0,8
251009999,251009919,3407890,-2.8491,7.687183,-12.72997,22.705315,0,0,0,0,8
252010010,252009919,3407890,-8.829816,-18.914192,-17.194624,22.705315,0,0,0,0,9
253010003,253009919,3407890,-6.5122285,-4.908712,-18.272547,22.592089,0,0,0,0,8
254010000,254009919,3407890,-10.05864,-6.652888,-13.338098,22.773249,0,0,0,0,8
255010001,255009919,3407890,-11.215638,17.076643,8.962694,22.629831,0,0,0,0,8
256009998,256009918,3407890,31.462803,7.315483,14.245501,22.660025,0,0,0,0,8
258010003,258009919,3407890,-8.246828,12.146384,-11.096526,22.509058,0,0,0,0,8
259010007,259009925,3407890,-1.4407109,-10.48002,-6.803723,22.501509,0,0,0,0,8
260009999,260009918,3407890,-7.4932528,8.025963,-27.007792,22.524155,0,0,0,0,8
261010000,261009919,3407890,-3.0142999,-8.863335,-31.234158,22.675121,0,0,0,0,8
262010000,262009919,3407890,-2.1410148,17.208324,-5.8412538,22.584541,0,0,0,0,8
263010000,263009919,3407890,-1.3132197,7.8571715,-12.273276,22.569445,0,0,0,0,8
264010003,264009920,3407890,36.206913,-2.7252002,7.0263834,22.463768,0,0,0,0,8
265010010,265009919,3407890,3.7743258,4.684654,9.556588,22.483896,0,0,0,0,9
266010004,266009923,3407890,-15.469536,0.9223662,-20.47641,22.644928,0,0,0,0,8
267010003,267009919,3407890,-4.496909,3.6290112,-29.430126,22.448671,0,0,0,0,8
268010002,268009919,3407890,19.17995,7.325659,2.432509,22.539251,0,0,0,0,8
269010004,269009923,3407890,0.075417355,-11.948263,8.206126,22.682669,0,0,0,0,8
270010020,270009920,3407890,-0.5783327,-1.307234,-8.817046,22.577831,0,0,0,0,9
271010002,271009919,3407890,1.7848774,16.92102,-3.9151182,22.524155,0,0,0,0,8
272009999,272009919,3407890,-8.491635,0.8858546,-17.96609,22.463768,0,0,0,0,8
273010010,273009920,3407890,16.26461,-0.8166888,-4.0254507,22.42351,0,0,0,0,9
274010001,274009919,3407890,8.437765,14.261661,-3.2357635,22.388285,0,0,0,0,8
275009999,275009919,3407890,-1.7244238,8.151658,-5.6616883,22.45622,0,0,0,0,8
276010003,276009920,3407890,19.846136,10.575189,-5.380968,22.509058,0,0,0,0,8
277010007,277009922,3407890,4.5441947,11.027095,-20.518309,22.478865,0,0,0,0,8
278010010,278009919,3407890,-2.9480603,5.272564,-18.983358,22.631508,0,0,0,0,9
279010003,279009919,3407890,-15.1295595,-4.1258082,-20.678122,22.516605,0,0,0,0,8
281010011,281009919,3407890,-19.917097,-6.260571,-26.328238,22.43022,0,0,0,0,9
282010000,282009919,3407890,-5.142745,-11.035474,-20.655975,22.463768,0,0,0,0,8
283010002,283009919,3407890,-0.66139823,-7.8966756,-9.116522,22.433575,0,0,0,0,8
284010007,284009926,3407890,16.030378,-3.942053,-17.167624,22.418478,0,0,0,0,8
285010003,285009920,3407890,-81.75121,-35.425804,-19.789274,22.629831,0,0,0,0,8
286010003,286009919,3407890,-38.684315,-5.433641,-2.1362264,22.516605,0,0,0,0,8
287010001,287009919,3407890,35.188778,6.9689226,-0.3788824,22.509058,0,0,0,0,8
288010002,288009919,3407890,31.976957,-3.4500446,-2.2499511,22.524155,0,0,0,0,8
289010012,289009919,3407890,-16.042747,8.365872,-13.644289,22.42351,0,0,0,0,9
290010003,290009919,3407890,-66.64859,-34.261623,-2.2134395,22.478865,0,0,0,0,8
291010003,291009919,3407890,-15.603611,0.504578,-24.999058,22.463768,0,0,0,0,8
292010015,292009923,3407890,-23.5632,0.6794212,-5.1023097,22.403381,0,0,0,0,9
293010004,293009920,3407890,17.083227,7.001843,-13.074137,22.403381,0,0,0,0,8
294010002,294009919,3407890,15.307328,10.307038,3.757101,22.373188,0,0,0,0,8
295010012,295009920,3407890,4.362235,1.6301852,-4.256358,22.296028,0,0,0,0,9
296010003,296009919,3407890,3.1489737,6.1141925,-10.015544,22.207125,0,0,0,0,8
297010005,297009921,3407890,21.953632,-2.9550436,-5.8604074,22.086353,0,0,0,0,8
299010000,299009919,3407890,13.05618,62.80051,-30.156767,22.237318,0,0,0,0,8
300010005,300009923,3407890,46.10634,8.358757,-0.8343793,22.222221,0,0,0,0,8
301010003,301009920,3407890,-14.350845,8.315661,-21.08334,22.214674,0,0,0,0,8
302010000,302009919,3407890,5.5138464,1.7896658,-22.580315,22.388285,0,0,0,0,8
303010007,303009925,3407890,17.41243,28.162395,-30.666132,22.116547,0,0,0,0,8
304010010,304009920,3407890,8.7399,-15.55965,-5.18052,22.175255,0,0,0,0,9
305010003,305009919,3407890,14.217967,-13.459603,21.705833,22.192028,0,0,0,0,8
306010000,306009919,3407890,-3.3584664,29.321789,-25.124153,22.403381,0,0,0,0,8
307010006,307009918,3407890,-44.25921,-10.14237,0.7092157,22.296028,0,0,0,0,9
308010000,308009919,3407890,-10.602722,-17.05749,-4.654927,22.176931,0,0,0,0,8
309010006,309009920,3407890,8.34918,0.88765025,-13.092692,22.161835,0,0,0,0,8
310010008,310009919,3407890,-22.79865,-5.65404,-6.330801,22.242352,0,0,0,0,9
311009999,311009919,3407890,-15.789761,-2.5127146,-14.5567465,22.086353,0,0,0,0,8
312010000,312009918,3407890,-5.2498856,4.209605,2.9430726,21.995773,0,0,0,0,8
313010006,313009919,3407890,7.7620015,2.1654224,-7.970563,22.067902,0,0,0,0,9
314010003,314009920,3407890,21.213823,6.5152216,-6.547543,22.025967,0,0,0,0,8
315010007,315009924,3407890,9.290101,6.0345855,-15.67424,22.108997,0,0,0,0,8
316010005,316009919,3407890,-10.552444,-4.7680526,7.2107368,22.161835,0,0,0,0,8
317010000,317009919,3407890,18.98961,-8.62152,-2.498948,21.980677,0,0,0,0,8
318010006,318009923,3407890,-5.9801173,32.161312,-20.86487,22.041063,0,0,0,0,8
319010005,319009924,3407890,54.79729,5.8532248,1.2366052,21.859903,0,0,0,0,8
320010009,320009919,3407890,-31.954079,2.4670918,-44.05331,22.047771,0,0,0,0,9
321010002,321009919,3407890,-8.037335,0.676362,-17.791912,22.025967,0,0,0,0,8
322009999,322009919,3407890,-13.196839,-22.563555,-59.15833,21.844807,0,0,0,0,8
323010006,323009918,3407890,12.430695,7.376269,21.015238,21.967257,0,0,0,0,9
324010000,324009919,3407890,14.258668,-1.2910733,-1.6298528,21.875,0,0,0,0,8
325010004,325009922,3407890,-10.16578,-2.345719,-23.931244,21.859903,0,0,0,0,8
326009999,326009918,3407890,-6.508039,-17.773954,4.232949,21.92029,0,0,0,0,8
327010005,327009919,3407890,9.627684,8.119935,4.092888,21.942934,0,0,0,0,8
328010012,328009930,3407890,-18.620903,-5.0625396,-23.995886,22.063707,0,0,0,0,8
329009999,329009918,3407890,12.837709,4.0037036,-6.6923923,21.950483,0,0,0,0,8
330010007,330009919,3407890,5.1156106,-7.4284096,-7.570997,21.927,0,0,0,0,9
331009999,331009919,3407890,-13.06875,14.611813,-12.571953,21.859903,0,0,0,0,8
332010014,332009933,3407890,-14.683639,-2.0566192,-2.8508956,21.859903,0,0,0,0,8
333010000,333009919,3407890,17.178995,-7.6770077,4.8817773,21.890097,0,0,0,0,8
334010010,334009922,3407890,-2.767697,3.8903115,-27.67697,21.853193,0,0,0,0,9
335010003,335009919,3407890,8.731653,13.816938,5.7664347,21.859903,0,0,0,0,8
336010000,336009919,3407890,-17.038935,-7.2382703,-21.17492,21.86745,0,0,0,0,8
337009999,337009918,3407890,-26.155457,-15.977106,-16.065094,21.799517,0,0,0,0,8
338010007,338009918,3407890,-14.034278,-6.8931723,-16.108189,21.75255,0,0,0,0,9
340010000,340009919,3407890,-3.3925838,-12.446258,-17.391481,21.82971,0,0,0,0,8
341010001,341009920,3407890,-5.181651,-6.141726,-17.038935,21.875,0,0,0,0,8
342010000,342009919,3407890,0.6817489,1.0019734,-13.063962,21.897644,0,0,0,0,8
343009999,343009918,3407890,0.3728969,2.131438,-17.82124,21.64855,0,0,0,0,8
344010000,344009918,3407890,1.7878702,-6.26802,-8.028357,21.844807,0,0,0,0,8
345010000,345009919,3407890,12.35887,9.537302,0.51595044,21.580616,0,0,0,0,8
346009999,346009919,3407890,0.79726917,2.759916,-2.677316,21.73913,0,0,0,0,8
347009999,347009918,3407890,-2.2984335,-6.5403605,-13.800777,21.618357,0,0,0,0,8
348010002,348009919,3407890,-0.7493851,1.9734207,-13.173496,21.678743,0,0,0,0,8
349010005,349009920,3407890,1.9907039,1.6164602,-5.203498,21.618357,0,0,0,0,8
350010006,350009918,3407890,-0.43441457,0.5345055,-7.765127,21.618357,0,0,0,0,9
351010001,351009919,3407890,-0.59376204,2.9670146,-20.20407,21.79197,0,0,0,0,8
352010000,352009919,3407890,1.4999673,1.2018893,-10.896012,21.527779,0,0,0,0,8
353009999,353009918,3407890,-1.1049241,-0.9804256,-14.97214,21.671196,0,0,0,0,8
354010008,354009920,3407890,1.8100164,-0.46660328,-12.871227,21.598228,0,0,0,0,9
355010002,355009919,3407890,-0.0142903915,0.40596682,-9.945663,21.497585,0,0,0,0,8
356009999,356009919,3407890,0.008903437,0.3537433,-9.888053,21.60326,0,0,0,0,8
357010002,357009919,3407890,0.05581483,0.3489549,-9.92449,21.573067,0,0,0,0,8
358010001,358009921,3407890,-0.014514848,0.38217443,-9.950152,21.422102,0,0,0,0,8
359010013,359009924,3407890,0.048083548,0.36624634,-9.916583,21.437199,0,0,0,0,9
360010003,360009920,3407890,0.01997662,0.35591304,-9.950676,21.542873,0,0,0,0,8
