timestamp,timestamp_sample,control_mode_flags,output_tracking_error[0],output_tracking_error[1],output_tracking_error[2],filter_fault_flags,pos_horiz_accuracy,pos_vert_accuracy,mag_test_ratio,vel_test_ratio,pos_test_ratio,hgt_test_ratio,tas_test_ratio,hagl_test_ratio,beta_test_ratio,time_slip,accel_device_id,gyro_device_id,baro_device_id,mag_device_id,mag_inclination_deg,mag_inclination_ref_deg,mag_strength_gs,mag_strength_ref_gs,gps_check_fail_flags,innovation_check_flags,solution_status_flags,reset_count_vel_ne,reset_count_vel_d,reset_count_pos_ne,reset_count_pod_d,reset_count_quat,pre_flt_fail_innov_heading,pre_flt_fail_innov_vel_horiz,pre_flt_fail_innov_vel_vert,pre_flt_fail_innov_height,pre_flt_fail_mag_field_disturbed,health_flags,timeout_flags
200062278,199871728,171865803351,0.00013222951,0.0037293318,0.004633111,0,0.24058177,0.22751144,0.007125794,0.03180751,0.0113798,0.014566362,0.0,nan,0.0,0.0,3407898,3407898,6780433,466953,73.87309,73.66653,0.50984734,0.5250894,0,0,895,3,2,3,2,2,0,0,0,0,0,0,0
200072288,199881729,171865803351,0.00013729269,0.0035985305,0.0045433915,0,0.24118564,0.22790591,0.007125794,0.03180751,0.0113798,0.014566362,0.0,nan,0.0,0.0,3407898,3407898,6780433,466953,73.87309,73.66653,0.50984734,0.5250894,0,0,895,3,2,3,2,2,0,0,0,0,0,0,0
200262251,200071732,171865803351,0.00014651164,0.0024752435,0.003636582,0,0.24068022,0.22766276,0.0076944646,0.017211923,0.010777927,0.013815096,0.0,nan,0.0,0.0,3407898,3407898,6780433,466953,73.913704,73.66653,0.5107255,0.5250894,0,0,895,3,2,3,2,2,0,0,0,0,0,0,0
200462241,200271729,171865803351,0.00018045933,0.0025786532,0.004091965,0,0.24080215,0.22782236,0.014298196,0.027267616,0.009840711,0.012621645,0.0,nan,0.0,0.0,3407898,3407898,6780433,466953,73.74481,73.66653,0.5092353,0.5250894,0,0,895,3,2,3,2,2,0,0,0,0,0,0,0
200662506,200471730,171865803351,0.00032893158,0.0021736617,0.0032610304,0,0.24092352,0.22798124,0.02100918,0.027868088,0.011545821,0.018649865,0.0,nan,0.0,0.0,3407898,3407898,6780433,466953,73.58018,73.66653,0.5107499,0.5250894,0,0,895,3,2,3,2,2,0,0,0,0,0,0,0
200862238,200671729,171865803351,0.00027652728,0.0036404906,0.003768515,0,0.2410953,0.2281566,0.021112809,0.033490814,0.012176115,0.013905688,0.0,nan,0.0,0.0,3407898,3407898,6780433,466953,73.547485,73.66653,0.51032025,0.5250894,0,0,895,3,2,3,2,2,0,0,0,0,0,0,0
201062221,200871730,171865803351,0.00019032741,0.0021617413,0.0033103062,0,0.24123627,0.22784351,0.02816928,0.020132178,0.009961211,0.013621394,0.0,nan,0.0,0.0,3407898,3407898,6780433,466953,73.44085,73.66653,0.5104686,0.5250894,0,0,895,3,2,3,2,2,0,0,0,0,0,0,0
201262225,201071729,171865803351,0.00043930544,0.0040620007,0.005428506,0,0.24137594,0.22800976,0.0266116,0.037312783,0.011216632,0.015348387,0.0,nan,0.0,0.0,3407898,3407898,6780433,466953,73.47295,73.66653,0.5105702,0.5250894,0,0,895,3,2,3,2,2,0,0,0,0,0,0,0
201462182,201271729,171865803351,0.0003918803,0.0029595105,0.0052316845,0,0.24151427,0.22817142,0.017734116,0.029480215,0.008846594,0.01369275,0.0,nan,0.0,0.0,3407898,3407898,6780433,466953,73.507454,73.66653,0.5100579,0.5250894,0,0,895,3,2,3,2,2,0,0,0,0,0,0,0
201662487,201471728,171865803351,0.00030921103,0.002553839,0.007184082,0,0.24167436,0.22834031,0.015816454,0.032146614,0.009204571,0.011411086,0.0,nan,0.0,0.0,3407898,3407898,6780433,466953,73.613396,73.66653,0.5106698,0.5250894,0,0,895,3,2,3,2,2,0,0,0,0,0,0,0
201862185,201671729,171865803351,0.00026015754,0.0026779752,0.006701401,0,0.24182904,0.22850499,0.020152677,0.021058707,0.008653857,0.010446764,0.0,nan,0.0,0.0,3407898,3407898,6780433,466953,73.69518,73.66653,0.51053065,0.5250894,0,0,895,3,2,3,2,2,0,0,0,0,0,0,0
202062224,201871728,171865803351,0.0001871813,0.0036076212,0.009315688,0,0.24193063,0.22864829,0.026889995,0.034098424,0.008807536,0.015446828,0.0,nan,0.0,0.0,3407898,3407898,6780433,466953,73.406265,73.66653,0.5099138,0.5250894,0,0,895,3,2,3,2,2,0,0,0,0,0,0,0
202262229,202071729,171865803351,0.00023749586,0.0035892227,0.0073065516,0,0.24205081,0.2287958,0.013695252,0.05587701,0.006194247,0.008945186,0.0,nan,0.0,0.0,3407898,3407898,6780433,466953,73.793304,73.66653,0.5107542,0.5250894,0,0,895,3,2,3,2,2,0,0,0,0,0,0,0
202462227,202271730,171865803351,0.00019985589,0.0039302744,0.008516435,0,0.24216451,0.22893839,0.028426593,0.036259733,0.0062909527,0.009589156,0.0,nan,0.0,0.0,3407898,3407898,6780433,466953,73.50986,73.66653,0.5099489,0.5250894,0,0,895,3,2,3,2,2,0,0,0,0,0,0,0
202662517,202471730,171865803351,0.00040672193,0.0024578522,0.0065506627,0,0.24225508,0.22907011,0.012331021,0.020174503,0.006954429,0.012397739,0.0,nan,0.0,0.0,3407898,3407898,6780433,466953,73.71008,73.66653,0.5107981,0.5250894,0,0,895,3,2,3,2,2,0,0,0,0,0,0,0
202862225,202671729,171865803351,0.00023213228,0.0028351976,0.008196368,0,0.24234508,0.22919746,0.021003587,0.028284892,0.0057885726,0.021940336,0.0,nan,0.0,0.0,3407898,3407898,6780433,466953,73.484825,73.66653,0.50987923,0.5250894,0,0,895,3,2,3,2,2,0,0,0,0,0,0,0
203062190,202871728,171865803351,0.0004316658,0.0027022536,0.005587142,0,0.24242747,0.22932243,0.015130953,0.018565783,0.0051207696,0.014790542,0.0,nan,0.0,0.0,3407898,3407898,6780433,466953,73.74112,73.66653,0.51053005,0.5250894,0,0,895,3,2,3,2,2,0,0,0,0,0,0,0
203262200,203071730,171865803351,0.00036994152,0.001678002,0.0057424447,0,0.24251325,0.2294438,0.022762774,0.022300752,0.0060294527,0.011716528,0.0,nan,0.0,0.0,3407898,3407898,6780433,466953,73.46546,73.66653,0.50999546,0.5250894,0,0,895,3,2,3,2,2,0,0,0,0,0,0,0
203462207,203271730,171865803351,0.00038385196,0.0024365121,0.005966637,0,0.24259554,0.22956336,0.021078708,0.026519755,0.0041477513,0.011452017,0.0,nan,0.0,0.0,3407898,3407898,6780433,466953,73.663666,73.66653,0.510808,0.5250894,0,0,895,3,2,3,2,2,0,0,0,0,0,0,0
203662493,203471729,171865803351,0.00018846599,0.0021552409,0.005723967,0,0.24268118,0.22919933,0.023353571,0.02169869,0.003908875,0.019451786,0.0,nan,0.0,0.0,3407898,3407898,6780433,466953,73.41948,73.66653,0.509822,0.5250894,0,0,895,3,2,3,2,2,0,0,0,0,0,0,0
203862241,203671729,171865803351,0.00011981913,0.0017634667,0.0048806383,0,0.24277388,0.22933164,0.016325165,0.024239922,0.0047404254,0.008288035,0.0,nan,0.0,0.0,3407898,3407898,6780433,466953,73.63835,73.66653,0.50972337,0.5250894,0,0,895,3,2,3,2,2,0,0,0,0,0,0,0
204062169,203871729,171865803351,0.00020879078,0.0038944185,0.00633472,0,0.2428722,0.22946855,0.018796565,0.031500388,0.005157555,0.013765848,0.0,nan,0.0,0.0,3407898,3407898,6780433,466953,73.579155,73.66653,0.5091941,0.5250894,0,0,895,3,2,3,2,2,0,0,0,0,0,0,0
204262272,204071729,171799743191,0.0002732994,0.007053061,0.011230843,0,0.24295966,0.22960566,0.017876906,0.036420446,0.0024477975,0.012588156,0.0,nan,0.0,0.0,3407898,3407898,6780433,466953,73.60156,73.66653,0.50900996,0.5250894,0,0,831,3,2,3,2,2,0,0,0,0,0,0,0
204462224,204271729,171799743191,0.0004459798,0.004092532,0.0066801943,0,0.24305107,0.2297387,0.02148176,0.02733726,0.0028178843,0.011698406,0.0,nan,0.0,0.0,3407898,3407898,6780433,466953,73.592865,73.66653,0.5086352,0.5250894,0,0,831,3,2,3,2,2,0,0,0,0,0,0,0
204662490,204471728,171799743191,0.00076120615,0.0047413404,0.0072945645,0,0.24315582,0.22987455,0.023874804,0.02493544,0.0024011224,0.012248777,0.0,nan,0.0,0.0,3407898,3407898,6780433,466953,73.476654,73.66653,0.50769717,0.5250894,0,0,831,3,2,3,2,2,0,0,0,0,0,0,0
205062226,204871728,171799743191,0.0005468235,0.0029397106,0.00853895,0,0.24332005,0.23011978,0.037424378,0.032258715,0.0024327259,0.012181155,0.0,nan,0.0,0.0,3407898,3407898,6780433,466953,73.45848,73.66653,0.50543344,0.5250894,0,0,831,3,2,3,2,2,0,0,0,0,0,0,0
205262201,205071728,171799743191,0.0005396333,0.0046132095,0.010757861,0,0.24342342,0.23024514,0.055282407,0.030575356,0.0029366368,0.011684728,0.0,nan,0.0,0.0,3407898,3407898,6780433,466953,73.25753,73.66653,0.50309956,0.5250894,0,0,831,3,2,3,2,2,0,0,0,0,0,0,0
205462191,205271729,171799743191,0.000202268,0.0027317663,0.010346876,0,0.24352358,0.23038,0.07591231,0.03288451,0.0024696721,0.011124086,0.0,nan,0.0,0.0,3407898,3407898,6780433,466953,72.9563,73.66653,0.5005814,0.5250894,0,0,831,3,2,3,2,2,0,0,0,0,0,0,0
205662441,205471728,171799743191,0.0011281758,0.0029816064,0.008318713,0,0.24359609,0.23050371,0.09788572,0.03767652,0.0042398414,0.014071362,0.0,nan,0.0,0.0,3407898,3407898,6780433,466953,73.01372,73.66653,0.4971027,0.5250894,0,0,831,3,2,3,2,2,0,0,0,0,0,0,0
205862201,205671729,171799743191,0.0071981642,0.00502294,0.007025337,0,0.24367787,0.23062603,0.09716263,0.038816243,0.0020583062,0.0092886435,0.0,nan,0.0,0.0,3407898,3407898,6780433,466953,73.14958,73.66653,0.49671298,0.5250894,0,0,831,3,2,3,2,2,0,0,0,0,0,0,0
206062222,205871729,171799743191,0.017839398,0.008054359,0.009440484,0,0.24375479,0.23024757,0.09696157,0.02115353,0.005064485,0.012673878,0.0,nan,0.0,0.0,3407898,3407898,6780433,466953,73.03391,73.66653,0.49686357,0.5250894,0,0,831,3,2,3,2,2,0,0,0,0,0,0,0
206262258,206071728,171799743191,0.019165667,0.008756281,0.011233534,0,0.24384494,0.23036,0.107090645,0.043902263,0.0029124683,0.0126713775,0.0,nan,0.0,0.0,3407898,3407898,6780433,466953,73.12956,73.66653,0.49513456,0.5250894,0,0,831,3,2,3,2,2,0,0,0,0,0,0,0
206662225,206471729,171799743191,0.0011872201,0.010051209,0.013908748,0,0.24403124,0.23057139,0.10615311,0.052852105,0.0057613607,0.015065532,0.0,nan,0.0,0.0,3407898,3407898,6780433,466953,73.17151,73.66653,0.49534643,0.5250894,0,0,831,3,2,3,2,2,0,0,0,0,0,0,0
206862276,206671729,171799743191,0.00031008996,0.004012533,0.0020590182,0,0.24411504,0.2306685,0.10002119,0.044575498,0.0022822109,0.018369759,0.0,nan,0.0,0.0,3407898,3407898,6780433,466953,73.17723,73.66653,0.49617013,0.5250894,0,0,831,3,2,3,2,2,0,0,0,0,0,0,0
207062224,206871729,171799743191,0.0020401624,0.008565209,0.009818206,0,0.24419035,0.2307646,0.101083934,0.052689157,0.0012458343,0.016566196,0.0,nan,0.0,0.0,3407898,3407898,6780433,466953,73.22846,73.66653,0.49589846,0.5250894,0,0,831,3,2,3,2,2,0,0,0,0,0,0,0
207262200,207071728,171799743191,0.008551651,0.009298405,0.01007338,0,0.24429211,0.23086391,0.1045839,0.045493267,0.0029098357,0.025690392,0.0,nan,0.0,0.0,3407898,3407898,6780433,466953,73.20998,73.66653,0.49522802,0.5250894,0,0,831,3,2,3,2,2,0,0,0,0,0,0,0
207462186,207271730,171799743191,0.0019247446,0.003947798,0.002958833,0,0.24436602,0.23094992,0.10089419,0.039269168,0.0017253493,0.019397411,0.0,nan,0.0,0.0,3407898,3407898,6780433,466953,73.16884,73.66653,0.49585813,0.5250894,0,0,831,3,2,3,2,2,0,0,0,0,0,0,0
207662193,207471729,171799743191,0.00066210254,0.0047492906,0.005918395,0,0.24445198,0.23103222,0.10130054,0.0786868,0.0041561285,0.021565545,0.0,nan,0.0,0.0,3407898,3407898,6780433,466953,73.04332,73.66653,0.49603957,0.5250894,0,0,831,3,2,3,2,2,0,0,0,0,0,0,0
207862194,207671729,171799743191,0.009386163,0.008275095,0.009565071,0,0.24454188,0.23111491,0.0953796,0.038381834,0.0010181232,0.0196766,0.0,nan,0.0,0.0,3407898,3407898,6780433,466953,73.00424,73.66653,0.49699685,0.5250894,0,0,831,3,2,3,2,2,0,0,0,0,0,0,0
208062203,207871729,171799743191,0.0061608087,0.0022995225,0.0046784636,0,0.24465369,0.23120478,0.09547379,0.036152866,0.0012894524,0.024084136,0.0,nan,0.0,0.0,3407898,3407898,6780433,466953,72.830124,73.66653,0.4972176,0.5250894,0,0,831,3,2,3,2,2,0,0,0,0,0,0,0
208262217,208071729,171799743191,0.00064579636,0.008492506,0.012928676,0,0.24476649,0.2312925,0.08591979,0.050790757,0.0022978443,0.019788066,0.0,nan,0.0,0.0,3407898,3407898,6780433,466953,72.99823,73.66653,0.4979266,0.5250894,0,0,831,3,2,3,2,2,0,0,0,0,0,0,0
208462227,208271729,171808131751,0.007079156,0.0035747092,0.008287119,0,0.2448909,0.23137733,0.048943214,0.048799884,0.00041143797,0.027598888,0.0,nan,0.0,0.0,3407898,3407898,6780433,466953,72.86831,73.66653,0.4979405,0.5250894,0,0,831,3,2,3,2,3,0,0,0,0,0,0,0
208662255,208471729,171808131751,0.00038274127,0.0056763543,0.013810151,0,0.24498095,0.23095044,0.02322154,0.042876553,0.0034904901,0.02414517,0.0,nan,0.0,0.0,3407898,3407898,6780433,466953,72.959946,73.66653,0.49764973,0.5250894,0,0,831,3,2,3,2,3,0,0,0,0,0,0,0
208862249,208671729,171808131751,0.010841335,0.012307169,0.021723442,0,0.24510752,0.2310358,0.015558334,0.06286455,0.00038819734,0.031701718,0.0,nan,0.0,0.0,3407898,3407898,6780433,466953,72.87211,73.66653,0.4972914,0.5250894,0,0,831,3,2,3,2,3,0,0,0,0,0,0,0
209062224,208871729,171808131751,0.0038595654,0.0066527696,0.019016821,0,0.24520153,0.23110613,0.010351458,0.02652773,0.0036365546,0.032174997,0.0,nan,0.0,0.0,3407898,3407898,6780433,466953,72.88814,73.66653,0.49747434,0.5250894,0,0,831,3,2,3,2,3,0,0,0,0,0,0,0
209262184,209071729,171808131751,0.02210868,0.011098145,0.016274342,0,0.24527591,0.2311657,0.007550358,0.044827223,0.0027339158,0.026341703,0.0,nan,0.0,0.0,3407898,3407898,6780433,466953,72.88928,73.66653,0.49756438,0.5250894,0,0,831,3,2,3,2,3,0,0,0,0,0,0,0
209462228,209271730,171808131751,0.016942414,0.007234353,0.016375462,0,0.24535295,0.2312295,0.007170867,0.06504631,0.006129643,0.025264941,0.0,nan,0.0,0.0,3407898,3407898,6780433,466953,72.94548,73.66653,0.4973608,0.5250894,0,0,831,3,2,3,2,3,0,0,0,0,0,0,0
209662195,209471729,171808131751,0.0099479295,0.010470899,0.011112053,0,0.24546818,0.2312981,0.008297246,0.045140088,0.009187577,0.027309697,0.0,nan,0.0,0.0,3407898,3407898,6780433,466953,72.90094,73.66653,0.49701232,0.5250894,0,0,831,3,2,3,2,3,0,0,0,0,0,0,0
209862191,209671729,171808131751,0.006191586,0.006898268,0.011495886,0,0.24561031,0.23136832,0.0074863276,0.033696417,0.011578923,0.028084371,0.0,nan,0.0,0.0,3407898,3407898,6780433,466953,72.97784,73.66653,0.4966392,0.5250894,0,0,831,3,2,3,2,3,0,0,0,0,0,0,0
210062191,209871729,171808131751,0.007588948,0.005353882,0.01586763,0,0.24569386,0.23142102,0.0072191996,0.018696457,0.0118567115,0.04215298,0.0,nan,0.0,0.0,3407898,3407898,6780433,466953,73.16561,73.66653,0.4962845,0.5250894,0,0,831,3,2,3,2,3,0,0,0,0,0,0,0
210262233,210071729,171808131751,0.01749315,0.020976847,0.019390931,0,0.24580409,0.23147596,0.007862817,0.06275336,0.017130934,0.034697402,0.0,nan,0.0,0.0,3407898,3407898,6780433,466953,73.12665,73.66653,0.49612164,0.5250894,0,0,831,3,2,3,2,3,0,0,0,0,0,0,0
210462436,210271729,171808131751,0.00983883,0.0075405748,0.0112736095,0,0.24587949,0.23152184,0.003899496,0.03488297,0.013313796,0.028559089,0.0,nan,0.0,0.0,3407898,3407898,6780433,466953,72.96338,73.66653,0.49721074,0.5250894,0,0,831,3,2,3,2,3,0,0,0,0,0,0,0
210662216,210471729,171808131751,0.0017169106,0.0051275794,0.011832187,0,0.24601369,0.23158051,0.0042489707,0.024289627,0.018806841,0.030545838,0.0,nan,0.0,0.0,3407898,3407898,6780433,466953,73.06407,73.66653,0.4967769,0.5250894,0,0,831,3,2,3,2,3,0,0,0,0,0,0,0
210862216,210671728,171808131751,0.0007639723,0.0066230744,0.012817794,0,0.24614915,0.23164007,0.00843273,0.016242342,0.018623685,0.03714761,0.0,nan,0.0,0.0,3407898,3407898,6780433,466953,73.16731,73.66653,0.4968885,0.5250894,0,0,831,3,2,3,2,3,0,0,0,0,0,0,0
211262220,211071729,171808131751,0.0071879905,0.009981584,0.013120314,0,0.24636725,0.23124877,0.011247279,0.04387975,0.019684648,0.028163027,0.0,nan,0.0,0.0,3407898,3407898,6780433,466953,73.00678,73.66653,0.49566016,0.5250894,0,0,831,3,2,3,2,3,0,0,0,0,0,0,0
211462357,211271728,171808131751,0.0006223295,0.0024376276,0.00841706,0,0.24647108,0.23130533,0.010723052,0.0068645873,0.020053886,0.026792247,0.0,nan,0.0,0.0,3407898,3407898,6780433,466953,72.97339,73.66653,0.49564812,0.5250894,0,0,831,3,2,3,2,3,0,0,0,0,0,0,0
211662185,211471729,171808131751,0.0024823435,0.0008373146,0.0029369858,0,0.24653059,0.23135221,0.019992592,0.02589614,0.014314524,0.0299238,0.0,nan,0.0,0.0,3407898,3407898,6780433,466953,73.08109,73.66653,0.49397764,0.5250894,0,0,831,3,2,3,2,3,0,0,0,0,0,0,0
211862191,211671729,171808131751,0.00091981475,0.0060763303,0.009291681,0,0.24662387,0.23140627,0.009546901,0.030891517,0.013082876,0.029700551,0.0,nan,0.0,0.0,3407898,3407898,6780433,466953,73.02775,73.66653,0.4957352,0.5250894,0,0,831,3,2,3,2,3,0,0,0,0,0,0,0
212062232,211871728,171808131751,0.0014436711,0.01047261,0.013823527,0,0.24669242,0.23145789,0.02884594,0.08677218,0.015928997,0.023103159,0.0,nan,0.0,0.0,3407898,3407898,6780433,466953,73.13669,73.66653,0.5014223,0.5250894,0,0,831,3,2,3,2,3,0,0,0,0,0,0,0
212262240,212071729,171808131751,0.00092742016,0.008645389,0.010195631,0,0.24674079,0.2315118,0.039477803,0.11540406,0.006438333,0.015041103,0.0,nan,0.0,0.0,3407898,3407898,6780433,466953,73.28183,73.66653,0.50305825,0.5250894,0,0,831,3,2,3,2,3,0,0,0,0,0,0,0
212462382,212271729,171808131751,0.0006095538,0.010660404,0.020600196,0,0.24680291,0.2315889,0.009443132,0.113051005,0.015376813,0.021082021,0.0,nan,0.0,0.0,3407898,3407898,6780433,466953,73.15456,73.66653,0.4977367,0.5250894,0,0,831,3,2,3,2,3,0,0,0,0,0,0,0
212662225,212471729,171808131751,0.001084135,0.014186845,0.028379742,0,0.24688616,0.2316949,0.018851452,0.122632,0.012649148,0.021386843,0.0,nan,0.0,0.0,3407898,3407898,6780433,466953,73.06119,73.66653,0.49476188,0.5250894,0,0,831,3,2,3,2,3,0,0,0,0,0,0,0
213062249,212871729,171808131751,0.00053217943,0.012629523,0.022185126,0,0.24713643,0.23199926,0.01798796,0.0564834,0.0016713056,0.020242453,0.0,nan,0.0,0.0,3407898,3407898,6780433,466953,73.07025,73.66653,0.496581,0.5250894,0,0,831,3,2,3,2,3,0,0,0,0,0,0,0
213262196,213071730,171808131751,0.0020812363,0.0133610945,0.017977212,0,0.24749106,0.23228115,0.018181384,0.06370449,0.0020643533,0.013856964,0.0,nan,0.0,0.0,3407898,3407898,6780433,466953,73.07309,73.66653,0.49826387,0.5250894,0,0,831,3,2,3,2,3,0,0,0,0,0,0,0
213462363,213271729,171808131751,0.010516939,0.026648598,0.018503278,0,0.24767818,0.23250964,0.023242638,0.08526019,0.00605377,0.002249407,0.0,nan,0.0,0.0,3407898,3407898,6780433,466953,72.89957,73.66653,0.49527416,0.5250894,0,0,831,3,2,3,2,3,0,0,0,0,0,0,0
213662212,213471729,171808131751,0.0045183036,0.0071902694,0.0076298867,0,0.24782407,0.23222323,0.025290856,0.07017873,0.013633981,0.00942047,0.0,nan,0.0,0.0,3407898,3407898,6780433,466953,73.20263,73.66653,0.49737126,0.5250894,0,0,831,3,2,3,2,3,0,0,0,0,0,0,0
213862222,213671730,171808131751,0.0035018744,0.010205272,0.014268639,0,0.24801351,0.23247316,0.013906199,0.03281515,0.01553061,0.008737781,0.0,nan,0.0,0.0,3407898,3407898,6780433,466953,73.04752,73.66653,0.49643835,0.5250894,0,0,831,3,2,3,2,3,0,0,0,0,0,0,0
214062188,213871730,171808131751,0.0043760827,0.008400508,0.020300671,0,0.24821687,0.23274347,0.012705077,0.026859455,0.020913657,0.004962855,0.0,nan,0.0,0.0,3407898,3407898,6780433,466953,73.04892,73.66653,0.49631745,0.5250894,0,0,831,3,2,3,2,3,0,0,0,0,0,0,0
214262216,214071730,171808131751,0.003906411,0.013691074,0.02784004,0,0.24868819,0.2331204,0.014419851,0.068929486,0.021913087,0.01394643,0.0,nan,0.0,0.0,3407898,3407898,6780433,466953,73.14299,73.66653,0.49587724,0.5250894,0,0,831,3,2,3,2,3,0,0,0,0,0,0,0
214462389,214271729,171808131751,0.0023618648,0.017472709,0.024293048,0,0.2491399,0.23351148,0.012653237,0.1467271,0.023176745,0.01899492,0.0,nan,0.0,0.0,3407898,3407898,6780433,466953,72.951416,73.66653,0.49581406,0.5250894,0,0,831,3,2,3,2,3,0,0,0,0,0,0,0
214662258,214471729,171808131751,0.0036341609,0.012596813,0.024947014,0,0.24991976,0.2340345,0.010182176,0.051580533,0.022123024,0.016093573,0.0,nan,0.0,0.0,3407898,3407898,6780433,466953,73.07082,73.66653,0.4963811,0.5250894,0,0,831,3,2,3,2,3,0,0,0,0,0,0,0
214862229,214671731,171808131751,0.0019490023,0.008637143,0.02871967,0,0.2509357,0.23465788,0.012991534,0.10688247,0.0210601,0.021881044,0.0,nan,0.0,0.0,3407898,3407898,6780433,466953,73.08671,73.66653,0.49615473,0.5250894,0,0,831,3,2,3,2,3,0,0,0,0,0,0,0
215062229,214871731,171808131751,0.00045799973,0.009128037,0.029054428,0,0.25177202,0.23524967,0.008702551,0.04793115,0.019722488,0.023682319,0.0,nan,0.0,0.0,3407898,3407898,6780433,466953,73.12854,73.66653,0.49547762,0.5250894,0,0,831,3,2,3,2,3,0,0,0,0,0,0,0
215262184,215071729,171808131751,0.001271868,0.0072192326,0.027705956,0,0.25288734,0.23596235,0.00631905,0.015015914,0.019422634,0.02405006,0.0,nan,0.0,0.0,3407898,3407898,6780433,466953,73.049866,73.66653,0.4960446,0.5250894,0,0,831,3,2,3,2,3,0,0,0,0,0,0,0
215462357,215271729,171808131751,0.002992443,0.016980244,0.03586552,0,0.25446635,0.23685102,0.00813935,0.097194545,0.02004334,0.012124955,0.0,nan,0.0,0.0,3407898,3407898,6780433,466953,73.07623,73.66653,0.4957683,0.5250894,0,0,831,3,2,3,2,3,0,0,0,0,0,0,0
215662196,215471729,171808131751,0.0020198838,0.01317037,0.031288303,0,0.25557318,0.23761554,0.014203808,0.05486842,0.019399988,0.00921239,0.0,nan,0.0,0.0,3407898,3407898,6780433,466953,73.244514,73.66653,0.49681106,0.5250894,0,0,831,3,2,3,2,3,0,0,0,0,0,0,0
215862184,215671728,171808131751,0.00036591626,0.008716983,0.024732616,0,0.25660878,0.23838346,0.011822625,0.017735397,0.018291479,0.012385837,0.0,nan,0.0,0.0,3407898,3407898,6780433,466953,73.076996,73.66653,0.4954519,0.5250894,0,0,831,3,2,3,2,3,0,0,0,0,0,0,0
216062191,215871728,171808131751,0.0008458446,0.009766908,0.024475796,0,0.2581293,0.23932642,0.0067786407,0.068931185,0.017038433,0.009536768,0.0,nan,0.0,0.0,3407898,3407898,6780433,466953,73.12078,73.66653,0.4960327,0.5250894,0,0,831,3,2,3,2,3,0,0,0,0,0,0,0
216262247,216071729,171808131751,0.0021307045,0.015936637,0.030347189,0,0.25954983,0.23970681,0.021132171,0.04285727,0.0178006,0.0251984,0.0,nan,0.0,0.0,3407898,3407898,6780433,466953,73.07165,73.66653,0.49564204,0.5250894,0,0,831,3,2,3,2,3,0,0,0,0,0,0,0
216462442,216271728,171807083175,0.0013637444,0.009126877,0.027703507,0,0.2600814,0.24038243,0.01171969,0.03437411,0.012391627,0.024257973,0.0,nan,0.0,0.0,3407898,3407898,6780433,466953,72.94776,73.66653,0.49693456,0.5250894,0,0,831,3,2,3,2,3,0,0,0,0,0,0,0
216662221,216471731,171807083175,0.00057967927,0.0065407166,0.024677875,0,0.26030967,0.24096298,0.015516237,0.0071163853,0.010660601,0.0203963,0.0,nan,0.0,0.0,3407898,3407898,6780433,466953,72.943756,73.66653,0.49518946,0.5250894,0,0,831,3,2,3,2,3,0,0,0,0,0,0,0
216862218,216671730,171807083175,0.00044390364,0.0092976,0.026188167,0,0.26012945,0.24139449,0.010165352,0.04130701,0.0065604965,0.01716489,0.0,nan,0.0,0.0,3407898,3407898,6780433,466953,73.14822,73.66653,0.49481377,0.5250894,0,0,831,3,2,3,2,3,0,0,0,0,0,0,0
217062249,216871730,171807083175,0.0003181779,0.007834789,0.027564215,0,0.2599614,0.2418098,0.017755724,0.061258577,0.007720214,0.021656184,0.0,nan,0.0,0.0,3407898,3407898,6780433,466953,73.40912,73.66653,0.49466786,0.5250894,0,0,831,3,2,3,2,3,0,0,0,0,0,0,0
217262225,217071729,171807083175,0.0004287959,0.008563872,0.026371531,0,0.25971532,0.2421684,0.011309425,0.03336769,0.010393419,0.017949559,0.0,nan,0.0,0.0,3407898,3407898,6780433,466953,73.21145,73.66653,0.49470952,0.5250894,0,0,831,3,2,3,2,3,0,0,0,0,0,0,0
217462351,217271728,171807083175,0.00044412364,0.0151502555,0.03200902,0,0.25951418,0.24247465,0.014290575,0.11193845,0.011303193,0.019311614,0.0,nan,0.0,0.0,3407898,3407898,6780433,466953,73.191185,73.66653,0.4942379,0.5250894,0,0,831,3,2,3,2,3,0,0,0,0,0,0,0
217662186,217471729,171807083175,0.0006677326,0.02077833,0.039905045,0,0.25933823,0.24273004,0.011350281,0.0792559,0.011114678,0.015638055,0.0,nan,0.0,0.0,3407898,3407898,6780433,466953,72.994255,73.66653,0.4951282,0.5250894,0,0,831,3,2,3,2,3,0,0,0,0,0,0,0
217862192,217671730,171807083175,0.0002594746,0.007572813,0.02303391,0,0.25916827,0.24292503,0.017372085,0.051146224,0.011762049,0.01370948,0.0,nan,0.0,0.0,3407898,3407898,6780433,466953,72.99159,73.66653,0.49468318,0.5250894,0,0,831,3,2,3,2,3,0,0,0,0,0,0,0
218062186,217871730,171807083175,0.00057178613,0.016988628,0.03101687,0,0.25900826,0.24307892,0.020044936,0.12599456,0.013120526,0.013395499,0.0,nan,0.0,0.0,3407898,3407898,6780433,466953,72.868866,73.66653,0.49283433,0.5250894,0,0,831,3,2,3,2,3,0,0,0,0,0,0,0
218262201,218071729,171807083175,0.0004334021,0.009242025,0.019247146,0,0.25883707,0.2432015,0.029012697,0.051762328,0.012407392,0.0187638,0.0,nan,0.0,0.0,3407898,3407898,6780433,466953,72.726715,73.66653,0.49495506,0.5250894,0,0,831,3,2,3,2,3,0,0,0,0,0,0,0
218462389,218271729,171807083175,0.0006670667,0.005354581,0.007993097,0,0.25869727,0.24330965,0.024617363,0.060538262,0.017960258,0.015705295,0.0,nan,0.0,0.0,3407898,3407898,6780433,466953,73.242325,73.66653,0.49499384,0.5250894,0,0,831,3,2,3,2,3,0,0,0,0,0,0,0
218662246,218471729,171807083175,0.0024691564,0.010604781,0.008595294,0,0.25854874,0.242818,0.036335375,0.10352627,0.015291463,0.014984198,0.0,nan,0.0,0.0,3407898,3407898,6780433,466953,73.46841,73.66653,0.4947894,0.5250894,0,0,831,3,2,3,2,3,0,0,0,0,0,0,0
218862248,218671729,171807083175,0.002984362,0.01429457,0.018121412,0,0.2585618,0.24294767,0.032258812,0.068816505,0.016692655,0.023370363,0.0,nan,0.0,0.0,3407898,3407898,6780433,466953,73.45931,73.66653,0.49447858,0.5250894,0,0,831,3,2,3,2,3,0,0,0,0,0,0,0
219062239,218871729,171807083175,0.001798306,0.01066293,0.014507719,0,0.2584556,0.24300759,0.003163049,0.08366,0.020676106,0.031554773,0.0,nan,0.0,0.0,3407898,3407898,6780433,466953,73.07283,73.66653,0.4960463,0.5250894,0,0,831,3,2,3,2,3,0,0,0,0,0,0,0
219262219,219071729,171807083175,0.00051879935,0.008626718,0.015200616,0,0.25836304,0.24304925,0.017531348,0.026795406,0.016074747,0.025820378,0.0,nan,0.0,0.0,3407898,3407898,6780433,466953,73.05721,73.66653,0.49905875,0.5250894,0,0,831,3,2,3,2,3,0,0,0,0,0,0,0
219462355,219271729,171807083175,0.0009660708,0.016592423,0.025737835,0,0.2584239,0.24313916,0.0072866986,0.13435602,0.021290038,0.028926905,0.0,nan,0.0,0.0,3407898,3407898,6780433,466953,73.179695,73.66653,0.49483314,0.5250894,0,0,831,3,2,3,2,3,0,0,0,0,0,0,0
219662182,219471729,171807083175,0.0006154871,0.013204974,0.023149252,0,0.25838643,0.24317566,0.010523406,0.09663753,0.018476056,0.029018508,0.0,nan,0.0,0.0,3407898,3407898,6780433,466953,73.32287,73.66653,0.4969796,0.5250894,0,0,831,3,2,3,2,3,0,0,0,0,0,0,0
219862245,219671729,171807083175,0.0007113354,0.01652612,0.02896287,0,0.25845733,0.2432455,0.007664381,0.08757843,0.021790063,0.027976263,0.0,nan,0.0,0.0,3407898,3407898,6780433,466953,73.09672,73.66653,0.4947601,0.5250894,0,0,831,3,2,3,2,3,0,0,0,0,0,0,0
220062193,219871729,171807083175,0.0009597671,0.01674285,0.029416483,0,0.25852,0.24330646,0.010990508,0.0633302,0.020717165,0.030403854,0.0,nan,0.0,0.0,3407898,3407898,6780433,466953,72.90071,73.66653,0.49638376,0.5250894,0,0,831,3,2,3,2,3,0,0,0,0,0,0,0
220262193,220071729,171807083175,0.0008152034,0.014007575,0.025357248,0,0.25863475,0.2433841,0.013768016,0.048355363,0.02145753,0.016345477,0.0,nan,0.0,0.0,3407898,3407898,6780433,466953,73.04064,73.66653,0.49382076,0.5250894,0,0,831,3,2,3,2,3,0,0,0,0,0,0,0
220462213,220271728,171807083175,0.00015674975,0.0059565012,0.009068836,0,0.2586102,0.24340339,0.01681342,0.053872965,0.018006193,0.029170744,0.0,nan,0.0,0.0,3407898,3407898,6780433,466953,73.080185,73.66653,0.4933288,0.5250894,0,0,831,3,2,3,2,3,0,0,0,0,0,0,0
220662227,220471728,171807083175,0.00031971696,0.010521801,0.014554001,0,0.25864747,0.24344127,0.005204195,0.11765937,0.018640371,0.03332741,0.0,nan,0.0,0.0,3407898,3407898,6780433,466953,73.08249,73.66653,0.49531323,0.5250894,0,0,831,3,2,3,2,3,0,0,0,0,0,0,0
221062230,220871729,171807083175,0.00041147848,0.0074707535,0.012399192,0,0.2587355,0.2435089,0.013909573,0.04761161,0.0157789,0.02652735,0.0,nan,0.0,0.0,3407898,3407898,6780433,466953,73.1453,73.66653,0.49444157,0.5250894,0,0,831,3,2,3,2,3,0,0,0,0,0,0,0
221262265,221071729,171807083175,0.00032949657,0.0066398955,0.012025469,0,0.2586994,0.24292728,0.010389651,0.04490705,0.01313256,0.024109308,0.0,nan,0.0,0.0,3407898,3407898,6780433,466953,73.15538,73.66653,0.4951198,0.5250894,0,0,831,3,2,3,2,3,0,0,0,0,0,0,0
221462222,221271729,171807083175,0.0005258224,0.007633157,0.014604906,0,0.25866026,0.24291599,0.012614174,0.035432216,0.012631676,0.020584643,0.0,nan,0.0,0.0,3407898,3407898,6780433,466953,73.04385,73.66653,0.4945483,0.5250894,0,0,831,3,2,3,2,3,0,0,0,0,0,0,0
221662194,221471729,171807083175,0.0006933022,0.017195467,0.02768173,0,0.25860158,0.24288295,0.014380208,0.10191847,0.018921398,0.024660535,0.0,nan,0.0,0.0,3407898,3407898,6780433,466953,73.014,73.66653,0.4943564,0.5250894,0,0,831,3,2,3,2,3,0,0,0,0,0,0,0
221862191,221671728,171807083175,0.00030969054,0.004702403,0.014949066,0,0.25852758,0.2428255,0.014165689,0.07252025,0.014736416,0.02642607,0.0,nan,0.0,0.0,3407898,3407898,6780433,466953,73.11035,73.66653,0.49403965,0.5250894,0,0,831,3,2,3,2,3,0,0,0,0,0,0,0
222062188,221871729,171807083175,0.00020180317,0.004587895,0.014336225,0,0.25844428,0.24275246,0.020005161,0.060219664,0.014417249,0.020112813,0.0,nan,0.0,0.0,3407898,3407898,6780433,466953,73.02427,73.66653,0.49318713,0.5250894,0,0,831,3,2,3,2,3,0,0,0,0,0,0,0
222262196,222071729,171807083175,0.0001441409,0.008238088,0.020567644,0,0.2583485,0.24266654,0.012961354,0.06643632,0.014814273,0.018748062,0.0,nan,0.0,0.0,3407898,3407898,6780433,466953,73.17637,73.66653,0.4944894,0.5250894,0,0,831,3,2,3,2,3,0,0,0,0,0,0,0
222462282,222271729,171807083175,0.000512556,0.009752594,0.020663507,0,0.2582582,0.2425688,0.0123879295,0.026986642,0.015270486,0.017588679,0.0,nan,0.0,0.0,3407898,3407898,6780433,466953,72.942856,73.66653,0.49531153,0.5250894,0,0,831,3,2,3,2,3,0,0,0,0,0,0,0
222662225,222471729,171807083175,0.00048359434,0.012196715,0.02105823,0,0.2581634,0.24246322,0.007047936,0.040330037,0.014714988,0.017328339,0.0,nan,0.0,0.0,3407898,3407898,6780433,466953,73.22134,73.66653,0.49438474,0.5250894,0,0,831,3,2,3,2,3,0,0,0,0,0,0,0
222862222,222671729,171807083175,0.0006618641,0.013842296,0.023592541,0,0.25806266,0.24234666,0.0080451425,0.042265046,0.013823851,0.017455138,0.0,nan,0.0,0.0,3407898,3407898,6780433,466953,73.08766,73.66653,0.4945964,0.5250894,0,0,831,3,2,3,2,3,0,0,0,0,0,0,0
223062232,222871729,171807083175,0.0009386662,0.016780755,0.026382416,0,0.25795758,0.24222496,0.0038074956,0.045898747,0.0138235865,0.02590051,0.0,nan,0.0,0.0,3407898,3407898,6780433,466953,73.115776,73.66653,0.4953219,0.5250894,0,0,831,3,2,3,2,3,0,0,0,0,0,0,0
223262239,223071729,171807083175,0.00039631885,0.007695835,0.014784432,0,0.25788343,0.24210551,0.005586205,0.051219393,0.017883144,0.0148281865,0.0,nan,0.0,0.0,3407898,3407898,6780433,466953,73.10042,73.66653,0.4950989,0.5250894,0,0,831,3,2,3,2,3,0,0,0,0,0,0,0
223462208,223271729,171807083175,0.0003913579,0.009772429,0.0163197,0,0.25779414,0.2419767,0.008121132,0.041968495,0.01801954,0.015702976,0.0,nan,0.0,0.0,3407898,3407898,6780433,466953,73.19006,73.66653,0.49577522,0.5250894,0,0,831,3,2,3,2,3,0,0,0,0,0,0,0
223662231,223471729,171807083175,0.00014361687,0.005576359,0.010292721,0,0.25770092,0.24127778,0.0075229267,0.0757773,0.016542483,0.015251713,0.0,nan,0.0,0.0,3407898,3407898,6780433,466953,73.00315,73.66653,0.4954882,0.5250894,0,0,831,3,2,3,2,3,0,0,0,0,0,0,0
223862218,223671729,171807083175,0.00038946045,0.009366231,0.014821896,0,0.25760454,0.24114574,0.01315266,0.030353298,0.016569464,0.021063553,0.0,nan,0.0,0.0,3407898,3407898,6780433,466953,73.12345,73.66653,0.49422187,0.5250894,0,0,831,3,2,3,2,3,0,0,0,0,0,0,0
224062201,223871729,171807083175,0.00036346886,0.0076613473,0.011125273,0,0.25750476,0.24101014,0.00751864,0.020792063,0.018164432,0.012546671,0.0,nan,0.0,0.0,3407898,3407898,6780433,466953,72.9849,73.66653,0.4952561,0.5250894,0,0,831,3,2,3,2,3,0,0,0,0,0,0,0
224262190,224071729,171807083175,0.00020057739,0.0058260155,0.0064669247,0,0.25740007,0.2408713,0.0076890364,0.073177956,0.014736766,0.015395022,0.0,nan,0.0,0.0,3407898,3407898,6780433,466953,73.08004,73.66653,0.49493963,0.5250894,0,0,831,3,2,3,2,3,0,0,0,0,0,0,0
224462222,224271728,171807083175,0.00031512277,0.0070265806,0.0100844195,0,0.2573066,0.24074228,0.013180939,0.052408427,0.014983492,0.013346156,0.0,nan,0.0,0.0,3407898,3407898,6780433,466953,72.91659,73.66653,0.4960299,0.5250894,0,0,831,3,2,3,2,3,0,0,0,0,0,0,0
224662227,224471729,171807083175,0.00020402636,0.0062031783,0.008094954,0,0.25722232,0.24062587,0.0063413586,0.079510644,0.017947234,0.01157636,0.0,nan,0.0,0.0,3407898,3407898,6780433,466953,73.15621,73.66653,0.49590442,0.5250894,0,0,831,3,2,3,2,3,0,0,0,0,0,0,0
224862261,224671728,171807083175,4.5780118e-05,0.005196872,0.0065317946,0,0.257144,0.24052556,0.0020079375,0.093748584,0.01311705,0.01210897,0.0,nan,0.0,0.0,3407898,3407898,6780433,466953,73.05472,73.66653,0.49632746,0.5250894,0,0,831,3,2,3,2,3,0,0,0,0,0,0,0
225062282,224871729,171807083175,0.0005014783,0.013651958,0.016651375,0,0.25744915,0.24058592,0.00689311,0.11074036,0.012995501,0.011104746,0.0,nan,0.0,0.0,3407898,3407898,6780433,466953,73.06136,73.66653,0.49684352,0.5250894,0,0,831,3,2,3,2,3,0,0,0,0,0,0,0
225262441,225071730,171807083175,0.0004692593,0.006282969,0.009969505,0,0.25739536,0.24051435,0.005622296,0.06160109,0.015904777,0.00731714,0.0,nan,0.0,0.0,3407898,3407898,6780433,466953,73.10446,73.66653,0.49595883,0.5250894,0,0,831,3,2,3,2,3,0,0,0,0,0,0,0
225462181,225271729,171807083175,0.00028699794,0.009760767,0.013346531,0,0.257327,0.2404372,0.010603551,0.10788514,0.016493816,0.008350945,0.0,nan,0.0,0.0,3407898,3407898,6780433,466953,73.01927,73.66653,0.49533248,0.5250894,0,0,831,3,2,3,2,3,0,0,0,0,0,0,0
225662186,225471728,171807083175,0.00019080826,0.0021183193,0.00595372,0,0.25730333,0.24037555,0.014728233,0.03313546,0.015929518,0.010175554,0.0,nan,0.0,0.0,3407898,3407898,6780433,466953,73.25467,73.66653,0.4945405,0.5250894,0,0,831,3,2,3,2,3,0,0,0,0,0,0,0
225862181,225671728,171807083175,0.00011682247,0.0053337165,0.012014564,0,0.25728258,0.24031346,0.007853723,0.03474036,0.018225241,0.0072460133,0.0,nan,0.0,0.0,3407898,3407898,6780433,466953,73.01927,73.66653,0.49597177,0.5250894,0,0,831,3,2,3,2,3,0,0,0,0,0,0,0
226062208,225871729,171807083175,0.00030861708,0.005108141,0.00861158,0,0.2572695,0.24026014,0.009012148,0.03932614,0.0159235,0.0067691025,0.0,nan,0.0,0.0,3407898,3407898,6780433,466953,73.194565,73.66653,0.4951262,0.5250894,0,0,831,3,2,3,2,3,0,0,0,0,0,0,0
226262417,226071729,171807083175,0.00014100413,0.008481601,0.01624564,0,0.2572301,0.23964265,0.04427044,0.025562173,0.0204216,0.011105876,0.0,nan,0.0,0.0,3407898,3407898,6780433,466953,73.49223,73.66653,0.49160558,0.5250894,0,0,831,3,2,3,2,3,0,0,0,0,0,0,0
226462257,226271729,171807083175,0.00026848167,0.0061131483,0.0123235,0,0.25719342,0.23959419,0.019445289,0.06047589,0.017035333,0.010087243,0.0,nan,0.0,0.0,3407898,3407898,6780433,466953,73.02125,73.66653,0.49547273,0.5250894,0,0,831,3,2,3,2,3,0,0,0,0,0,0,0
226662220,226471728,171807083175,0.00016874482,0.0027792025,0.0070035355,0,0.25717264,0.23955587,0.0040825494,0.072556905,0.019806955,0.0040838914,0.0,nan,0.0,0.0,3407898,3407898,6780433,466953,73.05868,73.66653,0.49655664,0.5250894,0,0,831,3,2,3,2,3,0,0,0,0,0,0,0
226862217,226671728,171807083175,0.0004440479,0.010335263,0.014089564,0,0.25719705,0.23953746,0.00548608,0.09276122,0.0143728405,0.0058811707,0.0,nan,0.0,0.0,3407898,3407898,6780433,466953,72.945175,73.66653,0.49614447,0.5250894,0,0,831,3,2,3,2,3,0,0,0,0,0,0,0
227062225,226871729,171807083175,0.00033994077,0.006168615,0.013436941,0,0.25718743,0.2395038,0.0048941523,0.049261637,0.015098054,0.0076930434,0.0,nan,0.0,0.0,3407898,3407898,6780433,466953,73.07912,73.66653,0.4965598,0.5250894,0,0,831,3,2,3,2,3,0,0,0,0,0,0,0
227462226,227271729,171807083175,0.000109632616,0.00610211,0.013313019,0,0.25714526,0.23942168,0.015371722,0.049349975,0.018562185,0.012860044,0.0,nan,0.0,0.0,3407898,3407898,6780433,466953,72.759476,73.66653,0.4967746,0.5250894,0,0,831,3,2,3,2,3,0,0,0,0,0,0,0
227662228,227471730,171807083175,0.00034314804,0.006398215,0.012247742,0,0.2571133,0.23936565,0.0188531,0.05694669,0.0147432005,0.018310899,0.0,nan,0.0,0.0,3407898,3407898,6780433,466953,73.122604,73.66653,0.4987217,0.5250894,0,0,831,3,2,3,2,3,0,0,0,0,0,0,0
227862190,227671728,171807083175,0.00015828364,0.0017827764,0.0057288324,0,0.25709727,0.23931155,0.0041965684,0.022799047,0.017385256,0.013947822,0.0,nan,0.0,0.0,3407898,3407898,6780433,466953,72.96586,73.66653,0.49707937,0.5250894,0,0,831,3,2,3,2,3,0,0,0,0,0,0,0
228062194,227871729,171807083175,0.0003393619,0.012656411,0.019899422,0,0.2570482,0.2392381,0.011571191,0.06533475,0.01920035,0.006043897,0.0,nan,0.0,0.0,3407898,3407898,6780433,466953,72.969185,73.66653,0.49797288,0.5250894,0,0,831,3,2,3,2,3,0,0,0,0,0,0,0
228262361,228071728,171807083175,0.00035716392,0.008627894,0.013620436,0,0.25701106,0.23916331,0.046480842,0.027447902,0.016116686,0.008737007,0.0,nan,0.0,0.0,3407898,3407898,6780433,466953,73.228386,73.66653,0.48854762,0.5250894,0,0,831,3,2,3,2,3,0,0,0,0,0,0,0
228462230,228271730,171807083175,0.00010940389,0.005927416,0.0091856085,0,0.25694117,0.23907776,0.013601177,0.033944614,0.015392869,0.003966492,0.0,nan,0.0,0.0,3407898,3407898,6780433,466953,72.96249,73.66653,0.49536473,0.5250894,0,0,831,3,2,3,2,3,0,0,0,0,0,0,0
228662250,228471728,171807083175,0.00055037695,0.010448189,0.016885843,0,0.25687182,0.23898791,0.014377488,0.052534346,0.012872758,0.0049031912,0.0,nan,0.0,0.0,3407898,3407898,6780433,466953,72.778854,73.66653,0.4973684,0.5250894,0,0,831,3,2,3,2,3,0,0,0,0,0,0,0
228862259,228671728,171807083175,8.682266e-05,0.0013520211,0.0016477581,0,0.25679252,0.23834072,0.011966549,0.049980476,0.012723895,0.0013535067,0.0,nan,0.0,0.0,3407898,3407898,6780433,466953,73.11558,73.66653,0.4941743,0.5250894,0,0,831,3,2,3,2,3,0,0,0,0,0,0,0
229062271,228871729,171807083175,0.00030982413,0.010172058,0.015997157,0,0.25670657,0.2382395,0.013855664,0.069705285,0.01532885,0.0035826254,0.0,nan,0.0,0.0,3407898,3407898,6780433,466953,72.98841,73.66653,0.4971376,0.5250894,0,0,831,3,2,3,2,3,0,0,0,0,0,0,0
229262425,229071729,171807083175,0.00044578678,0.010761877,0.016253056,0,0.25662014,0.238136,0.05347441,0.06747082,0.012082568,0.004480726,0.0,nan,0.0,0.0,3407898,3407898,6780433,466953,73.41539,73.66653,0.4888379,0.5250894,0,0,831,3,2,3,2,3,0,0,0,0,0,0,0
229462190,229271729,171807083175,0.00017690234,0.0024611338,0.0063323043,0,0.25652975,0.23802833,0.008639625,0.032498308,0.016192762,0.003393995,0.0,nan,0.0,0.0,3407898,3407898,6780433,466953,72.98648,73.66653,0.49587926,0.5250894,0,0,831,3,2,3,2,3,0,0,0,0,0,0,0
229662192,229471728,171807083175,0.00033456914,0.0067480304,0.011260524,0,0.25643536,0.23791873,0.009073844,0.02915754,0.014525225,0.0014230101,0.0,nan,0.0,0.0,3407898,3407898,6780433,466953,73.000374,73.66653,0.49757418,0.5250894,0,0,831,3,2,3,2,3,0,0,0,0,0,0,0
229862198,229671728,171807083175,0.00022366902,0.0022106022,0.0035797555,0,0.256341,0.23780827,0.0044604586,0.07132259,0.016915137,0.0025251596,0.0,nan,0.0,0.0,3407898,3407898,6780433,466953,73.04121,73.66653,0.49559438,0.5250894,0,0,831,3,2,3,2,3,0,0,0,0,0,0,0
230062200,229871729,171807083175,0.00037767325,0.009187289,0.014885949,0,0.25624081,0.23769954,0.009193354,0.0835652,0.01592281,0.006781326,0.0,nan,0.0,0.0,3407898,3407898,6780433,466953,73.045944,73.66653,0.497199,0.5250894,0,0,831,3,2,3,2,3,0,0,0,0,0,0,0
230262432,230071729,171807083175,0.00041365495,0.0070051583,0.010569841,0,0.2561504,0.2375918,0.046846725,0.02597748,0.014561752,0.00363439,0.0,nan,0.0,0.0,3407898,3407898,6780433,466953,73.3076,73.66653,0.4882216,0.5250894,0,0,831,3,2,3,2,3,0,0,0,0,0,0,0
230462189,230271729,171807083175,0.00014038166,0.0020025552,0.0047322307,0,0.2560505,0.23748009,0.0069699385,0.012972132,0.015582967,0.0032799025,0.0,nan,0.0,0.0,3407898,3407898,6780433,466953,72.99033,73.66653,0.49619547,0.5250894,0,0,831,3,2,3,2,3,0,0,0,0,0,0,0
230662228,230471728,171807083175,0.00011541515,0.0014342419,0.004071829,0,0.25594833,0.23736876,0.0063449848,0.021819575,0.016236752,0.004346476,0.0,nan,0.0,0.0,3407898,3407898,6780433,466953,73.16343,73.66653,0.49656296,0.5250894,0,0,831,3,2,3,2,3,0,0,0,0,0,0,0
230862231,230671728,171807083175,4.4359385e-05,0.0023495404,0.0041202223,0,0.2558376,0.23725659,0.011296802,0.035855822,0.015469616,0.020067753,0.0,nan,0.0,0.0,3407898,3407898,6780433,466953,73.1995,73.66653,0.49750337,0.5250894,0,0,831,3,2,3,2,3,0,0,0,0,0,0,0
231062221,230871729,171807083175,0.0001352709,0.0064198095,0.0087962635,0,0.25572813,0.23714495,0.01300863,0.06133679,0.017476007,0.008048713,0.0,nan,0.0,0.0,3407898,3407898,6780433,466953,73.25143,73.66653,0.497113,0.5250894,0,0,831,3,2,3,2,3,0,0,0,0,0,0,0
231262495,231071728,171807083175,0.00014727916,0.0074758446,0.010893211,0,0.25561768,0.23649526,0.011829931,0.04775003,0.014696046,0.0032622088,0.0,nan,0.0,0.0,3407898,3407898,6780433,466953,73.09808,73.66653,0.49704745,0.5250894,0,0,831,3,2,3,2,3,0,0,0,0,0,0,0
231462261,231271728,171807083175,0.00016385193,0.0059702634,0.008966965,0,0.25550464,0.23638251,0.0116153555,0.036579624,0.017461538,0.0028622118,0.0,nan,0.0,0.0,3407898,3407898,6780433,466953,73.20418,73.66653,0.49742255,0.5250894,0,0,831,3,2,3,2,3,0,0,0,0,0,0,0
231662214,231471729,171807083175,7.2336974e-05,0.004319717,0.006660257,0,0.2553893,0.23627003,0.010662437,0.080753304,0.014159261,0.0075270403,0.0,nan,0.0,0.0,3407898,3407898,6780433,466953,73.15901,73.66653,0.49738842,0.5250894,0,0,831,3,2,3,2,3,0,0,0,0,0,0,0
231862198,231671729,171807083175,0.00018503792,0.0055426434,0.008839152,0,0.2552746,0.23615842,0.008881616,0.021912262,0.017100452,0.014422302,0.0,nan,0.0,0.0,3407898,3407898,6780433,466953,73.2163,73.66653,0.49647895,0.5250894,0,0,831,3,2,3,2,3,0,0,0,0,0,0,0
232062193,231871728,171807083175,0.00010121551,0.004957476,0.0083382595,0,0.2551569,0.23604381,0.013608085,0.035815515,0.01693035,0.00471933,0.0,nan,0.0,0.0,3407898,3407898,6780433,466953,73.30571,73.66653,0.49694154,0.5250894,0,0,831,3,2,3,2,3,0,0,0,0,0,0,0
232262378,232071729,171807083175,6.702534e-05,0.0039604455,0.0071450444,0,0.25504598,0.23592998,0.009824589,0.051921755,0.0144746285,0.004498102,0.0,nan,0.0,0.0,3407898,3407898,6780433,466953,73.2236,73.66653,0.49636945,0.5250894,0,0,831,3,2,3,2,3,0,0,0,0,0,0,0
232462196,232271728,171807083175,9.906188e-05,0.0041896924,0.008296573,0,0.25492966,0.23581345,0.0060571963,0.015460441,0.014672731,0.011979055,0.0,nan,0.0,0.0,3407898,3407898,6780433,466953,73.20718,73.66653,0.4957654,0.5250894,0,0,831,3,2,3,2,3,0,0,0,0,0,0,0
232662238,232471728,171807083175,0.00011070298,0.0049450574,0.011467094,0,0.25481698,0.23569761,0.008988098,0.021165408,0.014580771,0.009055857,0.0,nan,0.0,0.0,3407898,3407898,6780433,466953,73.1138,73.66653,0.4959222,0.5250894,0,0,831,3,2,3,2,3,0,0,0,0,0,0,0
232862259,232671729,171807083175,0.00012228383,0.0065389597,0.009301644,0,0.25470063,0.23558232,0.006319734,0.066317216,0.012099031,0.0056361486,0.0,nan,0.0,0.0,3407898,3407898,6780433,466953,73.17966,73.66653,0.49560294,0.5250894,0,0,831,3,2,3,2,3,0,0,0,0,0,0,0
233062231,232871729,171807083175,0.0001286237,0.0031853442,0.002765038,0,0.25462726,0.23548065,0.00799065,0.05789803,0.0145482235,0.012855045,0.0,nan,0.0,0.0,3407898,3407898,6780433,466953,73.13829,73.66653,0.49711525,0.5250894,0,0,831,3,2,3,2,3,0,0,0,0,0,0,0
233262431,233071728,171807083175,3.2015556e-05,0.003605485,0.00533695,0,0.25453004,0.23537442,0.00935857,0.03238321,0.015623266,0.0027699678,0.0,nan,0.0,0.0,3407898,3407898,6780433,466953,73.20244,73.66653,0.49609807,0.5250894,0,0,831,3,2,3,2,3,0,0,0,0,0,0,0
233462229,233271728,171807083175,7.234209e-05,0.0028394507,0.0035979988,0,0.2544097,0.23525923,0.0041879183,0.011979666,0.016034188,0.006457093,0.0,nan,0.0,0.0,3407898,3407898,6780433,466953,73.10325,73.66653,0.49596,0.5250894,0,0,831,3,2,3,2,3,0,0,0,0,0,0,0
233662197,233471728,171807083175,0.0003504814,0.008672057,0.012167435,0,0.25431517,0.2351526,0.011824359,0.038956553,0.016579146,0.0061363415,0.0,nan,0.0,0.0,3407898,3407898,6780433,466953,72.928566,73.66653,0.49769112,0.5250894,0,0,831,3,2,3,2,3,0,0,0,0,0,0,0
233862247,233671729,171807083175,0.00040180015,0.0071605043,0.009995963,0,0.25419903,0.23451638,0.013872827,0.041875154,0.015015552,0.0032548876,0.0,nan,0.0,0.0,3407898,3407898,6780433,466953,72.87733,73.66653,0.49647263,0.5250894,0,0,831,3,2,3,2,3,0,0,0,0,0,0,0
234262364,234071729,171807083175,0.00019935696,0.007024152,0.008958564,0,0.25402883,0.23432446,0.009784089,0.036284883,0.014218184,0.0043539307,0.0,nan,0.0,0.0,3407898,3407898,6780433,466953,73.031845,73.66653,0.49664557,0.5250894,0,0,831,3,2,3,2,3,0,0,0,0,0,0,0
234862238,234671728,171807083175,0.00038412173,0.00903762,0.012248481,0,0.25368845,0.2340122,0.008234905,0.061355464,0.010575172,0.007934451,0.0,nan,0.0,0.0,3407898,3407898,6780433,466953,73.09801,73.66653,0.49587172,0.5250894,0,0,831,3,2,3,2,3,0,0,0,0,0,0,0
235062230,234871736,171807083175,0.00030225047,0.004810973,0.007456094,0,0.25357756,0.23391046,0.057419706,0.03421033,0.008820679,0.01539873,0.0,nan,0.0,0.0,3407898,3407898,6780433,466953,73.49128,73.66653,0.48606366,0.5250894,0,0,831,3,2,3,2,3,0,0,0,0,0,0,0
235262223,235071729,171807083175,0.0003495108,0.0057355203,0.007967782,0,0.25346473,0.23380755,0.0071139876,0.011978349,0.008295542,0.009053266,0.0,nan,0.0,0.0,3407898,3407898,6780433,466953,73.11182,73.66653,0.4957308,0.5250894,0,0,831,3,2,3,2,3,0,0,0,0,0,0,0
235462274,235271731,171807083175,0.00016353608,0.004248957,0.007519197,0,0.25338164,0.2337145,0.010546802,0.018404085,0.008002599,0.007893992,0.0,nan,0.0,0.0,3407898,3407898,6780433,466953,73.016396,73.66653,0.49458084,0.5250894,0,0,831,3,2,3,2,3,0,0,0,0,0,0,0
235662191,235471731,171807083175,0.0002367573,0.005463525,0.01000409,0,0.25327715,0.23361835,0.0036744087,0.031137688,0.009200256,0.005958366,0.0,nan,0.0,0.0,3407898,3407898,6780433,466953,73.044426,73.66653,0.49540746,0.5250894,0,0,831,3,2,3,2,3,0,0,0,0,0,0,0
235862206,235671729,171807083175,0.00032300275,0.0037467538,0.0067013465,0,0.2532208,0.23353629,0.004742277,0.030714532,0.007403382,0.0054937317,0.0,nan,0.0,0.0,3407898,3407898,6780433,466953,73.242966,73.66653,0.49530527,0.5250894,0,0,831,3,2,3,2,3,0,0,0,0,0,0,0
236062191,235871729,171807083175,0.00010429553,0.00321694,0.0066285715,0,0.25314298,0.23344843,0.053493958,0.020789795,0.008072368,0.003979416,0.0,nan,0.0,0.0,3407898,3407898,6780433,466953,73.449524,73.66653,0.48679826,0.5250894,0,0,831,3,2,3,2,3,0,0,0,0,0,0,0
236262207,236071728,171807083175,3.6654943e-05,0.002368443,0.005168205,0,0.25304183,0.23335305,0.014832763,0.060842745,0.008611793,0.0052453466,0.0,nan,0.0,0.0,3407898,3407898,6780433,466953,72.95331,73.66653,0.49489948,0.5250894,0,0,831,3,2,3,2,3,0,0,0,0,0,0,0
236462250,236271728,171807083175,9.8374025e-05,0.0011578945,0.003728851,0,0.2529388,0.23273966,0.003520908,0.026489383,0.0103994,0.007344515,0.0,nan,0.0,0.0,3407898,3407898,6780433,466953,73.17771,73.66653,0.49620616,0.5250894,0,0,831,3,2,3,2,3,0,0,0,0,0,0,0
236662224,236471728,171807083175,0.00013619008,0.003160289,0.008073834,0,0.25283495,0.23264262,0.0027260003,0.024953904,0.0077674887,0.0053022676,0.0,nan,0.0,0.0,3407898,3407898,6780433,466953,73.18196,73.66653,0.4961912,0.5250894,0,0,831,3,2,3,2,3,0,0,0,0,0,0,0
236862235,236671729,171807083175,4.6385878e-05,0.003506721,0.0072843623,0,0.2527249,0.23253922,0.0067264833,0.03875,0.008823679,0.0036371993,0.0,nan,0.0,0.0,3407898,3407898,6780433,466953,73.18347,73.66653,0.495862,0.5250894,0,0,831,3,2,3,2,3,0,0,0,0,0,0,0
237062226,236871729,171807083175,0.000107857224,0.0033835855,0.0070676636,0,0.25261778,0.23243192,0.04865242,0.042119652,0.008652252,0.011496864,0.0,nan,0.0,0.0,3407898,3407898,6780433,466953,73.36303,73.66653,0.4877597,0.5250894,0,0,831,3,2,3,2,3,0,0,0,0,0,0,0
237262230,237071728,171807083175,0.00013379387,0.0034885574,0.0064705336,0,0.2525277,0.2323318,0.020277068,0.061927594,0.008312044,0.0041416036,0.0,nan,0.0,0.0,3407898,3407898,6780433,466953,72.876625,73.66653,0.49538267,0.5250894,0,0,831,3,2,3,2,3,0,0,0,0,0,0,0
237462225,237271728,171807083175,0.00020407404,0.0016626403,0.0033727775,0,0.2524061,0.23221947,0.0020712179,0.032230526,0.007793742,0.009287499,0.0,nan,0.0,0.0,3407898,3407898,6780433,466953,73.17169,73.66653,0.49582314,0.5250894,0,0,831,3,2,3,2,3,0,0,0,0,0,0,0
237862200,237671728,171807083175,0.00010857679,0.002837818,0.00609179,0,0.25221208,0.23200543,0.010450771,0.019132277,0.009605609,0.0062341494,0.0,nan,0.0,0.0,3407898,3407898,6780433,466953,73.269684,73.66653,0.49520075,0.5250894,0,0,831,3,2,3,2,3,0,0,0,0,0,0,0
238062234,237871729,171807083175,0.00015223818,0.0039583757,0.0064928695,0,0.25209415,0.23188823,0.010737154,0.06033826,0.009781743,0.0080208555,0.0,nan,0.0,0.0,3407898,3407898,6780433,466953,73.16672,73.66653,0.4942189,0.5250894,0,0,831,3,2,3,2,3,0,0,0,0,0,0,0
238262189,238071729,171807083175,6.504917e-05,0.0031313396,0.007953768,0,0.25199804,0.2317752,0.0071535655,0.028481094,0.008035217,0.012427874,0.0,nan,0.0,0.0,3407898,3407898,6780433,466953,73.20586,73.66653,0.49559525,0.5250894,0,0,831,3,2,3,2,3,0,0,0,0,0,0,0
238462191,238271728,171807083175,0.00031936786,0.0072371056,0.009967688,0,0.25187457,0.23165464,0.007808351,0.0509249,0.007515796,0.0017966906,0.0,nan,0.0,0.0,3407898,3407898,6780433,466953,73.27702,73.66653,0.49595588,0.5250894,0,0,831,3,2,3,2,3,0,0,0,0,0,0,0
238662228,238471728,171807083175,8.429149e-05,0.006250772,0.010805073,0,0.25175157,0.23153616,0.015150778,0.043089096,0.006192644,0.0009675862,0.0,nan,0.0,0.0,3407898,3407898,6780433,466953,73.296844,73.66653,0.496491,0.5250894,0,0,831,3,2,3,2,3,0,0,0,0,0,0,0
238862260,238671729,171807083175,5.1057483e-05,0.001714277,0.004387878,0,0.2516285,0.23091394,0.013251691,0.02773449,0.008367123,0.00278645,0.0,nan,0.0,0.0,3407898,3407898,6780433,466953,73.31761,73.66653,0.4975964,0.5250894,0,0,831,3,2,3,2,3,0,0,0,0,0,0,0
239062516,238871729,171807083175,0.00022744224,0.004256969,0.0075145634,0,0.25150663,0.23079477,0.020340996,0.059251305,0.006080055,0.0020693857,0.0,nan,0.0,0.0,3407898,3407898,6780433,466953,73.16553,73.66653,0.49274048,0.5250894,0,0,831,3,2,3,2,3,0,0,0,0,0,0,0
239262227,239071728,171807083175,9.9021316e-05,0.0029078599,0.0045724986,0,0.2513871,0.2306789,0.011993477,0.059378926,0.008784501,0.011140493,0.0,nan,0.0,0.0,3407898,3407898,6780433,466953,72.92211,73.66653,0.4962767,0.5250894,0,0,831,3,2,3,2,3,0,0,0,0,0,0,0
239462229,239271729,171807083175,0.00028832417,0.009022932,0.014583767,0,0.2512902,0.23057209,0.051321723,0.07328745,0.006683217,0.006860196,0.0,nan,0.0,0.0,3407898,3407898,6780433,466953,72.98598,73.66653,0.5042224,0.5250894,0,0,831,3,2,3,2,3,0,0,0,0,0,0,0
239662195,239471728,171807083175,0.0005511249,0.008471756,0.017165078,0,0.25117442,0.23045905,0.02632341,0.05959045,0.0037033472,0.01479814,0.0,nan,0.0,0.0,3407898,3407898,6780433,466953,72.98046,73.66653,0.500646,0.5250894,0,0,831,3,2,3,2,3,0,0,0,0,0,0,0
239862221,239671729,171807083175,0.0009870845,0.012448176,0.018423202,0,0.2510421,0.23034862,0.02795259,0.11067911,0.0046169558,0.008400016,0.0,nan,0.0,0.0,3407898,3407898,6780433,466953,72.21339,73.66653,0.50043744,0.5250894,0,0,831,3,2,3,2,3,0,0,0,0,0,0,0
240062417,239871729,171807083175,0.00023476084,0.0069773737,0.013146217,0,0.25090185,0.23024057,0.025288241,0.048160516,0.011462563,0.011548603,0.0,nan,0.0,0.0,3407898,3407898,6780433,466953,72.371956,73.66653,0.49824983,0.5250894,0,0,831,3,2,3,2,3,0,0,0,0,0,0,0
240262188,240071728,171807083175,0.00058437133,0.0032713052,0.0020076802,0,0.25077215,0.2301305,0.015266492,0.016672304,0.013955064,0.016128559,0.0,nan,0.0,0.0,3407898,3407898,6780433,466953,72.65651,73.66653,0.49880984,0.5250894,0,0,831,3,2,3,2,3,0,0,0,0,0,0,0
240462190,240271729,171807083175,0.00021367082,0.0034173387,0.009175479,0,0.25064513,0.2300209,0.01386796,0.084146015,0.013500904,0.012184561,0.0,nan,0.0,0.0,3407898,3407898,6780433,466953,72.72959,73.66653,0.49760404,0.5250894,0,0,831,3,2,3,2,3,0,0,0,0,0,0,0
240662274,240471729,171807083175,0.00010048772,0.007714682,0.019455815,0,0.25052518,0.22991319,0.011803264,0.059733033,0.016735824,0.016920365,0.0,nan,0.0,0.0,3407898,3407898,6780433,466953,72.796425,73.66653,0.4972995,0.5250894,0,0,831,3,2,3,2,3,0,0,0,0,0,0,0
240862227,240671729,171807083175,0.0006352629,0.011217836,0.024200743,0,0.2504089,0.22980857,0.0072213244,0.077123515,0.014021721,0.0140240695,0.0,nan,0.0,0.0,3407898,3407898,6780433,466953,72.94609,73.66653,0.4966741,0.5250894,0,0,831,3,2,3,2,3,0,0,0,0,0,0,0
241062424,240871729,171807083175,0.0007026358,0.0075206007,0.023082972,0,0.25028723,0.22970475,0.0077718683,0.047761723,0.009411633,0.0113940425,0.0,nan,0.0,0.0,3407898,3407898,6780433,466953,73.02238,73.66653,0.4973654,0.5250894,0,0,831,3,2,3,2,3,0,0,0,0,0,0,0
241262226,241071729,171807083175,0.0006713244,0.009677368,0.025164612,0,0.25016654,0.22959998,0.010385601,0.052620016,0.008128939,0.012682296,0.0,nan,0.0,0.0,3407898,3407898,6780433,466953,72.94185,73.66653,0.4957481,0.5250894,0,0,831,3,2,3,2,3,0,0,0,0,0,0,0
241462255,241271729,171807083175,0.0003186513,0.009529527,0.024852559,0,0.25004053,0.22900517,0.0028547477,0.060533527,0.010125431,0.014331927,0.0,nan,0.0,0.0,3407898,3407898,6780433,466953,73.22638,73.66653,0.4951737,0.5250894,0,0,831,3,2,3,2,3,0,0,0,0,0,0,0
241662259,241471728,171807083175,0.00020580045,0.0070797913,0.01899546,0,0.2499092,0.22889979,0.004598359,0.038880568,0.008780298,0.010846168,0.0,nan,0.0,0.0,3407898,3407898,6780433,466953,73.30285,73.66653,0.49569654,0.5250894,0,0,831,3,2,3,2,3,0,0,0,0,0,0,0
241862190,241671729,171807083175,0.0002901973,0.005624274,0.015239378,0,0.24977376,0.22879589,0.008006418,0.032616224,0.009383644,0.009498587,0.0,nan,0.0,0.0,3407898,3407898,6780433,466953,73.334366,73.66653,0.49488297,0.5250894,0,0,831,3,2,3,2,3,0,0,0,0,0,0,0
242062361,241871729,171807083175,0.00064718974,0.006877032,0.014305872,0,0.24963047,0.22868589,0.0073176324,0.042565234,0.009400315,0.013611587,0.0,nan,0.0,0.0,3407898,3407898,6780433,466953,73.283066,73.66653,0.4961288,0.5250894,0,0,831,3,2,3,2,3,0,0,0,0,0,0,0
242262190,242071728,171807083175,0.0010821554,0.0072367643,0.012246689,0,0.24949008,0.2285774,0.00098866,0.048293203,0.008195051,0.01651726,0.0,nan,0.0,0.0,3407898,3407898,6780433,466953,73.238235,73.66653,0.495425,0.5250894,0,0,831,3,2,3,2,3,0,0,0,0,0,0,0
242662228,242471728,171807083175,0.00093825534,0.005199474,0.0088791745,0,0.2492078,0.22835094,0.011614899,0.007962058,0.009188312,0.013100309,0.0,nan,0.0,0.0,3407898,3407898,6780433,466953,73.35824,73.66653,0.49512613,0.5250894,0,0,831,3,2,3,2,3,0,0,0,0,0,0,0
242862231,242671728,171807083175,0.0011730659,0.007826321,0.012571492,0,0.24906343,0.22823305,0.0028307065,0.020375218,0.009696661,0.012861264,0.0,nan,0.0,0.0,3407898,3407898,6780433,466953,73.20677,73.66653,0.49589968,0.5250894,0,0,831,3,2,3,2,3,0,0,0,0,0,0,0
243062414,242871729,171807083175,0.0010744001,0.0045494973,0.0082270885,0,0.2489252,0.22811899,0.006642963,0.045411866,0.008795935,0.0141639775,0.0,nan,0.0,0.0,3407898,3407898,6780433,466953,73.25204,73.66653,0.49595413,0.5250894,0,0,831,3,2,3,2,3,0,0,0,0,0,0,0
243262272,243071728,171807083175,0.0014070357,0.007889398,0.012859482,0,0.24879274,0.22800386,0.003519853,0.017569555,0.009510837,0.011092303,0.0,nan,0.0,0.0,3407898,3407898,6780433,466953,73.1481,73.66653,0.49598408,0.5250894,0,0,831,3,2,3,2,3,0,0,0,0,0,0,0
243462227,243271728,171807083175,0.0014604579,0.010388321,0.023209108,0,0.24865907,0.22788748,0.11177244,0.14457501,0.018227506,0.014556381,0.0,nan,0.0,0.0,3407898,3407898,6780433,466953,71.554344,73.66653,0.4917332,0.5250894,0,0,831,3,2,3,2,3,0,0,0,0,0,0,0
243662191,243471729,171807083175,0.00088949327,0.001419176,0.0062124575,0,0.24853772,0.22777313,0.03626847,0.047492888,0.01709479,0.012047827,0.0,nan,0.0,0.0,3407898,3407898,6780433,466953,74.308334,73.66653,0.49470934,0.5250894,0,0,831,3,2,3,2,3,0,0,0,0,0,0,0
243862210,243671729,171807083175,0.0017645198,0.008668295,0.0074307336,0,0.24842031,0.22718021,0.028020546,0.0929694,0.02234079,0.010484827,0.0,nan,0.0,0.0,3407898,3407898,6780433,466953,74.068794,73.66653,0.4930996,0.5250894,0,0,831,3,2,3,2,3,0,0,0,0,0,0,0
244062392,243871729,171807083175,0.001844922,0.004597835,0.0061098547,0,0.2483348,0.22707097,0.014912342,0.030217499,0.02507882,0.01992036,0.0,nan,0.0,0.0,3407898,3407898,6780433,466953,73.540245,73.66653,0.49441487,0.5250894,0,0,831,3,2,3,2,3,0,0,0,0,0,0,0
244262241,244071729,171807083175,0.00038774862,0.011547962,0.017684633,0,0.24826168,0.22696951,0.0050577982,0.07214209,0.030423595,0.021464145,0.0,nan,0.0,0.0,3407898,3407898,6780433,466953,73.27216,73.66653,0.49517515,0.5250894,0,0,831,3,2,3,2,3,0,0,0,0,0,0,0
244462194,244271729,171807083175,0.00029716967,0.004612471,0.008856845,0,0.24816154,0.22685306,0.008676068,0.03746286,0.021645071,0.020856623,0.0,nan,0.0,0.0,3407898,3407898,6780433,466953,73.26659,73.66653,0.49651664,0.5250894,0,0,831,3,2,3,2,3,0,0,0,0,0,0,0
244662227,244471729,171807083175,0.00070745405,0.009800726,0.016040888,0,0.24805859,0.22673707,0.010714861,0.04825126,0.020321352,0.020820491,0.0,nan,0.0,0.0,3407898,3407898,6780433,466953,73.00334,73.66653,0.49697185,0.5250894,0,0,831,3,2,3,2,3,0,0,0,0,0,0,0
244862231,244671729,171807083175,0.00092697196,0.012360969,0.019934302,0,0.24797073,0.22662748,0.0071239853,0.07325567,0.020280976,0.023272302,0.0,nan,0.0,0.0,3407898,3407898,6780433,466953,73.01045,73.66653,0.49687165,0.5250894,0,0,831,3,2,3,2,3,0,0,0,0,0,0,0
245062435,244871729,171807083175,0.00060961663,0.0043869936,0.008583065,0,0.24785371,0.22650926,0.0059624733,0.03387834,0.012433221,0.01778931,0.0,nan,0.0,0.0,3407898,3407898,6780433,466953,73.01043,73.66653,0.49660337,0.5250894,0,0,831,3,2,3,2,3,0,0,0,0,0,0,0
245262236,245071728,171807083175,0.00022324423,0.0014830636,0.002653117,0,0.24773112,0.2263894,0.0049959123,0.013314819,0.007930627,0.011366483,0.0,nan,0.0,0.0,3407898,3407898,6780433,466953,72.92131,73.66653,0.49639586,0.5250894,0,0,831,3,2,3,2,3,0,0,0,0,0,0,0
245662180,245471728,171807083175,0.00051380077,0.005027305,0.008454187,0,0.24746466,0.22615023,0.0048904475,0.027849456,0.0052431645,0.009901294,0.0,nan,0.0,0.0,3407898,3407898,6780433,466953,72.842125,73.66653,0.497598,0.5250894,0,0,831,3,2,3,2,3,0,0,0,0,0,0,0
245862253,245671728,171807083175,0.0006846722,0.005390058,0.010066015,0,0.24733007,0.22603206,0.010094292,0.039604776,0.0045452127,0.01605858,0.0,nan,0.0,0.0,3407898,3407898,6780433,466953,72.75969,73.66653,0.49773663,0.5250894,0,0,831,3,2,3,2,3,0,0,0,0,0,0,0
246062367,245871729,171807083175,0.00014113008,0.0041200137,0.0074414616,0,0.24720234,0.22591737,0.009272209,0.06507063,0.00559049,0.012522383,0.0,nan,0.0,0.0,3407898,3407898,6780433,466953,72.79686,73.66653,0.497402,0.5250894,0,0,831,3,2,3,2,3,0,0,0,0,0,0,0
246262199,246071728,171807083175,5.2523144e-05,0.008171809,0.015007068,0,0.24707983,0.22580753,0.008479341,0.059050694,0.009773412,0.0097233225,0.0,nan,0.0,0.0,3407898,3407898,6780433,466953,72.86317,73.66653,0.49787045,0.5250894,0,0,831,3,2,3,2,3,0,0,0,0,0,0,0
246462230,246271728,171807083175,0.000111502144,0.0075475727,0.014507161,0,0.24696536,0.22523452,0.0067017297,0.02781431,0.009115712,0.008633189,0.0,nan,0.0,0.0,3407898,3407898,6780433,466953,72.93464,73.66653,0.49671727,0.5250894,0,0,831,3,2,3,2,3,0,0,0,0,0,0,0
246662226,246471729,171807083175,0.0004942181,0.011456981,0.019839715,0,0.24686033,0.22512744,0.003493433,0.04980519,0.012582195,0.013303699,0.0,nan,0.0,0.0,3407898,3407898,6780433,466953,72.95688,73.66653,0.49694663,0.5250894,0,0,831,3,2,3,2,3,0,0,0,0,0,0,0
246862261,246671728,171807083175,0.00090236356,0.008545313,0.017106555,0,0.24675564,0.22502454,0.05807657,0.048783913,0.015931124,0.009108283,0.0,nan,0.0,0.0,3407898,3407898,6780433,466953,73.49458,73.66653,0.49469334,0.5250894,0,0,831,3,2,3,2,3,0,0,0,0,0,0,0
247062413,246871729,171807083175,0.00067309,0.00821367,0.01907921,0,0.24665958,0.2249247,0.032027517,0.03574152,0.023667239,0.010310657,0.0,nan,0.0,0.0,3407898,3407898,6780433,466953,72.124245,73.66653,0.5020589,0.5250894,0,0,831,3,2,3,2,3,0,0,0,0,0,0,0
247462229,247271728,171807083175,0.00066597096,0.013525587,0.023849772,0,0.24652122,0.22474742,0.024469083,0.0068332856,0.0333332,0.0053270343,0.0,nan,0.0,0.0,3407898,3407898,6780433,466953,72.414085,73.66653,0.49714604,0.5250894,0,0,831,3,2,3,2,3,0,0,0,0,0,0,0
247662222,247471728,171807083175,0.000969417,0.010813408,0.019093456,0,0.24644823,0.22466056,0.016063781,0.041003454,0.02663724,0.0065887216,0.0,nan,0.0,0.0,3407898,3407898,6780433,466953,72.86476,73.66653,0.4962432,0.5250894,0,0,831,3,2,3,2,3,0,0,0,0,0,0,0
247862190,247671729,171807083175,0.00027955408,0.009951245,0.019454636,0,0.24638034,0.22457509,0.010851257,0.0519221,0.026311513,0.005540425,0.0,nan,0.0,0.0,3407898,3407898,6780433,466953,73.01678,73.66653,0.49534592,0.5250894,0,0,831,3,2,3,2,3,0,0,0,0,0,0,0
