timestamp,gyro_rad[0],gyro_rad[1],gyro_rad[2],gyro_integral_dt,accelerometer_timestamp_relative,accelerometer_m_s2[0],accelerometer_m_s2[1],accelerometer_m_s2[2],accelerometer_integral_dt,accelerometer_clipping,gyro_clipping,accel_calibration_count,gyro_calibration_count
200066733,-0.0048020473,-0.0007806804,0.0009830793,5002,0,-0.09080138,0.333563,-9.830763,5002,0,0,1,1
200071732,-0.0056204516,-0.001315428,-8.286568e-05,4999,0,-0.08465907,0.328256,-9.843186,4999,0,0,1,1
200076729,-0.0041236784,-0.0009535064,6.0831047e-05,4997,0,-0.095936224,0.33068836,-9.852713,4997,0,0,1,1
200081730,-0.0049678804,-0.0007663052,0.00083054707,5001,0,-0.089764625,0.32403278,-9.843082,5001,0,0,1,1
200086730,-0.005358249,-0.0012110316,0.0008187999,5000,0,-0.10028945,0.31021732,-9.831546,5000,0,0,1,1
200216730,-0.0037887767,-0.005537332,-0.0009454281,5001,0,-0.17069149,0.44334218,-9.589046,5001,0,0,1,1
200221729,-0.0030743256,0.0058622174,-0.007328903,4999,0,0.008638397,0.23109624,-9.867445,4999,0,0,1,1
200226729,-0.0074142474,-0.0019846659,-0.008111374,5000,0,-0.21401976,0.46432307,-9.944648,5000,0,0,1,1
200231730,-0.002634624,0.0016599419,-0.009232454,5001,0,-0.07326615,0.16621807,-9.738642,5001,0,0,1,1
200236730,-0.006563545,0.0006543621,-0.0026706723,5000,0,-0.068223864,0.47301468,-9.779294,5000,0,0,1,1
200241730,-0.0025470238,0.0055114524,-0.0008414968,5000,0,-0.1486825,0.14264964,-9.831382,5000,0,0,1,1
200246731,-0.0051907925,-0.0008672261,0.0006572618,5001,0,-0.10321486,0.49277347,-9.98265,5001,0,0,1,1
200251731,-0.0034107154,0.0020369191,0.005535522,5000,0,-0.16727129,-0.017176246,-9.68061,5000,0,0,1,1
200256730,-0.0036510956,-0.0022501843,0.0071502454,4999,0,-0.019135833,0.53016585,-9.954827,4999,0,0,1,1
200261730,-0.004814379,0.00041671965,0.0090811765,5000,0,-0.1391537,0.17934845,-9.775466,5000,0,0,1,1
200266730,-0.0032353746,-0.005565659,0.00822985,5000,0,-0.012947515,0.45993435,-10.000182,5000,0,0,1,1
200271729,-0.0080416035,-0.0019020203,0.005613812,4999,0,-0.114378475,0.13332692,-9.625965,4999,0,0,1,1
200276730,-0.0042347033,-0.0047126375,0.0045422954,5001,0,-0.043719254,0.53892386,-9.998785,5001,0,0,1,1
200281729,-0.0076124114,-0.0016952856,0.0010273014,4999,0,-0.06394079,0.14980985,-9.748621,4999,0,0,1,1
200286730,-0.0024966346,-0.005730855,-0.0019752746,5001,0,-0.035434783,0.44784343,-9.909201,5001,0,0,1,1
200291729,-0.006062314,-8.3101564e-05,-0.006405162,4999,0,-0.09932258,0.23849541,-9.611064,4999,0,0,1,1
200296729,-0.002486877,-0.0017372296,-0.0057468466,5000,0,-0.06673469,0.5507195,-10.099984,5000,0,0,1,1
200301730,-0.006272317,-0.0030728579,-0.0070355986,5001,0,-0.20603052,0.1471369,-9.572184,5001,0,0,1,1
200306730,-0.0022794185,0.0018004351,-0.007031563,5000,0,-0.07294536,0.4529844,-10.032823,5000,0,0,1,1
200311729,-0.0045628436,-0.001043325,-0.0037573392,4999,0,-0.17980185,0.15817408,-9.664651,4999,0,0,1,1
200316736,-0.0013343237,0.00034246364,-0.0015907161,5007,0,-0.10730732,0.35347,-9.94066,5007,0,0,1,1
200321730,-0.0045466637,0.0022694964,0.0035072055,4994,0,-0.078581735,0.29880804,-9.660643,4994,0,0,1,1
200326729,-0.0052013155,0.00021291793,0.005396255,4999,0,-0.16945867,0.30449784,-10.004947,4999,0,0,1,1
200331734,-0.0035700912,0.004276943,0.0085424315,5005,0,-0.0780471,0.28973073,-9.746782,5005,0,0,1,1
200336733,-0.0062773162,-0.0004847862,0.009700131,4999,0,-0.07953717,0.3605745,-9.955901,4999,0,0,1,1
200341730,-0.0051229605,0.0031510019,0.008325351,4997,0,-0.06387176,0.2832078,-9.617333,4997,0,0,1,1
200346730,-0.006216599,-0.0023410972,0.0071513997,5000,0,-0.15134707,0.27217278,-9.945879,5000,0,0,1,1
200351730,-0.0055960473,-0.0023757012,0.003456979,5000,0,-0.016884118,0.36816666,-9.828451,5000,0,0,1,1
200356730,-0.0058729053,-0.003602414,0.0004393208,5000,0,0.034434497,0.47767758,-9.805874,5000,0,0,1,1
200371729,-0.0025661476,-0.002406203,-0.0048820795,4999,0,-0.11935305,0.34879932,-9.749648,4999,0,0,1,1
200376730,-0.0046533206,-0.0030127638,-0.007634157,5001,0,0.015534737,0.37087098,-9.830813,5001,0,0,1,1
200381730,-0.0042299125,-0.0036846076,-0.006816537,5000,0,-0.07640268,0.30620706,-9.817377,5000,0,0,1,1
200386733,-0.005039756,-0.0027975005,-0.0028977536,5003,0,-0.1695972,0.06456933,-9.7915125,5003,0,0,1,1
200391729,-0.006461633,-0.004098867,-0.0010030197,4996,0,-0.20338342,0.57652444,-9.867657,4996,0,0,1,1
200396730,-0.0055170343,0.0017768317,0.0025102252,5001,0,-0.17657995,0.1971721,-9.881627,5001,0,0,1,1
200401729,0.0002810657,-0.0004653959,0.0064635305,4999,0,-0.2309944,0.24480405,-9.735952,4999,0,0,1,1
200406729,-0.0019715875,0.0008536485,0.007885373,5000,0,-0.0638652,0.34839353,-9.799965,5000,0,0,1,1
200411730,-0.0019949935,0.0031420116,0.010325087,5001,0,-0.100110985,0.524041,-9.871981,5001,0,0,1,1
200416730,-0.006584329,0.00533066,0.009667103,5000,0,-0.18178108,0.2767939,-9.758447,5000,0,0,1,1
200421730,-0.005424135,0.0017870968,0.006208307,5000,0,0.019173399,0.066754356,-9.840735,5000,0,0,1,1
200426730,-0.010637416,-4.5836317e-05,0.0056102388,5000,0,-0.2524857,0.11300553,-9.67707,5000,0,0,1,1
200431730,-0.008243099,-0.000767701,7.981358e-05,5000,0,0.20919032,0.8088097,-9.973813,5000,0,0,1,1
200436731,-0.002568544,-0.0029464732,-0.00612459,5001,0,-0.03994129,0.6187777,-9.830352,5001,0,0,1,1
200441730,-0.0005412735,-0.003367785,-0.0063467543,4999,0,0.048931696,-0.18900274,-9.829041,4999,0,0,1,1
200446730,-0.0010965456,-0.0037051537,-0.0074490597,5000,0,-0.0975663,0.55339265,-9.791378,5000,0,0,1,1
200451731,-0.0019505816,-0.0030105745,-0.008180363,5001,0,0.042166732,0.51751196,-9.839212,5001,0,0,1,1
200456730,-0.007966533,-0.0024049054,-0.006804374,4999,0,-0.058847375,0.016967485,-9.724777,4999,0,0,1,1
200461729,-0.008992016,-0.0010436196,-0.0057623712,4999,0,-0.11037966,0.14828095,-9.846959,4999,0,0,1,1
200466730,-0.0042508775,0.0003509856,0.00056790595,5001,0,-0.46418512,-0.1074259,-9.828358,5001,0,0,1,1
200471730,-0.004922438,0.0006960126,0.006185309,5000,0,-0.34901202,0.34615904,-9.934267,5000,0,0,1,1
200476729,-0.003015889,-0.0015919309,0.01076646,4999,0,-0.01656814,0.8833941,-9.781106,4999,0,0,1,1
200481729,-0.0018044543,0.0017600312,0.010290765,5000,0,0.18231663,0.5536622,-9.649227,5000,0,0,1,1
200486730,-0.008466747,-0.004145828,0.012761525,5001,0,-0.16731961,-0.26549822,-9.972259,5001,0,0,1,1
200491730,-0.006674557,-0.0015281865,0.012316338,5000,0,-0.091636114,0.8718996,-9.871914,5000,0,0,1,1
200496753,-0.0012197252,-0.003928053,0.0033393234,5023,0,-0.058631066,0.24482068,-9.854315,5023,0,0,1,1
200501730,-0.0062584,-0.0028077029,0.0030479832,4977,0,-0.014445998,0.10637866,-9.676141,4977,0,0,1,1
200506730,-0.0051637287,-0.0022361237,-0.0049631037,5000,0,-0.13273226,0.32089555,-10.05524,5000,0,0,1,1
200511730,-0.009949399,0.0015010484,-0.007481811,5000,0,0.06935948,0.26941484,-9.644071,5000,0,0,1,1
200516732,-0.0048428965,0.00057527045,-0.012700751,5002,0,-0.25465265,0.7122506,-9.895017,5002,0,0,1,1
200521729,-0.004832611,0.0056185443,-0.00969335,4997,0,-0.15565681,0.003404256,-9.752311,4997,0,0,1,1
200526730,-0.0003713565,0.00047521738,-0.008389041,5001,0,0.058623552,0.38951927,-9.863668,5001,0,0,1,1
200531729,-0.0013679545,-0.0003182512,-0.0036963888,4999,0,-0.37115172,0.2619864,-9.961399,4999,0,0,1,1
200536729,-0.00993978,0.0033876123,0.0061634746,5000,0,0.22200958,0.15838873,-9.666443,5000,0,0,1,1
200541729,-0.004876294,-0.0050485707,0.0033260079,5000,0,-0.082121044,0.36910954,-9.942004,5000,0,0,1,1
200546730,-0.0029774131,-0.0027100532,0.008847399,5001,0,-0.27652788,0.39140433,-9.739587,5001,0,0,1,1
200551729,-0.0043564113,-0.0056241862,0.007347477,4999,0,0.045016706,0.32704422,-9.751016,4999,0,0,1,1
200556730,-0.0034915293,-0.0074821142,0.010194993,5001,0,-0.03602623,-0.0848653,-9.855854,5001,0,0,1,1
200561729,-0.009146858,-0.0033105111,0.007903414,4999,0,-0.23669226,0.8776905,-9.791378,4999,0,0,1,1
200566730,-0.008306639,-0.0009002999,0.0033115344,5001,0,-0.010991685,0.31836295,-9.900773,5001,0,0,1,1
200571730,-0.002896998,0.0012426844,0.00024077353,5000,0,-0.23218088,0.4194627,-9.759411,5000,0,0,1,1
200576730,-0.007248405,0.0021047993,-6.099511e-05,5000,0,0.06839086,-0.04060754,-9.669961,5000,0,0,1,1
200581730,-0.008297233,0.0045591258,0.0012061204,5000,0,0.009597487,0.37791318,-9.9634,5000,0,0,1,1
200586730,-0.00560907,-0.005179137,-0.004867925,5000,0,-0.06870864,0.35566655,-9.744504,5000,0,0,1,1
200591729,-0.0010044632,0.0030759387,-0.0031905656,4999,0,-0.09047492,0.2529479,-9.911996,4999,0,0,1,1
200596730,2.1730551e-05,-0.0107925525,-0.008036361,5001,0,0.025599414,0.25491992,-9.744335,5001,0,0,1,1
200601729,-0.0013950849,-0.003254769,-0.004341124,4999,0,-0.42693776,0.33225328,-9.920191,4999,0,0,1,1
200606729,-0.0053671678,-0.0024012015,-0.00615572,5000,0,0.10233037,0.13574816,-9.764618,5000,0,0,1,1
200611729,-0.0029216055,0.0013995502,-0.0026627772,5000,0,-0.35452932,0.69153017,-9.800204,5000,0,0,1,1
200616729,-0.0029356265,0.0037207282,0.0030418097,5000,0,0.010759506,0.5067884,-9.8162985,5000,0,0,1,1
200621730,-0.008629248,0.0021254781,0.003792518,5001,0,-0.085826576,0.065955535,-9.938445,5001,0,0,1,1
200626730,-0.0056158034,0.0010793286,0.009637241,5000,0,-0.0030436441,-0.014479161,-9.685989,5000,0,0,1,1
200631730,-0.0097329775,0.00519389,0.011777969,5000,0,-0.0716937,0.65228987,-9.80157,5000,0,0,1,1
200636730,-0.0047049,-0.0015156142,0.009232885,5000,0,-0.31623495,0.6805646,-9.88364,5000,0,0,1,1
200641730,-0.0034744244,-0.0043998337,0.008352609,5000,0,0.12415617,0.42300746,-9.871668,5000,0,0,1,1
200646730,0.001968687,-0.006648285,0.0016760072,5000,0,0.06886503,0.026803484,-9.787783,5000,0,0,1,1
200651729,-0.006357396,-0.005558548,-0.0014840242,4999,0,-0.18269591,-0.044831112,-9.923954,4999,0,0,1,1
200656732,-0.011235818,-0.0051903264,-0.008040037,5003,0,0.05875531,0.26511604,-9.760975,5003,0,0,1,1
200661730,-0.005224298,-0.00021230405,-0.009490601,4998,0,-0.29678398,0.4299997,-9.691628,4998,0,0,1,1
200666730,-0.0049335267,0.0038577463,-0.0072593326,5000,0,0.13239838,0.6217687,-9.874197,5000,0,0,1,1
200671729,-0.003928945,-0.0022365833,-0.0037226246,4999,0,-0.36340085,0.2011243,-9.694032,4999,0,0,1,1
200676729,-0.005757492,0.0047373273,0.002829053,5000,0,0.032065276,0.53806466,-10.018433,5000,0,0,1,1
200681730,-0.0010859277,0.0020441485,0.0015088455,5001,0,-0.05223511,0.17074111,-9.657204,5001,0,0,1,1
200686730,-0.001041118,-0.0034739093,0.0025248204,5000,0,-0.06855011,0.05346955,-10.007586,5000,0,0,1,1
200691729,0.0007604528,-0.004527947,0.0049519893,4999,0,0.0661143,0.32371572,-9.728064,4999,0,0,1,1
200696763,-0.0061897608,-0.0024123876,0.0037042086,5034,0,-0.2956444,0.3270003,-9.753013,5034,0,0,1,1
200701729,-0.00963507,-0.005182961,0.00013214714,4966,0,-0.31922135,0.47294256,-9.950695,4966,0,0,1,1
200706729,-0.0066519007,0.00069559657,0.0035294222,5000,0,0.008230817,0.28257456,-9.641355,5000,0,0,1,1
200711730,-0.008784331,0.0008871433,0.0038402868,5001,0,-0.03526502,0.23916996,-9.953184,5001,0,0,1,1
200716772,-0.010615266,0.0038515993,0.0077905823,5042,0,-0.08642442,0.5116646,-9.752765,5042,0,0,1,1
200721730,-0.0029933974,0.00039546713,0.008105208,4958,0,0.017357387,0.21412109,-9.987449,4958,0,0,1,1
200726730,-0.004086349,0.00013741579,-0.00032865562,5000,0,0.13120703,0.521178,-9.692202,5000,0,0,1,1
200731731,0.00012432877,-0.002289916,9.074443e-06,5001,0,-0.17186604,0.31387973,-9.844144,5001,0,0,1,1
200736731,0.0022295788,0.00013354787,-0.005332501,5000,0,-0.08714706,0.038402937,-9.862356,5000,0,0,1,1
200741730,-0.00561595,-0.008392515,-0.008096703,4999,0,-0.08505593,0.289138,-9.797446,4999,0,0,1,1
200746730,-0.00505273,-0.00023622095,-0.008112755,5000,0,-0.29903734,0.44550687,-9.719176,5000,0,0,1,1
200751730,-0.00909872,-0.0034866617,-0.0056273546,5000,0,-0.02367568,0.28129566,-9.924597,5000,0,0,1,1
200756733,-0.008939756,-0.0010085262,-0.002493454,5003,0,0.011032917,0.43110055,-9.756412,5003,0,0,1,1
200761729,-0.00086071156,-0.0027894147,0.0064905677,4996,0,-0.11305625,0.17370637,-9.833615,4996,0,0,1,1
200766730,-0.009424916,-0.00069488963,0.009923275,5001,0,0.13496612,0.433482,-9.87022,5001,0,0,1,1
200771731,-0.0018717796,-0.002323658,0.01043575,5001,0,-0.26687613,0.30682483,-9.867856,5001,0,0,1,1
200776733,0.00038247183,0.0014219807,0.008348786,5002,0,-0.19919322,0.3036988,-9.793004,5002,0,0,1,1
200781730,-0.0048046364,-0.002419746,0.0067774234,4997,0,-0.17298232,0.23235951,-9.765624,4997,0,0,1,1
200786730,-0.009372337,-0.0005577981,0.0020975093,5000,0,-0.1372447,0.29673192,-9.75375,5000,0,0,1,1
200791729,-0.006524655,9.404495e-06,-0.0034836503,4999,0,-0.1487557,0.5021605,-9.795826,4999,0,0,1,1
200796731,-0.007868437,0.0018752516,-0.0024702102,5002,0,0.26309544,0.32751086,-9.800709,5002,0,0,1,1
200801730,-0.004508091,-0.004109104,0.0014524298,4999,0,-0.12409249,-0.08274309,-9.806998,4999,0,0,1,1
200806730,-0.006519592,-0.0016051927,0.000682925,5000,0,-0.012037954,0.5227681,-9.931014,5000,0,0,1,1
200811731,-0.0030503962,-0.0011399225,-0.0015108021,5001,0,-0.15055478,0.43722737,-9.637596,5001,0,0,1,1
200816730,0.0046623284,0.0033271164,-0.0017749843,4999,0,-0.12313234,0.13042952,-9.945472,4999,0,0,1,1
200821729,-0.0014383431,-0.0041525587,-0.0029702657,4999,0,-0.122068964,0.41856965,-9.84803,4999,0,0,1,1
200826729,-0.004932223,0.00043547843,-0.002455004,5000,0,-0.3091,0.3361099,-9.893112,5000,0,0,1,1
200831730,-0.0074857906,-0.0023998641,-0.004523229,5001,0,-0.18548076,0.2053091,-9.759506,5001,0,0,1,1
200836732,-0.0060156817,0.00039300826,-0.00086632185,5002,0,0.055717345,0.2251423,-9.893796,5002,0,0,1,1
200841730,-0.0065940768,-0.0028087446,0.002473937,4998,0,-0.1400764,0.26537812,-9.742746,4998,0,0,1,1
200846730,-0.012549121,-0.0025948794,0.006913865,5000,0,-0.1222464,0.40911096,-10.034696,5000,0,0,1,1
200851730,-0.000675275,-0.0047282814,0.011261557,5000,0,0.027655015,0.30849293,-9.622776,5000,0,0,1,1
200856731,-0.004882034,0.0006917108,0.0077346186,5001,0,-0.17860359,0.595906,-9.970874,5001,0,0,1,1
200861730,-0.0029109158,-0.0026385202,0.005205856,4999,0,-0.0588076,0.23277144,-9.754019,4999,0,0,1,1
200866730,-0.0003504371,-0.001115571,0.0019022541,5000,0,-0.007390596,0.13306521,-9.8771515,5000,0,0,1,1
200871730,-0.0014081158,0.0007503534,-0.003182425,5000,0,-0.15610804,0.51311755,-9.6185255,5000,0,0,1,1
200876732,-0.013183994,0.0014779603,-0.0054319086,5002,0,-0.043250866,0.15288761,-9.939384,5002,0,0,1,1
200881730,-0.004426443,-0.000481793,-0.004781059,4998,0,-0.05944573,0.37604606,-9.822951,4998,0,0,1,1
200886730,-0.0057011433,-0.004050667,-0.0027913388,5000,0,0.02117289,0.27979577,-9.744722,5000,0,0,1,1
200891729,-0.004438827,0.00035024376,-0.0008721686,4999,0,-0.09207828,0.30404562,-9.756623,4999,0,0,1,1
200896729,-0.0041258372,-0.0020539826,-0.000937366,5000,0,-0.39480156,0.30651283,-9.975554,5000,0,0,1,1
200901729,-0.0016171793,-0.0026747994,0.0037538765,5000,0,0.23823053,0.30814296,-9.857741,5000,0,0,1,1
200906730,-0.00025743898,-0.0009483503,-0.0003240374,5001,0,-0.3012352,0.40945277,-9.574971,5001,0,0,1,1
200911729,-0.0035014423,-0.0025587082,0.0029489435,4999,0,-0.12014256,0.37797955,-10.124652,4999,0,0,1,1
200916729,-0.006753054,-0.00026868365,0.003595815,5000,0,-0.13807248,0.23525605,-9.565706,5000,0,0,1,1
200921730,-0.006414526,0.0027089438,0.0028103224,5001,0,-0.09103589,0.3127889,-9.982745,5001,0,0,1,1
200926730,-0.011516398,-0.0010161076,0.006445593,5000,0,-0.004358977,0.4536878,-9.644918,5000,0,0,1,1
200931731,-0.0032280723,0.000193062,0.0052327346,5001,0,0.070125,0.2979015,-9.98493,5001,0,0,1,1
200936732,-0.010309882,-0.0066131465,0.005653081,5001,0,-0.32724398,0.1493552,-9.5833845,5001,0,0,1,1
200941729,-0.002178058,-0.0011530737,0.0017024521,4997,0,0.14285433,0.30096066,-10.014627,4997,0,0,1,1
200946730,-0.000880057,-0.0026511112,0.0023534417,5001,0,-0.1483596,0.38438237,-9.639793,5001,0,0,1,1
200951729,-0.0020070337,-0.0037008845,-0.0040709185,4999,0,-0.26988056,0.299604,-10.03246,4999,0,0,1,1
200956730,0.00044645183,-0.0043957727,-0.004965873,5001,0,-0.11419803,0.17745595,-9.688156,5001,0,0,1,1
200961729,-0.004762916,0.00424796,-0.0040318677,4999,0,0.01882378,0.5199011,-9.780046,4999,0,0,1,1
200966730,-0.007993976,-0.0014537532,-0.008289394,5001,0,-0.26874924,0.27128607,-9.85926,5001,0,0,1,1
200971729,-0.009177424,-0.00011156721,0.0014934567,4999,0,0.22478047,0.3111859,-9.899198,4999,0,0,1,1
200976730,-0.00047885627,-0.0040634163,0.0020335761,5001,0,-0.345054,0.14162092,-9.647734,5001,0,0,1,1
200981729,-0.010322413,0.0006149007,0.0029887222,4999,0,-0.02255933,0.54275495,-9.869146,4999,0,0,1,1
200986730,-0.0042876126,0.0027997,0.0022921078,5001,0,-0.26516563,0.24012116,-9.942607,5001,0,0,1,1
200991731,-0.0012114114,-0.0069122505,0.0061718784,5001,0,-0.062238358,0.36560854,-9.8118305,5001,0,0,1,1
200996731,-0.00052059535,0.002197959,0.0012174516,5000,0,-0.09181881,0.46778396,-9.576243,5000,0,0,1,1
201001730,-0.007007694,0.0020610678,0.0012516613,4999,0,-0.041015316,0.12019967,-10.044614,4999,0,0,1,1
201006729,-0.0063771913,-0.0039850012,0.003438863,4999,0,0.063957736,0.12487259,-9.655203,4999,0,0,1,1
201011729,-0.011619708,-0.0032706684,0.0017900233,5000,0,-0.37731385,0.42247456,-10.115526,5000,0,0,1,1
201016769,-0.0067030354,-0.0013574868,0.0015265925,5040,0,-0.17624873,0.26420188,-9.8362875,5040,0,0,1,1
201021729,-0.004681412,0.0011180653,0.0018909684,4960,0,-0.12201718,0.38689557,-9.955862,4960,0,0,1,1
201026729,-0.004871774,-0.0021810739,-0.00029840966,5000,0,-0.05288383,0.47913757,-9.714563,5000,0,0,1,1
201031739,-0.003402831,-0.00094265834,-0.000296823,5010,0,-0.057733953,0.09050219,-9.785318,5010,0,0,1,1
201036730,0.001783838,-0.0016072529,-0.003715978,4991,0,-0.06840421,0.59000707,-9.916724,4991,0,0,1,1
201041729,-0.0005734433,-0.00466752,-0.005455729,4999,0,-0.1944283,0.29652008,-9.681779,4999,0,0,1,1
201046729,-0.005735512,-0.00027942163,-0.0057445145,5000,0,-0.091588214,0.071048185,-9.878693,5000,0,0,1,1
201051730,-0.0062250886,0.00021724877,-0.0007389743,5001,0,-0.0039936267,0.39902666,-9.764395,5001,0,0,1,1
201056729,-0.008761449,-0.005234985,0.0020669145,4999,0,-0.14468789,0.3285505,-9.95341,4999,0,0,1,1
201061729,-0.0048553087,-0.002171833,0.003633586,5000,0,-0.265988,0.23556961,-9.587021,5000,0,0,1,1
201066729,-0.012164282,0.00034470842,0.0073029688,5000,0,0.109931104,0.30212092,-10.032934,5000,0,0,1,1
201071729,-0.0014279038,0.0016600909,0.0056368047,5000,0,-0.21243715,0.64490145,-9.656365,5000,0,0,1,1
201076731,-0.0024240948,-0.0017645428,0.0050464603,5002,0,-0.16567458,0.14567293,-9.991829,5002,0,0,1,1
201081729,0.00045468658,-0.0021536895,0.004156465,4998,0,-0.16345738,0.3227693,-9.751657,4998,0,0,1,1
201086729,-0.004661006,-0.00058398774,0.0006664273,5000,0,0.051658303,0.2680173,-9.811903,5000,0,0,1,1
201091729,-0.0075168754,-0.00050183444,-0.0032692747,5000,0,-0.38629663,0.23844063,-9.806089,5000,0,0,1,1
201096729,-0.005941008,-0.0020481197,-0.002339923,5000,0,0.50173104,0.52077156,-9.870926,5000,0,0,1,1
201101729,-0.00693097,-0.0047849347,0.0006229147,5000,0,-0.24752726,-0.019601695,-9.68705,5000,0,0,1,1
201106729,-0.0048546777,3.6328565e-06,0.000206491,5000,0,-0.09959597,0.4270897,-9.821052,5000,0,0,1,1
201111729,-0.0077222213,0.00086943584,0.0019158435,5000,0,-0.02987638,0.17607683,-9.86145,5000,0,0,1,1
201116729,0.0031977918,0.002907068,-0.00031757136,5000,0,-0.12780438,0.70166683,-9.74222,5000,0,0,1,1
201121729,-0.006123048,-0.0035742351,-0.00017736776,5000,0,-0.3785796,0.23842281,-9.970119,5000,0,0,1,1
201126729,0.0047883145,0.00094662444,-0.0023586175,5000,0,0.10913494,0.2821996,-9.697976,5000,0,0,1,1
201131729,-0.0076483637,-0.0018085073,-0.0028213265,5000,0,-0.06016817,0.28949332,-9.808519,5000,0,0,1,1
201136729,-0.009313948,-0.0017410384,0.00015635797,5000,0,-0.21029788,0.32204553,-9.921381,5000,0,0,1,1
201141729,-0.005134411,-0.00437799,0.0026786993,5000,0,0.08184384,0.2883712,-9.87708,5000,0,0,1,1
201146729,-0.006792498,-0.0017358705,0.0047086524,5000,0,-0.16404814,0.3115369,-9.620436,5000,0,0,1,1
201151729,-0.008811114,-0.0021367546,0.006449144,5000,0,0.016039569,0.23643892,-9.891495,5000,0,0,1,1
201156729,-0.005443115,0.0003949989,0.0052052243,5000,0,-0.34533328,0.45986125,-9.858425,5000,0,0,1,1
201161729,-0.0013727089,-0.0014188096,0.005338142,5000,0,0.17938888,0.46864706,-9.843337,5000,0,0,1,1
201166729,0.005001384,0.00069128413,-0.0030735587,5000,0,-0.19490394,0.2406888,-9.565826,5000,0,0,1,1
201171729,-0.0057641473,-0.0018954953,-4.843871e-05,5000,0,-0.09871262,0.1447565,-10.143652,5000,0,0,1,1
201176729,-0.006706397,-0.0037461927,-0.0045147114,5000,0,-0.12663108,0.5171627,-9.597633,5000,0,0,1,1
201181729,-0.00346433,-0.000771056,-0.0035403315,5000,0,0.14005235,0.2552364,-9.910605,5000,0,0,1,1
201186729,-0.007575236,-0.0055440543,-0.001794883,5000,0,-0.33460376,0.417607,-9.851263,5000,0,0,1,1
201191729,-0.00715891,-0.00028109748,-0.00013474109,5000,0,0.17748097,0.055404175,-9.7976885,5000,0,0,1,1
201196729,-0.012655698,-0.0016501555,0.0031632888,5000,0,-0.3841503,0.50171477,-9.72883,5000,0,0,1,1
201201729,-0.0010659546,0.0020929324,0.0022543785,5000,0,-0.001329504,0.45658728,-9.890013,5000,0,0,1,1
201206729,0.0019989526,0.0023140658,0.003162174,5000,0,-0.07760108,0.28764248,-9.919575,5000,0,0,1,1
201211730,0.0002579959,-0.0030713277,0.0020483625,5001,0,-0.15616204,0.14378901,-9.756359,5001,0,0,1,1
201216729,-0.006404883,-0.0018837462,0.00096333894,4999,0,-0.19004518,0.11558658,-9.854887,4999,0,0,1,1
201221728,-0.005153509,0.0019522844,0.0008203752,4999,0,0.28114015,0.6590346,-9.807731,4999,0,0,1,1
201226730,-0.006432005,-0.008547397,-0.0017066031,5002,0,-0.28622964,0.12530507,-9.819349,5002,0,0,1,1
201231729,-0.0069315117,0.0014594111,0.003188703,4999,0,-0.009627111,0.23134114,-9.731923,4999,0,0,1,1
201236730,-0.008678051,-0.0029805575,0.0050982125,5001,0,-0.10538475,0.2578904,-9.900818,5001,0,0,1,1
201241729,-0.0046209972,0.001541007,0.003505527,4999,0,-0.037622012,0.66396856,-9.746323,4999,0,0,1,1
201246729,-0.0018992526,0.0031702563,-0.00026373606,5000,0,-0.094749495,0.2913847,-9.773555,5000,0,0,1,1
201251730,0.002204088,0.00036346086,0.00024409496,5001,0,-0.030019388,0.34684187,-9.749246,5001,0,0,1,1
201256729,-0.002461644,-0.0006265605,-0.006325171,4999,0,0.062255125,0.36747825,-9.786998,4999,0,0,1,1
201261730,-0.008453472,-0.00023621815,-0.003196506,5001,0,-0.23911017,0.17430715,-9.947003,5001,0,0,1,1
201266729,-0.0033142213,-0.0051507703,0.0014794272,4999,0,0.22479668,0.20989428,-9.660601,4999,0,0,1,1
201271729,-0.0069371983,-0.002285826,-0.0018564202,5000,0,-0.20570353,0.3799026,-9.996464,5000,0,0,1,1
201276729,-0.007831316,-0.0040257373,0.005192382,5000,0,-0.06658615,0.11680584,-9.669776,5000,0,0,1,1
201281729,-0.008955453,0.002480371,0.0029222288,5000,0,-0.26416504,0.48749208,-9.794751,5000,0,0,1,1
201286729,-0.005674125,0.0015843932,0.004497414,5000,0,-0.057532378,0.47435206,-9.804379,5000,0,0,1,1
201291729,-0.001107459,-0.00010038604,0.0050848993,5000,0,-0.09330475,0.1957702,-9.861923,5000,0,0,1,1
201296729,-0.0012254734,-0.0011802083,0.001537275,5000,0,-0.20706984,0.43040594,-9.864586,5000,0,0,1,1
201301729,-0.006335583,-0.0032038635,-0.00060938986,5000,0,-0.011632845,0.26052925,-9.727013,5000,0,0,1,1
201306731,-0.005734524,-0.00025781657,-0.00243441,5002,0,0.0105349,0.3072174,-9.9264,5002,0,0,1,1
201311730,-0.0010792344,-0.0054368894,0.0010087342,4999,0,-0.22836883,0.2900483,-9.866078,4999,0,0,1,1
201316729,-0.008260319,-0.0008368784,-0.0015745218,4999,0,0.1852332,0.5233815,-9.838109,4999,0,0,1,1
201321729,-0.011010721,0.0012509176,-0.00045376422,5000,0,-0.341575,0.013903723,-9.546656,5000,0,0,1,1
201326729,-0.008406296,0.0025399844,0.0029523324,5000,0,-0.08500781,0.49658433,-10.080192,5000,0,0,1,1
201331729,0.00040716492,0.0025177717,0.0012235788,5000,0,-0.05313864,0.43682107,-9.602851,5000,0,0,1,1
201336730,9.709877e-05,0.0017001253,-0.0007281233,5001,0,-0.1540244,0.21153541,-10.040376,5001,0,0,1,1
201341729,-0.003434173,-0.0024864222,-0.0016813026,4999,0,-0.24259298,0.20275204,-9.707322,4999,0,0,1,1
201346729,-0.0061129117,-0.00041102798,-0.0022675032,5000,0,0.16056573,0.39924645,-9.888929,5000,0,0,1,1
201351730,-0.0039309105,-0.0032597913,-0.0006083696,5001,0,-0.24812993,0.29746974,-9.6754055,5001,0,0,1,1
201356729,-0.006414215,-0.004510691,-0.001269876,4999,0,0.17093235,0.33080924,-9.934437,4999,0,0,1,1
201361729,-0.0054097376,-0.0008039927,0.0050620316,5000,0,-0.106980346,0.07514331,-9.598971,5000,0,0,1,1
201366729,-0.012680085,-0.0013659182,0.004364253,5000,0,-0.35634235,0.38745758,-9.965602,5000,0,0,1,1
201371729,-0.0040383963,0.002677037,0.0068025887,5000,0,-0.010950185,0.35598868,-9.836913,5000,0,0,1,1
201376729,0.004178281,0.001710716,0.0046024057,5000,0,-0.12327272,0.5532721,-9.748006,5000,0,0,1,1
201381729,-0.0043480983,-0.0023952124,-0.00065450737,5000,0,-0.14919764,0.08256,-9.8786335,5000,0,0,1,1
201386729,-0.007844679,-0.0022428676,0.00096951396,5000,0,0.022045705,0.41428372,-9.796317,5000,0,0,1,1
201391730,-0.00043365266,-0.0033054813,-0.0049540806,5001,0,-0.001825411,0.49468318,-9.851079,5001,0,0,1,1
201396729,-0.006431304,-0.0061567416,-0.0025131698,4999,0,-0.06977281,0.20554054,-9.759885,4999,0,0,1,1
201401729,-0.0062991465,-0.0011689344,0.00092168595,5000,0,-0.14050828,0.08643527,-9.916575,5000,0,0,1,1
201406729,-0.01210662,0.0010479537,0.00227537,5000,0,-0.2088022,0.25470468,-9.635709,5000,0,0,1,1
201411729,-0.009799704,0.0009617818,0.0009371509,5000,0,-0.13137244,0.48413825,-9.910915,5000,0,0,1,1
201416729,0.0020379694,0.006817742,0.002320564,5000,0,-0.09437282,0.33123603,-9.778051,5000,0,0,1,1
201421729,-0.0012026299,-0.0037184923,0.0030899043,5000,0,-0.086691886,0.311616,-9.891378,5000,0,0,1,1
201426729,-0.00070683466,0.0013846299,-0.0005377159,5000,0,-0.19617382,0.08836286,-9.706409,5000,0,0,1,1
201431729,-0.004069611,-0.003858575,0.0010330918,5000,0,0.13483427,0.48001018,-9.962206,5000,0,0,1,1
201436729,-0.00046064798,-0.004212812,-0.0011782148,5000,0,-0.31668994,0.5226822,-9.790713,5000,0,0,1,1
201441729,-0.0053645587,-0.0028889864,-0.00016768032,5000,0,0.110383,0.08696531,-9.833801,5000,0,0,1,1
201446729,-0.01024612,-0.0010255605,0.0043056556,5000,0,-0.22863643,0.16621117,-9.716303,5000,0,0,1,1
201451729,-0.011311383,0.000995567,0.0019537776,5000,0,-0.0031845903,0.7081367,-9.873193,5000,0,0,1,1
201456729,-0.004757965,0.001480215,0.0075971154,5000,0,-0.23528032,0.3181066,-9.790974,5000,0,0,1,1
201461729,-0.0003776392,-0.0007078795,0.0022415575,5000,0,-0.04546033,0.2167977,-9.772915,5000,0,0,1,1
201466729,-0.0028538879,0.00028342352,0.002392901,5000,0,-0.104206264,0.38317773,-9.94925,5000,0,0,1,1
201471728,-0.0029855072,-0.002563509,-0.0044836276,4999,0,0.05543078,0.38969857,-9.81851,4999,0,0,1,1
201476729,-0.0011988776,-0.008329054,-0.004333344,5001,0,-0.2357356,0.13404316,-9.773446,5001,0,0,1,1
201481729,-0.0024373122,-0.0012574915,-0.0010736525,5000,0,0.0647456,0.13867289,-9.880293,5000,0,0,1,1
201486729,-0.0074729,-0.005159926,-0.0020148559,5000,0,-0.09009248,0.31885433,-9.805715,5000,0,0,1,1
201491729,-0.014567953,0.0004543348,0.00214964,5000,0,-0.33616075,0.22781838,-9.688913,5000,0,0,1,1
201496729,-0.005922143,0.002979575,0.0045296256,5000,0,-0.043801807,0.54447216,-9.920125,5000,0,0,1,1
201501729,-0.002866677,0.00011982271,0.004989616,5000,0,-0.07366584,0.30234098,-9.7569,5000,0,0,1,1
201506729,-0.0049008094,0.0060632117,0.0017326565,5000,0,-0.4448514,0.37594256,-9.993585,5000,0,0,1,1
201511730,0.00115787,-0.0016045689,-0.00011805289,5001,0,0.5668515,0.3121571,-9.634894,5001,0,0,1,1
201516729,-0.004916548,-0.003461005,-0.0021219302,4999,0,-0.35416698,0.4208531,-9.884344,4999,0,0,1,1
201521729,0.00086515164,-0.0046225903,-0.0021863282,5000,0,-0.17777732,0.039215244,-9.885152,5000,0,0,1,1
201526729,-0.008045511,-0.000696159,0.0007520456,5000,0,0.045908853,0.33743984,-9.687864,5000,0,0,1,1
201531731,-0.007241627,-0.0012522794,0.0004063852,5002,0,-0.2524646,0.21388264,-9.770888,5002,0,0,1,1
201536731,-0.012702435,0.0005539097,0.0047662007,5000,0,-0.17944607,0.2858405,-9.951248,5000,0,0,1,1
201541729,-0.0035605931,0.003344964,0.003257153,4998,0,0.057587057,0.4669082,-9.71065,4998,0,0,1,1
201546729,-0.002097209,0.0034968245,0.001084409,5000,0,-0.20344949,0.4425544,-9.79458,5000,0,0,1,1
201551729,-0.0039863456,0.0018568118,-0.0003960112,5000,0,0.059155036,0.14160477,-9.882375,5000,0,0,1,1
201556730,-0.00033426099,-0.007172222,-0.0013475806,5001,0,-0.047208507,0.62176204,-9.8244505,5001,0,0,1,1
201561729,0.00042212848,-0.00384173,-0.0030199673,4999,0,-0.23485284,0.24122739,-9.739298,4999,0,0,1,1
201566731,-0.0030503953,-0.0040053977,-0.0029600102,5002,0,0.1742962,0.12978502,-9.931747,5002,0,0,1,1
201571732,-0.0054414514,-0.0026595432,0.0010262438,5001,0,-0.25851426,0.2242492,-9.719361,5001,0,0,1,1
201576729,-0.015150346,-0.00053500844,0.005162935,4997,0,0.0032784643,0.35718918,-9.757633,4997,0,0,1,1
201581729,-0.0070808562,0.004732761,0.0039891037,5000,0,-0.2672233,0.3152873,-9.721028,5000,0,0,1,1
201586730,-0.0044062855,0.001682813,0.0053109783,5001,0,-0.098289475,0.45897996,-10.043196,5001,0,0,1,1
201591728,-0.0046789646,0.002562345,0.0016158678,4998,0,0.048324957,0.41821134,-9.539971,4998,0,0,1,1
201596729,-0.00017513894,-0.0032538262,0.0035399792,5001,0,-0.25380605,0.10709849,-10.104522,5001,0,0,1,1
201601729,0.0018559787,-0.001069797,-0.0010904999,5000,0,0.14152937,0.7107712,-9.751407,5000,0,0,1,1
201606729,-0.004068155,-0.007887397,-0.0045321765,5000,0,-0.045721307,0.29042804,-9.996818,5000,0,0,1,1
201611729,-0.0017996347,0.00018331775,0.0006729677,5000,0,-0.22681376,0.018579394,-9.434007,5000,0,0,1,1
201616729,-0.012959585,0.0009098303,0.00011116501,5000,0,-0.04918634,0.31247047,-10.099422,5000,0,0,1,1
201621729,-0.011188249,-0.0015335128,0.0026388888,5000,0,-0.011517562,0.44822782,-9.667578,5000,0,0,1,1
201626730,-0.0070597776,3.5117613e-05,0.0006647678,5001,0,-0.34106192,0.36585084,-9.928644,5001,0,0,1,1
201631730,-0.0035904534,0.0064388514,0.0031803818,5000,0,-0.004640639,0.27155665,-9.695541,5000,0,0,1,1
201636729,0.000556197,0.00011723445,0.00329398,4999,0,0.040536042,0.38106233,-9.940234,4999,0,0,1,1
201641729,-0.004875476,-0.00807519,-0.002114502,5000,0,-0.19191228,0.40686393,-9.894158,5000,0,0,1,1
201646729,0.0003873473,-0.0038416004,0.0002911188,5000,0,0.09598099,0.1990673,-9.696783,5000,0,0,1,1
201651729,-0.0005847877,-0.0017643524,0.0003772727,5000,0,-0.15231094,0.43566138,-9.902604,5000,0,0,1,1
201656729,-0.005568005,-0.00658391,0.0026433538,5000,0,-0.07918915,-0.06370125,-9.770582,5000,0,0,1,1
201661729,-0.013880833,-0.0032944262,0.003513552,5000,0,-0.17314798,0.5558577,-9.76692,5000,0,0,1,1
201666729,-0.011549043,0.0040580146,0.001224542,5000,0,-0.30509058,0.40508142,-9.73265,5000,0,0,1,1
201671729,-0.007044864,-0.0006261259,0.004548151,5000,0,-0.099678874,0.36857095,-10.025114,5000,0,0,1,1
201676729,0.0007402664,0.003814707,0.0039568893,5000,0,-0.04769555,0.29144815,-9.718334,5000,0,0,1,1
201681729,-0.006433293,-0.0023605768,-0.0005233855,5000,0,0.19231531,0.39890003,-9.724284,5000,0,0,1,1
201686729,0.0012102928,-0.0069128377,-0.0028731294,5000,0,-0.3876005,0.19578607,-10.041227,5000,0,0,1,1
201691730,0.0033776192,-0.0012419368,-7.3388146e-05,5001,0,0.02911261,0.35551387,-9.698854,5001,0,0,1,1
201696729,-0.0055666626,-0.0016112655,-0.001762922,4999,0,-0.10970893,0.22974604,-9.77584,4999,0,0,1,1
201701729,-0.011415614,0.0010567264,-0.00044834573,5000,0,-0.18827459,0.3200075,-9.792111,5000,0,0,1,1
201706729,-0.008072102,-0.0013436049,0.0050476845,5000,0,-0.107485205,0.18495859,-9.911925,5000,0,0,1,1
201711729,-0.008352788,0.0046963245,0.0004148232,5000,0,-0.21987231,0.6457713,-9.523497,5000,0,0,1,1
201716729,-0.0077034025,0.007112337,0.0043722116,5000,0,0.08762647,0.12454428,-10.044603,5000,0,0,1,1
201721729,-0.0007154801,-0.0015631904,0.0003026116,5000,0,-0.14226155,0.45541915,-9.760602,5000,0,0,1,1
201726729,0.0008606729,-0.007791497,0.0009737325,5000,0,0.041315094,0.40265685,-9.908735,5000,0,0,1,1
201731728,0.00089479244,0.0008075629,-0.0007508047,4999,0,-0.14860463,0.27665293,-9.724961,4999,0,0,1,1
201736730,-0.003932764,-0.0076775206,-0.00014253712,5002,0,-0.04953462,0.19126293,-9.975868,5002,0,0,1,1
201741729,-0.004194768,-0.0037846137,0.0007014165,4999,0,-0.08877538,0.23411173,-9.569682,4999,0,0,1,1
201746729,-0.007956017,0.0005071734,0.0026550768,5000,0,0.14854303,0.11832288,-9.749492,5000,0,0,1,1
201751729,-0.012905573,3.8457423e-05,0.00326667,5000,0,-0.5789465,0.46499026,-9.9023695,5000,0,0,1,1
201756729,-0.0069779526,0.0027925104,0.003907073,5000,0,0.23934418,0.34074453,-9.947866,5000,0,0,1,1
201761729,-0.006847742,0.0007330085,0.0006213398,5000,0,-0.07489611,0.53063536,-9.582977,5000,0,0,1,1
201766729,0.0007380778,0.0006022026,0.0036201065,5000,0,-0.24160156,0.2191076,-10.048905,5000,0,0,1,1
201771729,0.003144676,-0.0056624203,-0.0031616364,5000,0,-0.008733645,0.646828,-9.768068,5000,0,0,1,1
201776729,-0.0030692015,-0.00450981,-0.0023995163,5000,0,0.021998182,0.19158673,-9.769768,5000,0,0,1,1
201781729,-0.0027206438,-0.0041135997,-0.00034397602,5000,0,-0.305465,0.090101376,-9.813551,5000,0,0,1,1
201786729,-0.008052507,0.0018725935,0.0009997457,5000,0,0.21255063,0.3870046,-9.872721,5000,0,0,1,1
201791729,-0.009398874,-0.004960893,0.0052651213,5000,0,-0.3992037,0.09412288,-9.663651,5000,0,0,1,1
201796729,-0.01122975,0.0045391237,0.0012663468,5000,0,-0.0542983,0.4793462,-9.948767,5000,0,0,1,1
201801729,-0.0069049196,0.0018578848,0.0031117627,5000,0,0.05246814,0.41394517,-9.722916,5000,0,0,1,1
201806729,-0.003153056,0.0035553677,-0.0011804204,5000,0,-0.0661698,0.48238602,-9.874873,5000,0,0,1,1
201811730,0.0024063261,-0.007209131,-0.00067913474,5001,0,0.04699508,0.16737017,-9.939413,5001,0,0,1,1
201816729,-0.0027922373,-0.0024458882,0.0012114593,4999,0,-0.1909748,0.6215597,-9.735953,4999,0,0,1,1
201821729,0.0024871705,-0.000915411,-0.0016366643,5000,0,-0.09027984,-0.08211778,-9.735533,5000,0,0,1,1
201826731,-0.009760701,-0.0027761832,0.0019473189,5002,0,0.022372672,0.38094583,-9.998051,5002,0,0,1,1
201831728,-0.0025178092,-0.0036251356,0.0015399489,4997,0,-0.2402623,0.21541741,-9.546854,4997,0,0,1,1
201836729,-0.015897732,0.002579302,0.0030278272,5001,0,-0.17880066,0.31073028,-9.914504,5001,0,0,1,1
201841729,-0.010902412,0.006945646,0.0019241823,5000,0,0.056130957,0.3375445,-9.821767,5000,0,0,1,1
201846729,5.630217e-05,0.00018979143,0.0035478473,5000,0,-0.13762644,0.40081358,-9.892503,5000,0,0,1,1
201851729,-0.003808966,-0.005305385,-0.00011793222,5000,0,0.040012218,0.5075146,-9.834924,5000,0,0,1,1
201856729,0.0030316575,-0.004447943,-0.00075872417,5000,0,-0.20455731,0.09548623,-9.871968,5000,0,0,1,1
201861729,0.002218276,-0.0008223569,-0.0004626902,5000,0,-0.046358146,0.25640488,-9.797427,5000,0,0,1,1
201866729,-0.004449482,-0.0083813425,0.00014660723,5000,0,-0.075754076,0.3775514,-9.823879,5000,0,0,1,1
201871728,-0.0067277094,-0.002826,0.003042466,4999,0,-0.12697747,0.23116913,-9.752227,4999,0,0,1,1
201876729,-0.008511256,0.002041302,0.00052839663,5001,0,-0.19990286,0.3011981,-9.730339,5001,0,0,1,1
201881729,-0.012599785,0.0026356762,0.004167784,5000,0,-0.14996237,0.24056616,-10.020473,5000,0,0,1,1
201886729,-0.006785338,0.0033172437,0.002881701,5000,0,0.123375304,0.32268128,-9.625801,5000,0,0,1,1
201891730,-0.001729806,-0.0003469318,0.00093909167,5001,0,-0.10837223,0.65995824,-9.915485,5001,0,0,1,1
201896729,0.0017120928,-0.001869022,0.00082742085,4999,0,-0.1140236,0.3181557,-9.6268015,4999,0,0,1,1
201901729,0.0018486613,-0.001610306,-0.0018475626,5000,0,0.010416016,0.03673876,-9.991337,5000,0,0,1,1
201906729,-0.0042391093,-0.0032824446,-0.0009095188,5000,0,-0.15385695,0.51226604,-9.561601,5000,0,0,1,1
201911730,-0.0034267923,0.0016092906,-0.0010275502,5001,0,0.037341837,0.37629497,-10.006824,5001,0,0,1,1
201916729,-0.006017683,-0.00406853,-0.0005329345,4999,0,-0.24515046,0.0526433,-9.754133,4999,0,0,1,1
201921729,-0.016541293,-0.00058089086,0.0026632005,5000,0,-0.020199671,0.25311285,-9.874172,5000,0,0,1,1
201926729,-0.008113956,0.010104133,0.0015233128,5000,0,-0.048321433,0.5416037,-9.560199,5000,0,0,1,1
201931729,-0.006145714,-0.0048731165,0.0020376465,5000,0,-0.09720957,0.307066,-10.220296,5000,0,0,1,1
201936730,0.005436953,-0.0013253435,0.0013400508,5001,0,-0.0032327177,0.46265855,-9.657297,5001,0,0,1,1
201941729,-0.0014937717,-0.0018328147,-0.000888459,4999,0,-0.07170512,0.32090092,-9.828646,4999,0,0,1,1
201946729,0.00022893025,0.001301321,8.5578344e-05,5000,0,0.01692238,0.29070163,-9.7946825,5000,0,0,1,1
201951729,-0.0027290955,-0.0048686727,-0.0006908338,5000,0,0.15555389,0.36783814,-9.997124,5000,0,0,1,1
201956729,-0.0022678382,-0.003925494,0.003520057,5000,0,-0.14407292,0.018690176,-9.65123,5000,0,0,1,1
201961729,-0.0142948385,-0.00016711796,0.0010001179,5000,0,-0.3901369,0.29098058,-9.783171,5000,0,0,1,1
201966729,-0.011110492,0.005837587,0.0020902008,5000,0,0.057268184,0.33359826,-9.986214,5000,0,0,1,1
201971730,-0.0064007184,-0.000396513,-0.00020515207,5001,0,-0.014410646,0.69321835,-9.605028,5001,0,0,1,1
201976729,-0.0064026024,-0.0006944852,-5.4226773e-05,4999,0,-0.27231055,0.33759007,-9.949055,4999,0,0,1,1
201981729,0.0048386445,0.00013553734,0.0022701449,5000,0,0.1840838,0.085898,-9.807912,5000,0,0,1,1
201986729,-0.0021923669,-0.0057146354,-0.0009746213,5000,0,-0.20983405,0.7108295,-9.9661875,5000,0,0,1,1
201991729,0.002031658,0.0010594717,-0.0015966103,5000,0,-0.068239465,0.021674858,-9.617918,5000,0,0,1,1
201996729,-0.0049297186,-0.0059903986,0.0008242871,5000,0,-0.11934282,0.3797353,-10.031405,5000,0,0,1,1
202001729,-0.0032402666,0.0016592512,0.0021891675,5000,0,-0.0881304,-0.047511347,-9.529608,5000,0,0,1,1
202006729,-0.013641736,-0.0005501174,0.0010174521,5000,0,-0.123980045,0.60866743,-10.067123,5000,0,0,1,1
202011729,-0.011088181,0.0058506923,0.0005948646,5000,0,-0.018478774,0.30047312,-9.604488,5000,0,0,1,1
202016729,-0.004212642,-0.004382899,0.002251186,5000,0,0.040240787,0.39698067,-9.957693,5000,0,0,1,1
202021729,0.0010920549,-0.0018320049,-0.0016627711,5000,0,-0.2534566,0.28338638,-9.737833,5000,0,0,1,1
202026729,0.0008789687,-0.0037174188,0.0014114906,5000,0,0.051937647,0.3767845,-9.85705,5000,0,0,1,1
202031745,0.00013398286,0.002217318,-0.0021396175,5016,0,-0.2734452,0.4703343,-9.79198,5016,0,0,1,1
202036729,-0.0036998596,-0.006174189,0.0003022796,4984,0,0.1489454,0.12320336,-9.9194975,4984,0,0,1,1
202041729,-0.0036172569,-0.0059643127,0.002940934,5000,0,-0.36469316,0.22322619,-9.586162,5000,0,0,1,1
202046729,-0.013156908,0.004487435,0.0003573871,5000,0,0.022216717,0.27054623,-9.7762,5000,0,0,1,1
202051729,-0.015618082,-0.00040395852,0.0026513843,5000,0,-0.10591394,0.31116286,-9.820507,5000,0,0,1,1
202056730,-0.005554464,-0.0013921319,7.63004e-05,5001,0,-0.13849643,0.32101333,-9.8521,5001,0,0,1,1
202061729,-0.0023079459,-0.0021565924,0.0039865817,4999,0,0.08591672,0.54844034,-9.828574,4999,0,0,1,1
202066729,0.0030513522,0.00052778475,-0.00044418738,5000,0,-0.12019896,0.18588671,-9.792152,5000,0,0,1,1
202071729,0.0012243934,-0.0040105693,0.0006071399,5000,0,-0.35071656,0.34355366,-9.9704485,5000,0,0,1,1
202076729,-0.003754667,0.0011336287,0.0015500538,5000,0,0.27415013,0.24154253,-9.684712,5000,0,0,1,1
202081733,-0.00026559737,-0.002107365,0.00096259627,5004,0,-0.272386,0.28589562,-9.763236,5004,0,0,1,1
202086729,-0.0077038403,0.0030116844,0.0007158869,4996,0,0.010730434,0.22661568,-9.840964,4996,0,0,1,1
202091729,-0.0109226955,-0.0014765684,-0.0015667158,5000,0,0.101547234,0.32925865,-9.764141,5000,0,0,1,1
202096729,-0.012595385,-0.00070471707,-0.00017418436,5000,0,-0.082009315,0.38308245,-9.681027,5000,0,0,1,1
202101729,-0.0058765616,0.0007899475,0.0014723138,5000,0,-0.2168328,0.32758558,-9.977404,5000,0,0,1,1
202106729,0.0046184924,-0.0020504077,-0.0011621685,5000,0,0.08575265,0.35266358,-9.931139,5000,0,0,1,1
202111730,-0.00032186325,-0.0037875324,0.0005063757,5001,0,-0.16962118,0.37240887,-9.71177,5001,0,0,1,1
202116729,-0.0033914149,0.0011614268,0.0010934222,4999,0,-0.103902295,0.16789865,-9.814691,4999,0,0,1,1
202121729,0.0014004731,-0.0007958449,0.004166424,5000,0,-0.008152425,0.36482763,-9.774564,5000,0,0,1,1
202126729,-0.005812114,-0.0064657885,0.002371713,5000,0,-0.13942276,0.23779522,-10.005632,5000,0,0,1,1
202131729,-0.009781921,-0.0015030704,-0.00094126107,5000,0,-0.08792937,0.15714836,-9.508458,5000,0,0,1,1
202136729,-0.01612965,0.0040874444,0.0032992233,5000,0,-0.17186745,0.57154095,-10.0081835,5000,0,0,1,1
202141729,-0.008232968,-0.0022030077,-0.0002718144,5000,0,0.06400448,0.38563326,-9.862908,5000,0,0,1,1
202146729,-0.0011077913,-0.00669232,0.00041875232,5000,0,-0.110171534,0.26796064,-9.836325,5000,0,0,1,1
202151729,0.001991361,0.003225568,0.0011475675,5000,0,-0.12170068,0.5208987,-9.650174,5000,0,0,1,1
202156730,-0.000361545,-0.0018949842,-0.00048993225,5001,0,-0.034336917,0.07192322,-9.952126,5001,0,0,1,1
202161729,-0.0015958343,-0.0043080794,0.0017389522,4999,0,-0.22756217,0.25166065,-9.857183,4999,0,0,1,1
202166730,0.0028749066,-0.0016421761,2.6094656e-05,5001,0,-0.07427204,0.49412972,-9.710972,5001,0,0,1,1
202171729,-0.013983573,0.00077410054,0.00021258461,4999,0,0.06929998,0.28678328,-9.887951,4999,0,0,1,1
202176729,-0.008883374,0.0014471589,-0.00074930827,5000,0,-0.39825937,0.07850441,-9.722441,5000,0,0,1,1
202181729,-0.013267649,-0.001576204,0.0015517575,5000,0,0.19011392,0.51095814,-9.894996,5000,0,0,1,1
202186729,-0.0026783934,0.0036683523,-0.0033226777,5000,0,-0.11363212,0.6676869,-9.643369,5000,0,0,1,1
202191730,-0.0006037634,-0.0065926956,0.0031830715,5001,0,-0.21396382,-0.11183193,-10.162201,5001,0,0,1,1
202196729,0.0020796633,-0.00015375765,0.0022701304,4999,0,-0.15435004,0.5358996,-9.584968,4999,0,0,1,1
202201729,0.00093488814,0.0010228481,0.0026418674,5000,0,-0.10569543,0.24862918,-9.881103,5000,0,0,1,1
202206729,-0.0051318416,0.0010839013,0.0012660468,5000,0,-0.041677143,0.37116766,-9.856926,5000,0,0,1,1
202211728,-0.003759168,-0.0069099423,0.0013531366,4999,0,-0.04822461,0.21251425,-9.829039,4999,0,0,1,1
202216729,-0.008539604,0.0016650549,0.0039101695,5001,0,-0.115198046,0.06279664,-9.627782,5001,0,0,1,1
202221729,-0.013510469,-0.0020484645,-0.0045887,5000,0,-0.032390803,0.40806592,-9.81945,5000,0,0,1,1
202226729,-0.010085683,-0.0034019048,-0.0004580702,5000,0,-0.18649375,0.5429897,-9.995435,5000,0,0,1,1
202231729,0.0057571977,-0.0017985634,0.00010259549,5000,0,0.08240031,0.2006902,-9.447471,5000,0,0,1,1
202236729,-0.0060170842,-0.0026355414,-0.00053867325,5000,0,-0.35160953,0.46124002,-10.203646,5000,0,0,1,1
202241729,0.005958328,0.0029215638,0.0035858203,5000,0,-0.027775941,0.12222617,-9.588408,5000,0,0,1,1
202246729,-0.0063246996,-0.0054020192,0.00032341687,5000,0,0.072145514,0.50677943,-9.989849,5000,0,0,1,1
202251729,-0.005969191,-0.00024885207,0.0016888698,5000,0,-0.19839932,0.22341911,-9.526854,5000,0,0,1,1
202256730,-0.0072623715,-0.0019788644,0.0008259967,5001,0,-0.0765775,0.18307984,-10.1993475,5001,0,0,1,1
202261729,-0.009597424,0.0022915876,-0.00018106512,4999,0,-0.14040463,0.40381184,-9.3431835,4999,0,0,1,1
202266729,-0.01188227,-0.0024872362,-0.001484613,5000,0,-0.058174755,0.3413053,-10.230725,5000,0,0,1,1
202271730,0.0003600316,0.002905442,-0.00019641616,5001,0,-0.09130326,0.27201328,-9.554794,5001,0,0,1,1
202276729,-0.0033213124,-0.0047096084,0.0005880418,4999,0,-0.09309369,0.2844683,-10.01197,4999,0,0,1,1
202281729,0.002504529,0.0063144923,0.0048424783,5000,0,-0.12930067,0.30510437,-9.644256,5000,0,0,1,1
202286729,-0.0043354444,-0.0050855125,0.00054813095,5000,0,0.02480557,0.31451988,-9.969356,5000,0,0,1,1
202291729,-0.0013935193,0.0008170052,0.0049738414,5000,0,-0.35025343,0.22517736,-9.688733,5000,0,0,1,1
202296728,-0.010065336,0.0016325474,-0.0020721229,4999,0,0.2023244,0.4627167,-9.804943,4999,0,0,1,1
202301729,-0.0067046364,-0.0029030405,0.00082158233,5001,0,-0.2314513,0.07396049,-9.935469,5001,0,0,1,1
202306729,-0.010726942,-0.0024052574,-0.0023808044,5000,0,0.06914989,0.6019753,-9.645755,5000,0,0,1,1
202311729,-0.004979329,0.0025209233,-1.5135069e-05,5000,0,-0.08560994,0.13092439,-9.925385,5000,0,0,1,1
202316729,-0.0031315747,-0.0041060518,0.0022930126,5000,0,-0.33527926,0.61382806,-9.85647,5000,0,0,1,1
202321729,0.0027496929,-0.0015460006,0.0005283375,5000,0,-0.092647105,0.49158219,-10.089208,5000,0,0,1,1
202326729,-0.0005328245,0.0004191161,0.0028836164,5000,0,-0.01079917,0.15032594,-9.309753,5000,0,0,1,1
202331729,-0.0027147175,9.5097785e-05,0.0024923682,5000,0,-0.40414035,0.34287837,-10.210182,5000,0,0,1,1
202336730,-0.0040091444,-0.0003846459,0.0025027343,5001,0,0.3079456,0.24916735,-9.753175,5001,0,0,1,1
202341729,-0.008283231,-0.0071566817,-0.00016661482,4999,0,-0.2759481,0.3875862,-9.761102,4999,0,0,1,1
202346729,-0.011095906,0.003058552,-0.00075500034,5000,0,-0.084951684,-0.057441827,-9.648123,5000,0,0,1,1
202351729,-0.0073213056,-0.0017206327,0.0016637315,5000,0,0.13041992,0.5884601,-10.084918,5000,0,0,1,1
202356729,-0.0054091215,-0.0046127397,-0.00048136048,5000,0,-0.34368128,0.36931476,-9.709484,5000,0,0,1,1
202361729,0.0010960433,-0.00087819545,-3.3097735e-05,5000,0,-0.08010769,0.5140679,-9.890772,5000,0,0,1,1
202366729,0.0030162623,0.00051456515,0.0038653256,5000,0,-0.1437035,0.0030263206,-9.747353,5000,0,0,1,1
202371729,-0.0019379184,-0.0009971927,0.0013177905,5000,0,-0.25074857,0.5846037,-9.961967,5000,0,0,1,1
202376730,-0.006142433,-0.00091219164,-0.000722943,5001,0,-0.045389447,0.12187425,-9.827354,5001,0,0,1,1
202381729,-0.0076277032,0.00077619706,0.002413979,4999,0,0.040082745,0.26868534,-9.679199,4999,0,0,1,1
202386729,-0.008077754,0.002649869,-0.0006933641,5000,0,-0.18560211,0.29506907,-9.806669,5000,0,0,1,1
202391728,-0.012340436,-0.006079657,-0.0037925662,4999,0,0.05417211,0.31291702,-10.041094,4999,0,0,1,1
202396732,-0.0025706645,-0.001162349,0.0008490566,5004,0,-0.15417445,0.3334177,-9.528339,5004,0,0,1,1
202401729,-0.005420395,0.0005037391,-0.00060264854,4997,0,-0.15692422,0.45700276,-10.072729,4997,0,0,1,1
202406729,0.005559636,0.0011497223,0.0025582854,5000,0,-0.15828946,0.17061014,-9.588037,5000,0,0,1,1
202411728,-0.007872395,-0.002108765,0.003957913,4999,0,-0.11377834,0.28655156,-10.137929,4999,0,0,1,1
202416730,-0.0010199342,0.0011848357,0.0026032086,5002,0,-0.060527302,0.33456475,-9.48739,5002,0,0,1,1
202421729,-0.0076011233,-0.00041944085,0.0034041991,4999,0,-0.08788878,0.26330084,-10.108631,4999,0,0,1,1
202426729,-0.0045830808,0.0027907034,0.00038680987,5000,0,0.024415791,0.21894476,-9.553036,5000,0,0,1,1
202431729,-0.012965428,-0.012498675,0.0005465721,5000,0,0.004749611,0.3993069,-10.084924,5000,0,0,1,1
202436730,-0.0059122313,0.00246702,-0.002329353,5001,0,-0.38889167,0.4634901,-9.451449,5001,0,0,1,1
202441729,-0.0020446815,-0.0018081757,0.0002980224,4999,0,0.03719465,0.24750546,-10.111046,4999,0,0,1,1
202446729,0.0008271909,0.0036321252,0.0040562986,5000,0,-0.07894466,0.37079906,-9.757751,5000,0,0,1,1
202451730,-0.0010089083,-0.0036830094,0.0022188681,5001,0,-0.18460925,0.33287802,-9.851746,5001,0,0,1,1
202456729,-0.0023837688,0.0030603975,0.0037039355,4999,0,-0.049509346,0.18476221,-9.696574,4999,0,0,1,1
202461729,-0.0043770173,0.0006478685,0.00454329,5000,0,0.07088384,0.3602515,-9.879903,5000,0,0,1,1
202466729,-0.005697226,0.0007708556,-0.0006801422,5000,0,-0.18009363,0.26026642,-9.820747,5000,0,0,1,1
202471730,-0.0144386105,-0.0040118247,-0.0026888077,5001,0,-0.0009037443,0.507624,-9.628219,5001,0,0,1,1
202476729,-0.0043160245,-0.0029400466,0.0005805031,4999,0,-0.0025684834,0.025756259,-10.006795,4999,0,0,1,1
202481729,-0.0067835134,-0.0039443183,-0.0019708334,5000,0,-0.29724318,0.64612955,-9.690535,5000,0,0,1,1
202486729,-0.0019258047,0.0009939546,0.000429714,5000,0,-0.14433438,0.33225945,-10.047666,5000,0,0,1,1
202491729,0.0038326923,0.00054430193,0.0060948404,5000,0,0.20934446,0.36073968,-9.525263,5000,0,0,1,1
202496729,-0.0055257007,-0.0055582086,0.0009880791,5000,0,-0.32929027,0.3150453,-10.173001,5000,0,0,1,1
202501729,-0.00040161144,0.0056773215,0.0056798626,5000,0,-0.11347247,0.19188423,-9.506389,5000,0,0,1,1
202506729,-0.009013748,-0.0041907732,0.0012708344,5000,0,-0.14142258,0.37364113,-10.015782,5000,0,0,1,1
202511729,-0.010153802,-0.0004979897,-0.00088290963,5000,0,-0.19881707,0.11794664,-9.634367,5000,0,0,1,1
202516730,-0.006375294,-0.008954978,0.0012047085,5001,0,0.12774053,0.41264665,-10.096947,5001,0,0,1,1
202521729,-0.004852472,-0.00220901,-0.0024589363,4999,0,-0.22550479,0.29658476,-9.523638,4999,0,0,1,1
202526729,-0.003909938,-0.006075412,0.0012917026,5000,0,-0.043584984,0.46626925,-10.049399,5000,0,0,1,1
202531729,0.0011734096,0.004722078,-0.00022601674,5000,0,-0.12874764,0.3004367,-9.583957,5000,0,0,1,1
202536732,-0.0043783095,-0.005669724,0.0054477598,5003,0,-0.005546406,0.29131442,-10.080519,5003,0,0,1,1
202541729,-0.0026205564,0.004976891,0.0036664444,4997,0,-0.34757328,0.19719295,-9.593333,4997,0,0,1,1
202546729,-0.006206176,-0.00023922516,3.754442e-05,5000,0,0.07190122,0.3313246,-9.920451,5000,0,0,1,1
202551729,-0.011154878,0.0011467957,0.0012406599,5000,0,-0.21417812,0.46219397,-9.822191,5000,0,0,1,1
202556730,-0.006600594,-0.0052794227,-0.0009489096,5001,0,0.099967904,0.2665264,-9.809363,5001,0,0,1,1
202561729,-0.0072299056,-0.005605091,-0.0018976537,4999,0,-0.44076476,0.32371926,-9.8130865,4999,0,0,1,1
202566729,-0.0010822294,0.00051211816,-0.0020374376,5000,0,0.115919985,0.32900614,-9.683672,5000,0,0,1,1
202571729,-0.0030611183,0.0021117118,0.0024161234,5000,0,-0.07852562,0.2563633,-10.0112915,5000,0,0,1,1
202576729,-0.0011072773,-0.0021297052,0.0036103167,5000,0,-0.1912541,0.2908215,-9.757118,5000,0,0,1,1
202581729,-0.0005671121,0.0005463898,0.0041150544,5000,0,-0.17787087,0.38684207,-9.867748,5000,0,0,1,1
202586729,-0.006114433,0.006537744,0.0032489796,5000,0,0.103416875,0.2845618,-9.658855,5000,0,0,1,1
202591729,-0.0042823413,-0.002912171,0.0022849275,5000,0,-0.54390657,0.12100694,-10.016248,5000,0,0,1,1
202596730,-0.00963488,0.0023653386,0.0015483472,5001,0,0.59183586,0.44621333,-9.687847,5001,0,0,1,1
202601729,-0.009012991,-0.016086884,-0.003860796,4999,0,-0.58466136,0.291639,-9.859716,4999,0,0,1,1
202606729,-0.006061713,-0.000662893,-0.00036896043,5000,0,-0.23668614,0.2082136,-9.969004,5000,0,0,1,1
202611729,-0.00043313202,-0.0048124176,0.0023553066,5000,0,0.022611715,0.40565795,-9.782193,5000,0,0,1,1
202616729,0.0011506284,0.0013438255,0.0033264675,5000,0,-0.04440017,0.3702982,-9.810813,5000,0,0,1,1
202621729,-0.0034149084,-0.005257531,0.0018761479,5000,0,-0.1509642,0.21406677,-9.816702,5000,0,0,1,1
202626729,-0.0009070616,0.0035606646,0.0041795718,5000,0,-0.21161225,0.30718014,-9.875186,5000,0,0,1,1
202631729,-0.009161532,0.00030596374,0.0024518566,5000,0,-0.009865314,0.25435674,-9.607903,5000,0,0,1,1
202636729,-0.008502658,0.0009189914,-0.0040870067,5000,0,-0.08069065,0.3166527,-10.043301,5000,0,0,1,1
202641729,-0.009306284,-0.009371401,0.0001272187,5000,0,0.040092863,0.29777634,-9.642885,5000,0,0,1,1
202646729,-0.007852044,-0.0030571402,-0.003293204,5000,0,-0.25918394,0.38105783,-10.014215,5000,0,0,1,1
202651729,-0.0036625217,-0.002825881,-0.001172917,5000,0,-3.6224723e-05,0.4803113,-9.721243,5000,0,0,1,1
202656729,0.00012617279,0.0013416854,0.0036387267,5000,0,-0.22107702,0.19068918,-9.920022,5000,0,0,1,1
202661729,0.0012102686,0.001347652,0.0035133485,5000,0,-0.07764585,0.42275056,-9.696863,5000,0,0,1,1
202666730,-0.0040937252,-0.0036661464,0.0044943574,5001,0,-0.14479761,0.097447194,-9.907848,5001,0,0,1,1
202671729,-0.0037620096,0.008228835,0.004030034,4999,0,-0.16545218,0.35124046,-9.628934,4999,0,0,1,1
202676729,-0.017003736,-0.0022078024,-0.002000152,5000,0,0.1258729,0.16887568,-9.984449,5000,0,0,1,1
202681729,-0.008959657,-0.00074779097,-0.00094243686,5000,0,-0.112798825,0.34425125,-9.824959,5000,0,0,1,1
202686729,-0.0036685986,-0.0078028585,-0.0030110315,5000,0,-0.0030299276,0.6738736,-9.7754345,5000,0,0,1,1
202691729,-0.0014102001,-0.0008098564,0.0018282767,5000,0,-0.029159239,0.16124469,-9.798147,5000,0,0,1,1
202696729,-0.0009346483,-0.0020317407,-0.00019366416,5000,0,-0.3540405,0.4510331,-10.011483,5000,0,0,1,1
202701729,0.0008534645,-0.00091311184,0.0038450267,5000,0,-0.07495335,0.07707652,-9.864311,5000,0,0,1,1
202706729,-0.001992138,-0.0014626111,0.004654129,5000,0,0.03466362,0.5988458,-9.572773,5000,0,0,1,1
202711729,-0.0038587626,0.004016735,-0.00038748307,5000,0,-0.3354541,0.13570556,-10.121312,5000,0,0,1,1
202716729,-0.008738941,-0.0037399728,-0.0002794409,5000,0,-0.026867881,0.24655682,-9.580359,5000,0,0,1,1
202721729,-0.011096694,0.00092430826,-0.00020866716,5000,0,0.030554641,0.2999188,-9.852364,5000,0,0,1,1
202726729,-0.011235065,-0.0025387167,-0.0029796911,5000,0,-0.023282751,0.44959724,-9.787847,5000,0,0,1,1
202731729,-0.0037947993,-0.010355672,-0.0033656626,5000,0,-0.26436144,0.547609,-10.2006445,5000,0,0,1,1
202736729,0.0049338643,0.0024973257,0.0032395804,5000,0,-0.015579185,0.16623648,-9.226439,5000,0,0,1,1
202741729,-0.00039801557,0.0011271969,0.003854949,5000,0,-0.0004447624,0.38267896,-10.048895,5000,0,0,1,1
202746729,-0.0051949956,0.0017722431,0.0029218628,5000,0,-0.24190484,0.47861928,-9.882397,5000,0,0,1,1
202751729,0.0019830386,-0.0033319152,0.0052340385,5000,0,-0.0050488035,0.27212617,-9.851978,5000,0,0,1,1
202756750,-0.00899533,0.00497009,0.0013913227,5021,0,-0.14458415,0.0897685,-9.451023,5021,0,0,1,1
202761729,-0.0115480395,0.004156778,-0.00054953154,4979,0,-0.03220263,0.363198,-10.156717,4979,0,0,1,1
202766729,-0.01257873,-0.005537915,-0.0029158404,5000,0,0.023789264,0.4760629,-9.692437,5000,0,0,1,1
202771729,-0.0103616435,-0.0059438227,-0.0027002585,5000,0,-0.093361646,0.4697067,-9.721364,5000,0,0,1,1
202776729,0.0059137004,0.002347705,-0.0001016441,5000,0,-0.010512977,0.14457461,-9.900118,5000,0,0,1,1
202781729,0.0019395853,-0.0028833847,0.0012815,5000,0,-0.22203435,0.32203895,-9.956091,5000,0,0,1,1
202786729,-0.00245299,0.00089402555,0.005111632,5000,0,0.10358975,0.317552,-9.658894,5000,0,0,1,1
202791729,-0.0008153077,0.00084285904,0.002353143,5000,0,0.0050451756,0.35882056,-9.741161,5000,0,0,1,1
202796729,-0.0056435307,0.0012844203,0.0021762848,5000,0,-0.20613545,0.07984406,-9.898237,5000,0,0,1,1
202801729,-0.011232457,0.0021941205,0.0005587009,5000,0,-0.15049933,0.3689381,-9.885495,5000,0,0,1,1
202806729,-0.015808495,2.3679951e-05,-0.0021403208,5000,0,0.20394127,0.2657549,-9.607903,5000,0,0,1,1
202811729,-0.006611026,-0.003037415,0.0006983573,5000,0,-0.1411244,0.5145908,-9.927948,5000,0,0,1,1
202816729,-0.005138279,-0.0026326964,-0.0017532666,5000,0,-0.1321171,0.41881302,-9.829066,5000,0,0,1,1
202821729,0.0031341328,-0.0039110333,0.0022318242,5000,0,-0.17973271,0.2547773,-9.781621,5000,0,0,1,1
202826729,0.0023955638,0.0008152644,0.0024366747,5000,0,-0.20727193,0.4153947,-9.754461,5000,0,0,1,1
202831729,0.0020069606,0.0015175168,0.0054255254,5000,0,0.13244006,0.21435669,-9.987541,5000,0,0,1,1
202836728,-0.008016627,-0.0002804867,0.003028025,4999,0,-0.36772886,0.16823912,-9.762261,4999,0,0,1,1
202841729,-0.006448848,0.0062289364,0.0017038374,5001,0,0.09577029,0.35625592,-9.661705,5001,0,0,1,1
202846729,-0.012797004,-0.00012664596,-0.0034838554,5000,0,-0.02857454,0.34943172,-9.925599,5000,0,0,1,1
202851729,-0.00897871,-0.002244903,-0.0029042512,5000,0,-0.20809516,0.12164221,-9.802687,5000,0,0,1,1
202856729,-0.0068075233,-0.0030448835,-0.001987825,5000,0,0.2616136,0.50798464,-9.904192,5000,0,0,1,1
202861730,0.0023096488,-0.00080200785,-0.00017590095,5001,0,-0.18179375,0.49112308,-9.601884,5001,0,0,1,1
202866729,0.0051536504,-0.005364797,0.002081061,4999,0,-0.24594752,0.3266904,-10.119042,4999,0,0,1,1
202871728,0.0023793173,0.004885005,0.0032425912,4999,0,0.01354224,0.26634634,-9.61297,4999,0,0,1,1
202876751,-0.0039050512,-0.0034705778,0.0046379375,5023,0,-0.24965037,0.104364865,-9.870123,5023,0,0,1,1
202881729,-0.009993047,0.0027355275,-3.3543263e-05,4978,0,-0.2891814,0.26617846,-9.957643,4978,0,0,1,1
202886729,-0.013133138,-0.007694436,-0.0012169548,5000,0,0.102719255,0.24974081,-9.750596,5000,0,0,1,1
202891729,-0.008212278,0.004672362,0.00068129366,5000,0,-0.060919784,0.25983718,-9.530127,5000,0,0,1,1
202896729,-0.01052239,-0.0074576107,-0.003283132,5000,0,-0.19601566,0.3811595,-10.152357,5000,0,0,1,1
202901729,-0.0012030862,-0.0010273925,0.0026182574,5000,0,0.07861726,0.61354303,-9.878569,5000,0,0,1,1
202906729,0.005126481,-0.0038769406,0.0021664712,5000,0,-0.14131938,0.4588083,-9.526819,5000,0,0,1,1
202911729,0.003015719,0.0058163046,0.0035938967,5000,0,-0.2891147,0.105160184,-9.994743,5000,0,0,1,1
202916729,-0.0021604272,-0.0044316724,0.005035118,5000,0,-0.026921876,0.12179857,-9.896062,5000,0,0,1,1
202921729,-0.004883589,0.005880794,0.0009060834,5000,0,-0.22263122,0.51413697,-9.652831,5000,0,0,1,1
202926729,-0.013464645,0.00034997653,-0.0035431017,5000,0,0.12515575,0.2419204,-9.744976,5000,0,0,1,1
202931729,-0.012868052,0.004584968,-0.0033564018,5000,0,0.09044796,0.3536506,-9.788467,5000,0,0,1,1
202936729,-0.012189867,-0.008114382,-0.004885338,5000,0,-0.050795846,0.2604171,-9.876896,5000,0,0,1,1
202941729,-0.007047101,-0.00081448216,-0.0020646586,5000,0,-0.23390909,0.64464134,-9.888912,5000,0,0,1,1
202946729,0.010535978,-0.0002891571,0.0013262923,5000,0,0.057517998,0.2380976,-9.631114,5000,0,0,1,1
202951729,0.0020511644,-0.00014077814,0.005274744,5000,0,-0.18887298,0.35747573,-9.992298,5000,0,0,1,1
202956729,-0.00114372,-0.00064751686,0.0045460286,5000,0,-0.25709465,0.28949347,-9.819433,5000,0,0,1,1
202961729,-0.0011249771,0.00035482887,0.004113052,5000,0,-0.016318373,0.2824979,-9.8599,5000,0,0,1,1
202966729,-0.010525191,0.002769721,0.0013315607,5000,0,0.020186294,0.37669918,-9.452259,5000,0,0,1,1
202971729,-0.013944843,0.00015123325,-0.002722865,5000,0,-0.06853613,-0.016698228,-10.210691,5000,0,0,1,1
202976729,-0.014075756,-0.006713884,0.0006860827,5000,0,-0.08716321,0.44710603,-9.634575,5000,0,0,1,1
202981729,-0.0049585383,-0.009042079,-0.0022623157,5000,0,0.059931282,0.514483,-9.910094,5000,0,0,1,1
202986729,0.0029324268,-0.0017635638,0.0041283243,5000,0,-0.15273856,0.27149984,-9.694202,5000,0,0,1,1
202991729,0.0014511355,-0.0047776722,0.0037111877,5000,0,-0.38260323,0.40732375,-10.112021,5000,0,0,1,1
202996729,0.004302128,-0.0016831822,0.006193727,5000,0,0.07932807,0.20158139,-9.611409,5000,0,0,1,1
203001729,0.0024878136,0.0033928165,0.0031716055,5000,0,0.060321,0.25580093,-9.797276,5000,0,0,1,1
203006729,-0.010082928,-0.0005080707,-0.0012429471,5000,0,-0.50846875,0.14509086,-9.877164,5000,0,0,1,1
203011729,-0.015165325,0.00095378753,-0.002989756,5000,0,0.22897112,0.316638,-9.795616,5000,0,0,1,1
203016729,-0.016145417,7.228079e-05,-0.0035056444,5000,0,-0.1564917,0.27460113,-9.67311,5000,0,0,1,1
203021729,-0.0046146857,-0.0006447175,-0.0016226149,5000,0,-0.2165055,0.45366463,-9.956058,5000,0,0,1,1
203026730,-0.0018399125,-0.0007924028,-0.0013675799,5001,0,-0.095762566,0.5496048,-9.905165,5001,0,0,1,1
203031739,0.002871849,-0.004343503,0.0066458913,5009,0,0.010883525,0.23781118,-9.719727,5009,0,0,1,1
203036729,0.002946952,0.0038265835,0.0016702234,4990,0,-0.21309963,0.5337368,-9.736984,4990,0,0,1,1
203041729,-0.0011414819,0.0025780199,0.0059073814,5000,0,0.058657244,0.1831645,-10.016269,5000,0,0,1,1
203046729,-0.00397997,-0.0036108212,0.0045407605,5000,0,-0.18442947,0.08970249,-9.709373,5000,0,0,1,1
203051731,-0.009042348,-0.0014241231,-0.0002144921,5002,0,-0.110363506,0.19878332,-9.833044,5002,0,0,1,1
203056730,-0.017226314,0.0020252145,-0.0023508067,4999,0,0.04089051,0.5117124,-9.747623,4999,0,0,1,1
203061729,-0.010901953,-0.002709487,-0.004017791,4999,0,-0.100818686,0.3479961,-9.869733,4999,0,0,1,1
203066729,-6.298721e-05,-0.009656781,0.0009184805,5000,0,-0.05952514,0.38173532,-9.839934,5000,0,0,1,1
203071730,0.003270972,-0.0019081648,0.004788538,5001,0,0.19523798,0.36352652,-9.630876,5001,0,0,1,1
203076729,0.0016939902,0.0009706429,0.0026661283,4999,0,-0.33441475,0.2642191,-9.795959,4999,0,0,1,1
203081729,0.00027704425,-0.0033621108,0.0049435757,5000,0,-0.17114662,0.20178713,-10.12821,5000,0,0,1,1
203086729,0.0023465217,-0.0039155455,0.0043427297,5000,0,-0.14287941,0.32560888,-9.574858,5000,0,0,1,1
203091730,-0.00908412,0.0070027485,-0.0012239764,5001,0,0.06880548,0.44394782,-9.789699,5001,0,0,1,1
203096730,-0.019522214,-0.0052758264,-0.0052779797,5000,0,-0.2817816,0.018724548,-10.03234,5000,0,0,1,1
203101729,-0.008785801,-2.3380186e-05,-0.0017788805,4999,0,0.2338539,0.56572336,-9.588997,4999,0,0,1,1
