timestamp,timestamp_sample,gps_hvel[0],gps_hvel[1],gps_vvel,gps_hpos[0],gps_hpos[1],gps_vpos,ev_hvel[0],ev_hvel[1],ev_vvel,ev_hpos[0],ev_hpos[1],ev_vpos,rng_vpos,baro_vpos,aux_hvel[0],aux_hvel[1],flow[0],flow[1],terr_flow[0],terr_flow[1],heading,mag_field[0],mag_field[1],mag_field[2],gravity[0],gravity[1],gravity[2],drag[0],drag[1],airspeed,beta,hagl,hagl_rate
200532256,200341730,0.09631047,0.09631608,0.20679398,1.0422031,1.0422279,2.6802185,0.0,0.0,0.0,0.0,0.0,0.0,0.0,12.41906,0.0,0.0,0.0,0.0,0.0,0.0,0.002507646,0.0025075136,0.002507646,0.0025018784,1.0000324,1.0000329,1.0,0.0,0.0,0.0,0.0,0.0,0.0
201032244,200841730,0.096263155,0.09626988,0.2067879,1.0461618,1.0461861,2.696349,0.0,0.0,0.0,0.0,0.0,0.0,0.0,12.419514,0.0,0.0,0.0,0.0,0.0,0.0,0.0025076484,0.002507519,0.0025076484,0.002501876,1.0000324,1.0000329,1.0,0.0,0.0,0.0,0.0,0.0,0.0
201532452,201341729,0.09626412,0.096270874,0.20678543,1.0523207,1.0523453,2.7128596,0.0,0.0,0.0,0.0,0.0,0.0,0.0,12.419963,0.0,0.0,0.0,0.0,0.0,0.0,0.0025076496,0.002507525,0.0025076496,0.002501873,1.0000321,1.0000325,1.0,0.0,0.0,0.0,0.0,0.0,0.0
202032217,201841729,0.09632385,0.09632954,0.20680264,1.0566027,1.0566274,2.7197223,0.0,0.0,0.0,0.0,0.0,0.0,0.0,12.419267,0.0,0.0,0.0,0.0,0.0,0.0,0.0025076505,0.002507526,0.0025076505,0.0025018717,1.0000324,1.0000329,1.0,0.0,0.0,0.0,0.0,0.0,0.0
202532345,202341729,0.096267134,0.096275896,0.20679468,1.0585386,1.0585629,2.7293975,0.0,0.0,0.0,0.0,0.0,0.0,0.0,12.419691,0.0,0.0,0.0,0.0,0.0,0.0,0.0025076515,0.0025075306,0.0025076515,0.0025018693,1.0000324,1.0000329,1.0,0.0,0.0,0.0,0.0,0.0,0.0
203032249,202841729,0.096311815,0.09631799,0.20680596,1.062813,1.0628376,2.7363958,0.0,0.0,0.0,0.0,0.0,0.0,0.0,12.420096,0.0,0.0,0.0,0.0,0.0,0.0,0.0025076482,0.0025075348,0.0025076482,0.0025018675,1.0000325,1.0000329,1.0,0.0,0.0,0.0,0.0,0.0,0.0
203532314,203341729,0.09630466,0.096312955,0.20680366,1.0669305,1.0669551,2.7462585,0.0,0.0,0.0,0.0,0.0,0.0,0.0,12.420495,0.0,0.0,0.0,0.0,0.0,0.0,0.00250765,0.0025075402,0.00250765,0.0025018654,1.0000325,1.000033,1.0,0.0,0.0,0.0,0.0,0.0,0.0
204032215,203841729,0.096301466,0.09630878,0.206802,1.0731002,1.0731249,2.7693126,0.0,0.0,0.0,0.0,0.0,0.0,0.0,12.41976,0.0,0.0,0.0,0.0,0.0,0.0,0.0025076494,0.0025075383,0.0025076494,0.002501863,1.0000325,1.000033,1.0,0.0,0.0,0.0,0.0,0.0,0.0
204532434,204341729,0.0962522,0.09626474,0.20679207,1.0750549,1.0750797,2.779215,0.0,0.0,0.0,0.0,0.0,0.0,0.0,12.420182,0.0,0.0,0.0,0.0,0.0,0.0,0.0025076529,0.00250755,0.0025076529,0.0025018626,1.0000321,1.0000327,1.0,0.0,0.0,0.0,0.0,0.0,0.0
205032271,204841729,0.09630692,0.09631198,0.20680766,1.077303,1.0773281,2.782821,0.0,0.0,0.0,0.0,0.0,0.0,0.0,12.420597,0.0,0.0,0.0,0.0,0.0,0.0,0.0025076615,0.0025075758,0.0025076615,0.0025018647,1.0000324,1.000033,1.0,0.0,0.0,0.0,0.0,0.0,0.0
205532189,205341729,0.09627433,0.09627673,0.20679404,1.0812976,1.0813222,2.7992098,0.0,0.0,0.0,0.0,0.0,0.0,0.0,12.42022,0.0,0.0,0.0,0.0,0.0,0.0,0.0025077322,0.002507684,0.0025077322,0.0025019795,1.0000325,1.000033,1.0,0.0,0.0,0.0,0.0,0.0,0.0
206032209,205841729,0.096708596,0.09747994,0.20680681,1.0835633,1.083594,2.8060536,0.0,0.0,0.0,0.0,0.0,0.0,0.0,12.420624,0.0,0.0,0.0,0.0,0.0,0.0,0.0025158033,0.0025158033,0.002513573,0.002506343,1.0000324,1.000033,1.0,0.0,0.0,0.0,0.0,0.0,0.0
207032242,206841729,0.09655665,0.09676239,0.20681211,1.0898261,1.0898632,2.812943,0.0,0.0,0.0,0.0,0.0,0.0,0.0,12.420248,0.0,0.0,0.0,0.0,0.0,0.0,0.0025337252,0.0025337252,0.0025210984,0.0025020353,1.0000322,1.0000324,1.0,0.0,0.0,0.0,0.0,0.0,0.0
207532202,207341729,0.09650178,0.09766179,0.20681286,1.0940075,1.094033,2.8129358,0.0,0.0,0.0,0.0,0.0,0.0,0.0,12.420612,0.0,0.0,0.0,0.0,0.0,0.0,0.0025314682,0.0025314682,0.0025194397,0.0025019785,1.000032,1.0000322,1.0,0.0,0.0,0.0,0.0,0.0,0.0
208032239,207841729,0.09654949,0.097670384,0.20680709,1.0980334,1.0980637,2.8162909,0.0,0.0,0.0,0.0,0.0,0.0,0.0,12.420969,0.0,0.0,0.0,0.0,0.0,0.0,0.0025174925,0.0025174925,0.002512275,0.0025032945,1.0000317,1.000032,1.0,0.0,0.0,0.0,0.0,0.0,0.0
208532254,208341729,0.096436724,0.0968688,0.20680977,1.1022383,1.1022755,2.8195992,0.0,0.0,0.0,0.0,0.0,0.0,0.0,12.421329,0.0,0.0,0.0,0.0,0.0,0.0,0.0035298371,0.0035293482,0.0035298371,0.0035002187,1.0000318,1.0000318,1.0,0.0,0.0,0.0,0.0,0.0,0.0
209032499,208841729,0.09769593,0.096608184,0.20681219,1.1023154,1.1023486,2.816251,0.0,0.0,0.0,0.0,0.0,0.0,0.0,12.420886,0.0,0.0,0.0,0.0,0.0,0.0,0.002769364,0.002769364,0.0027657163,0.0027681082,1.0000316,1.0000318,1.0000004,0.0,0.0,0.0,0.0,0.0,0.0
209532357,209341729,0.106429234,0.09882172,0.20683771,1.1067513,1.1066959,2.8197153,0.0,0.0,0.0,0.0,0.0,0.0,0.0,12.421214,0.0,0.0,0.0,0.0,0.0,0.0,0.0026596717,0.0026596717,0.0026552603,0.0026552114,1.0000317,1.0000323,1.0000005,0.0,0.0,0.0,0.0,0.0,0.0
210032422,209841729,0.11014233,0.10052117,0.20684806,1.106944,1.1067835,2.8165896,0.0,0.0,0.0,0.0,0.0,0.0,0.0,12.42155,0.0,0.0,0.0,0.0,0.0,0.0,0.0026451363,0.0026451363,0.0026337893,0.002617675,1.0000309,1.000034,1.0000012,0.0,0.0,0.0,0.0,0.0,0.0
210532675,210341729,0.105822325,0.09943168,0.20685166,1.1068517,1.1066744,2.809835,0.0,0.0,0.0,0.0,0.0,0.0,0.0,12.420717,0.0,0.0,0.0,0.0,0.0,0.0,0.002605205,0.002605205,0.002603615,0.0025834334,1.0000309,1.0000356,1.0000007,0.0,0.0,0.0,0.0,0.0,0.0
211532353,211341729,0.100123316,0.096884765,0.20685954,1.1132197,1.1129783,2.813157,0.0,0.0,0.0,0.0,0.0,0.0,0.0,12.421385,0.0,0.0,0.0,0.0,0.0,0.0,0.0025780734,0.0025780734,0.0025754618,0.0025574777,1.0000315,1.0000395,1.0000001,0.0,0.0,0.0,0.0,0.0,0.0
212032600,211841729,0.09709443,0.0965254,0.20685071,1.1153096,1.115083,2.8132298,0.0,0.0,0.0,0.0,0.0,0.0,0.0,12.420559,0.0,0.0,0.0,0.0,0.0,0.0,0.0025678826,0.0025678826,0.002559147,0.0025548842,1.0000309,1.0000411,1.0,0.0,0.0,0.0,0.0,0.0,0.0
212532627,212341729,0.09613134,0.0962435,0.20684184,1.1278105,1.1276257,2.8431652,0.0,0.0,0.0,0.0,0.0,0.0,0.0,12.420894,0.0,0.0,0.0,0.0,0.0,0.0,0.002556465,0.002556465,0.0025482164,0.0025491656,1.0000312,1.0000421,1.0,0.0,0.0,0.0,0.0,0.0,0.0
213032428,212841729,0.09703148,0.09676561,0.20684513,1.1404184,1.1403073,2.8801496,0.0,0.0,0.0,0.0,0.0,0.0,0.0,12.421313,0.0,0.0,0.0,0.0,0.0,0.0,0.002598856,0.002598856,0.0025439505,0.0025821412,1.0000311,1.0000421,1.0000007,0.0,0.0,0.0,0.0,0.0,0.0
213532615,213341729,0.1020927,0.09802504,0.20687234,1.1616956,1.1617001,2.9512575,0.0,0.0,0.0,0.0,0.0,0.0,0.0,12.421419,0.0,0.0,0.0,0.0,0.0,0.0,0.0025691497,0.0025691497,0.002539988,0.0025600807,1.0000311,1.0000362,1.0000005,0.0,0.0,0.0,0.0,0.0,0.0
214032365,213841729,0.10240619,0.09769638,0.20689066,1.1726358,1.1726291,3.0098193,0.0,0.0,0.0,0.0,0.0,0.0,0.0,12.421596,0.0,0.0,0.0,0.0,0.0,0.0,0.0025506371,0.0025506371,0.002538097,0.0025429234,1.0000318,1.000034,1.0000002,0.0,0.0,0.0,0.0,0.0,0.0
214532656,214341729,0.11214742,0.10890067,0.23335986,1.1921179,1.1920625,3.1002326,0.0,0.0,0.0,0.0,0.0,0.0,0.0,12.422286,0.0,0.0,0.0,0.0,0.0,0.0,0.002541027,0.002541027,0.0025365788,0.002532915,1.0000316,1.0000322,1.0000001,0.0,0.0,0.0,0.0,0.0,0.0
215032651,214841729,0.1080538,0.10625048,0.22770044,1.2100613,1.2099383,3.181581,0.0,0.0,0.0,0.0,0.0,0.0,0.0,12.422836,0.0,0.0,0.0,0.0,0.0,0.0,0.0025346496,0.0025346496,0.0025331702,0.0025271478,1.0000318,1.0000323,1.0,0.0,0.0,0.0,0.0,0.0,0.0
215532613,215341729,0.111748956,0.11077975,0.23778962,1.2283388,1.2281603,3.2680593,0.0,0.0,0.0,0.0,0.0,0.0,0.0,12.423232,0.0,0.0,0.0,0.0,0.0,0.0,0.0025296414,0.0025287846,0.0025296414,0.0025269613,1.000032,1.0000325,1.0000001,0.0,0.0,0.0,0.0,0.0,0.0
216032601,215841729,0.13225882,0.13174847,0.2849213,1.2488674,1.2486614,3.3591669,0.0,0.0,0.0,0.0,0.0,0.0,0.0,12.424453,0.0,0.0,0.0,0.0,0.0,0.0,0.0025277669,0.0025277669,0.0025268402,0.0025247335,1.0000318,1.000033,1.0000001,0.0,0.0,0.0,0.0,0.0,0.0
216532604,216341729,0.109652355,0.10958341,0.23499621,1.2695134,1.2693167,3.436719,0.0,0.0,0.0,0.0,0.0,0.0,0.0,12.4257555,0.0,0.0,0.0,0.0,0.0,0.0,0.0025391085,0.0025391085,0.0025239808,0.00253315,1.0000312,1.0000334,1.000001,0.0,0.0,0.0,0.0,0.0,0.0
217032622,216841729,0.09690031,0.09694834,0.20707935,1.285034,1.2848935,3.503884,0.0,0.0,0.0,0.0,0.0,0.0,0.0,12.425395,0.0,0.0,0.0,0.0,0.0,0.0,0.0025266355,0.0025266355,0.002523042,0.0025233089,1.0000314,1.000033,1.0000004,0.0,0.0,0.0,0.0,0.0,0.0
217532581,217341729,0.09666721,0.096681654,0.20703948,1.2937859,1.2936814,3.4893217,0.0,0.0,0.0,0.0,0.0,0.0,0.0,12.426087,0.0,0.0,0.0,0.0,0.0,0.0,0.0025229224,0.0025229224,0.0025223615,0.0025199535,1.0000316,1.000033,1.0,0.0,0.0,0.0,0.0,0.0,0.0
218032602,217841729,0.096570134,0.09656935,0.20700905,1.293629,1.2935525,3.437772,0.0,0.0,0.0,0.0,0.0,0.0,0.0,12.426618,0.0,0.0,0.0,0.0,0.0,0.0,0.002554699,0.002554699,0.0025217663,0.002542777,1.0000297,1.0000329,1.0000018,0.0,0.0,0.0,0.0,0.0,0.0
218532636,218341729,0.098050766,0.09669961,0.207007,1.297953,1.2979274,3.4340978,0.0,0.0,0.0,0.0,0.0,0.0,0.0,12.426535,0.0,0.0,0.0,0.0,0.0,0.0,0.0025597785,0.0025597785,0.0025204632,0.0025489484,1.0000286,1.0000323,1.0000027,0.0,0.0,0.0,0.0,0.0,0.0
219032430,218841729,0.09762066,0.09667739,0.20700118,1.304649,1.304647,3.4233506,0.0,0.0,0.0,0.0,0.0,0.0,0.0,12.426586,0.0,0.0,0.0,0.0,0.0,0.0,0.0025211042,0.0025211042,0.002519442,0.0025179929,1.0000311,1.000032,1.0,0.0,0.0,0.0,0.0,0.0,0.0
219532360,219341729,0.09665352,0.0964624,0.20699352,1.313654,1.3136554,3.4232829,0.0,0.0,0.0,0.0,0.0,0.0,0.0,12.426927,0.0,0.0,0.0,0.0,0.0,0.0,0.0025185063,0.0025185063,0.0025182979,0.0025164594,1.000031,1.000032,1.0000002,0.0,0.0,0.0,0.0,0.0,0.0
220032433,219841729,0.09952752,0.09944207,0.21381111,1.3204521,1.3204545,3.4268808,0.0,0.0,0.0,0.0,0.0,0.0,0.0,12.426775,0.0,0.0,0.0,0.0,0.0,0.0,0.0025189235,0.0025189235,0.0025176946,0.002516278,1.0000308,1.0000321,1.0000004,0.0,0.0,0.0,0.0,0.0,0.0
221032273,220841729,0.09648117,0.09647961,0.20703144,1.3320625,1.3320652,3.4233687,0.0,0.0,0.0,0.0,0.0,0.0,0.0,12.426696,0.0,0.0,0.0,0.0,0.0,0.0,0.002519577,0.002519577,0.0025166215,0.0025167337,1.0000314,1.0000324,1.0,0.0,0.0,0.0,0.0,0.0,0.0
221532179,221341729,0.09660094,0.09647081,0.20701881,1.3297547,1.3297573,3.4088588,0.0,0.0,0.0,0.0,0.0,0.0,0.0,12.426948,0.0,0.0,0.0,0.0,0.0,0.0,0.0025205992,0.0025205992,0.0025168331,0.0025167,1.0000312,1.0000323,1.0,0.0,0.0,0.0,0.0,0.0,0.0
222032201,221841729,0.09675157,0.096489884,0.20700306,1.3206229,1.3206236,3.3612545,0.0,0.0,0.0,0.0,0.0,0.0,0.0,12.426327,0.0,0.0,0.0,0.0,0.0,0.0,0.0025199156,0.0025199156,0.0025172527,0.0025150042,1.0000311,1.0000322,1.0,0.0,0.0,0.0,0.0,0.0,0.0
223032224,222841729,0.09644958,0.09640242,0.20696366,1.3091816,1.3091784,3.2995331,0.0,0.0,0.0,0.0,0.0,0.0,0.0,12.426584,0.0,0.0,0.0,0.0,0.0,0.0,0.0025156718,0.0025156718,0.0025149982,0.0025126485,1.0000309,1.0000321,1.0,0.0,0.0,0.0,0.0,0.0,0.0
223532205,223341734,0.09642335,0.09641979,0.20693961,1.3091216,1.3091177,3.2776797,0.0,0.0,0.0,0.0,0.0,0.0,0.0,12.426318,0.0,0.0,0.0,0.0,0.0,0.0,0.0025154431,0.0025154431,0.0025143707,0.002512688,1.0000308,1.0000322,1.0,0.0,0.0,0.0,0.0,0.0,0.0
224032187,223841729,0.09637475,0.09637786,0.20691966,1.3022927,1.3022897,3.2523167,0.0,0.0,0.0,0.0,0.0,0.0,0.0,12.425618,0.0,0.0,0.0,0.0,0.0,0.0,0.0025200867,0.0025200867,0.0025176972,0.0025160552,1.0000308,1.000032,1.0,0.0,0.0,0.0,0.0,0.0,0.0
224532215,224341729,0.096388526,0.09640601,0.20691064,1.299975,1.2999735,3.237733,0.0,0.0,0.0,0.0,0.0,0.0,0.0,12.425712,0.0,0.0,0.0,0.0,0.0,0.0,0.0025150813,0.0025150813,0.0025142522,0.002512182,1.0000306,1.000032,1.0,0.0,0.0,0.0,0.0,0.0,0.0
225032248,224841729,0.1030975,0.10311072,0.22202316,1.2999194,1.2999194,3.2484775,0.0,0.0,0.0,0.0,0.0,0.0,0.0,12.425875,0.0,0.0,0.0,0.0,0.0,0.0,0.0025148843,0.0025148843,0.0025138196,0.0025115595,1.0000306,1.000032,1.0,0.0,0.0,0.0,0.0,0.0,0.0
226032443,225841732,0.096372455,0.096368164,0.20688681,1.3043041,1.3043071,3.2337358,0.0,0.0,0.0,0.0,0.0,0.0,0.0,12.425102,0.0,0.0,0.0,0.0,0.0,0.0,0.0025135037,0.002513289,0.0025135037,0.0025111942,1.0000303,1.0000315,1.0000001,0.0,0.0,0.0,0.0,0.0,0.0
226532206,226341729,0.096393526,0.09642447,0.20689984,1.3067013,1.3067045,3.2374392,0.0,0.0,0.0,0.0,0.0,0.0,0.0,12.425293,0.0,0.0,0.0,0.0,0.0,0.0,0.0025136059,0.0025134,0.0025136059,0.0025113767,1.0000305,1.0000318,1.0000001,0.0,0.0,0.0,0.0,0.0,0.0
227032219,226841729,0.09638438,0.0963965,0.20689835,1.3112127,1.3112164,3.2337008,0.0,0.0,0.0,0.0,0.0,0.0,0.0,12.424719,0.0,0.0,0.0,0.0,0.0,0.0,0.0025140035,0.0025132205,0.0025140035,0.0025121414,1.0000304,1.0000318,1.0000002,0.0,0.0,0.0,0.0,0.0,0.0
227532220,227341729,0.09639551,0.0963654,0.20689704,1.3089409,1.3089447,3.2121732,0.0,0.0,0.0,0.0,0.0,0.0,0.0,12.424922,0.0,0.0,0.0,0.0,0.0,0.0,0.002513634,0.0025129365,0.002513634,0.0025115053,1.0000305,1.0000317,1.0000001,0.0,0.0,0.0,0.0,0.0,0.0
228032185,227841729,0.09643671,0.096405,0.20690724,1.3021623,1.3021659,3.1803603,0.0,0.0,0.0,0.0,0.0,0.0,0.0,12.425105,0.0,0.0,0.0,0.0,0.0,0.0,0.0025141325,0.0025141325,0.0025141255,0.0025111223,1.0000305,1.0000317,1.0000002,0.0,0.0,0.0,0.0,0.0,0.0
228532219,228341729,0.0964408,0.09638379,0.20690693,1.2953832,1.2953857,3.151928,0.0,0.0,0.0,0.0,0.0,0.0,0.0,12.424109,0.0,0.0,0.0,0.0,0.0,0.0,0.0025176068,0.0025134853,0.0025176068,0.0025162855,1.0000305,1.0000315,1.0000002,0.0,0.0,0.0,0.0,0.0,0.0
229032227,228841729,0.09642999,0.0963946,0.20689857,1.2908465,1.2908478,3.1236057,0.0,0.0,0.0,0.0,0.0,0.0,0.0,12.424244,0.0,0.0,0.0,0.0,0.0,0.0,0.0025146334,0.0025146334,0.002513049,0.0025089711,1.0000305,1.0000316,1.0,0.0,0.0,0.0,0.0,0.0,0.0
229532170,229341729,0.09635073,0.0963495,0.20690463,1.2863069,1.286308,3.0956666,0.0,0.0,0.0,0.0,0.0,0.0,0.0,12.424368,0.0,0.0,0.0,0.0,0.0,0.0,0.002512315,0.002512315,0.0025115672,0.0025090503,1.0000305,1.0000316,1.0000001,0.0,0.0,0.0,0.0,0.0,0.0
230032215,229841728,0.0963585,0.09636085,0.20690002,1.279541,1.2795424,3.0745244,0.0,0.0,0.0,0.0,0.0,0.0,0.0,12.424493,0.0,0.0,0.0,0.0,0.0,0.0,0.0025129702,0.0025129702,0.0025120217,0.0025089863,1.0000305,1.0000316,1.0000001,0.0,0.0,0.0,0.0,0.0,0.0
230532213,230341729,0.09633969,0.09634402,0.20689607,1.2750176,1.2750195,3.049996,0.0,0.0,0.0,0.0,0.0,0.0,0.0,12.4234705,0.0,0.0,0.0,0.0,0.0,0.0,0.0025118578,0.0025118578,0.002511145,0.0025085406,1.0000305,1.0000315,1.0,0.0,0.0,0.0,0.0,0.0,0.0
231032216,230841729,0.0963926,0.09639646,0.20689818,1.2682759,1.2682784,3.0290108,0.0,0.0,0.0,0.0,0.0,0.0,0.0,12.423596,0.0,0.0,0.0,0.0,0.0,0.0,0.0025116696,0.0025116696,0.0025108384,0.0025082855,1.0000305,1.0000314,1.0,0.0,0.0,0.0,0.0,0.0,0.0
231532199,231341729,0.09635866,0.09636097,0.20688963,1.2637618,1.263765,3.0049253,0.0,0.0,0.0,0.0,0.0,0.0,0.0,12.423721,0.0,0.0,0.0,0.0,0.0,0.0,0.0025115446,0.0025115446,0.0025107,0.0025080682,1.0000303,1.0000314,1.0000001,0.0,0.0,0.0,0.0,0.0,0.0
232032196,231841729,0.096344754,0.09634626,0.20687944,1.2570426,1.2570457,2.9840953,0.0,0.0,0.0,0.0,0.0,0.0,0.0,12.423054,0.0,0.0,0.0,0.0,0.0,0.0,0.0025114703,0.0025114703,0.002510584,0.0025080522,1.0000304,1.0000314,1.0,0.0,0.0,0.0,0.0,0.0,0.0
232532217,232341729,0.09632454,0.09633016,0.20686913,1.2525473,1.2525507,2.9633365,0.0,0.0,0.0,0.0,0.0,0.0,0.0,12.423172,0.0,0.0,0.0,0.0,0.0,0.0,0.0025116976,0.0025116976,0.0025107234,0.0025082866,1.0000304,1.0000312,1.0,0.0,0.0,0.0,0.0,0.0,0.0
233032425,232841729,0.09627882,0.096290514,0.20685288,1.2456918,1.245696,2.9391727,0.0,0.0,0.0,0.0,0.0,0.0,0.0,12.423294,0.0,0.0,0.0,0.0,0.0,0.0,0.002511552,0.002511552,0.0025114508,0.0025085842,1.00003,1.0000309,1.0000001,0.0,0.0,0.0,0.0,0.0,0.0
233532183,233341729,0.096319355,0.09636214,0.20686693,1.2413996,1.2414045,2.9223053,0.0,0.0,0.0,0.0,0.0,0.0,0.0,12.4222765,0.0,0.0,0.0,0.0,0.0,0.0,0.0025111306,0.0025111306,0.0025103355,0.002507527,1.0000305,1.0000312,1.0,0.0,0.0,0.0,0.0,0.0,0.0
235032278,234841729,0.09634677,0.096389465,0.20686081,1.2280484,1.2280536,2.871254,0.0,0.0,0.0,0.0,0.0,0.0,0.0,12.42267,0.0,0.0,0.0,0.0,0.0,0.0,0.0025119241,0.0025119241,0.0025108112,0.0025075686,1.0000305,1.0000314,1.0,0.0,0.0,0.0,0.0,0.0,0.0
235532204,235341729,0.09626391,0.096318156,0.20683953,1.2256323,1.2256382,2.8540728,0.0,0.0,0.0,0.0,0.0,0.0,0.0,12.422018,0.0,0.0,0.0,0.0,0.0,0.0,0.0025112447,0.0025112447,0.0025101695,0.0025070177,1.0000304,1.0000312,1.0,0.0,0.0,0.0,0.0,0.0,0.0
236532173,236341729,0.09637229,0.09636459,0.20684749,1.2169667,1.2169725,2.8206894,0.0,0.0,0.0,0.0,0.0,0.0,0.0,12.42195,0.0,0.0,0.0,0.0,0.0,0.0,0.0025126713,0.0025126713,0.002511249,0.002507217,1.0000305,1.0000312,1.0,0.0,0.0,0.0,0.0,0.0,0.0
237032231,236841729,0.09634691,0.09635686,0.20683959,1.2125492,1.2125554,2.7972193,0.0,0.0,0.0,0.0,0.0,0.0,0.0,12.4213085,0.0,0.0,0.0,0.0,0.0,0.0,0.0025107006,0.0025107006,0.0025094848,0.0025066875,1.0000305,1.0000312,1.0,0.0,0.0,0.0,0.0,0.0,0.0
237532205,237341729,0.09633526,0.09634561,0.20683129,1.205975,1.2059819,2.7771404,0.0,0.0,0.0,0.0,0.0,0.0,0.0,12.421444,0.0,0.0,0.0,0.0,0.0,0.0,0.0025105479,0.0025105479,0.0025099583,0.0025070591,1.0000304,1.0000312,1.0000001,0.0,0.0,0.0,0.0,0.0,0.0
238032199,237841729,0.096340224,0.09635018,0.20683093,1.2015837,1.2015909,2.757373,0.0,0.0,0.0,0.0,0.0,0.0,0.0,12.4215765,0.0,0.0,0.0,0.0,0.0,0.0,0.0025124282,0.0025124282,0.0025104724,0.0025071881,1.0000304,1.0000312,1.0,0.0,0.0,0.0,0.0,0.0,0.0
238532170,238341729,0.09634082,0.096351005,0.20682329,1.1950358,1.1950434,2.737429,0.0,0.0,0.0,0.0,0.0,0.0,0.0,12.420563,0.0,0.0,0.0,0.0,0.0,0.0,0.0025126229,0.0025126229,0.0025109109,0.0025077802,1.0000304,1.0000312,1.0,0.0,0.0,0.0,0.0,0.0,0.0
239032213,238841729,0.09633266,0.09632482,0.20681837,1.190648,1.1906561,2.717553,0.0,0.0,0.0,0.0,0.0,0.0,0.0,12.420678,0.0,0.0,0.0,0.0,0.0,0.0,0.0025132569,0.0025132569,0.0025104336,0.002507653,1.0000304,1.0000311,1.0,0.0,0.0,0.0,0.0,0.0,0.0
239532208,239341729,0.096270375,0.096245736,0.20680746,1.1861119,1.1861198,2.701061,0.0,0.0,0.0,0.0,0.0,0.0,0.0,12.420802,0.0,0.0,0.0,0.0,0.0,0.0,0.0025153474,0.002510975,0.0025153474,0.0025146368,1.0000304,1.00003,1.0000012,0.0,0.0,0.0,0.0,0.0,0.0
240032214,239841729,0.09608407,0.09703941,0.20683104,1.1797504,1.1797645,2.6847563,0.0,0.0,0.0,0.0,0.0,0.0,0.0,12.420932,0.0,0.0,0.0,0.0,0.0,0.0,0.0025386987,0.0025133414,0.0025327648,0.0025386987,1.0000306,1.0000302,1.0000013,0.0,0.0,0.0,0.0,0.0,0.0
240532213,240341729,0.09623262,0.09775603,0.2068407,1.1732515,1.1732913,2.6650875,0.0,0.0,0.0,0.0,0.0,0.0,0.0,12.420277,0.0,0.0,0.0,0.0,0.0,0.0,0.0025122345,0.0025117516,0.0025122345,0.002509745,1.000031,1.0000315,1.0000001,0.0,0.0,0.0,0.0,0.0,0.0
241032216,240841729,0.09633062,0.09686413,0.20684141,1.1667714,1.1668279,2.6487167,0.0,0.0,0.0,0.0,0.0,0.0,0.0,12.42041,0.0,0.0,0.0,0.0,0.0,0.0,0.0025111232,0.0025111232,0.0025099248,0.002506229,1.0000311,1.0000315,1.0,0.0,0.0,0.0,0.0,0.0,0.0
241532262,241341729,0.09637694,0.09638107,0.20683149,1.1624343,1.1624837,2.6294186,0.0,0.0,0.0,0.0,0.0,0.0,0.0,12.420546,0.0,0.0,0.0,0.0,0.0,0.0,0.0025125598,0.0025109695,0.0025125598,0.0025095975,1.000031,1.0000312,1.0000002,0.0,0.0,0.0,0.0,0.0,0.0
242032185,241841729,0.09638859,0.09663832,0.20682536,1.1559874,1.1560159,2.6099613,0.0,0.0,0.0,0.0,0.0,0.0,0.0,12.41954,0.0,0.0,0.0,0.0,0.0,0.0,0.0025125367,0.0025107935,0.0025125367,0.002509907,1.0000308,1.000031,1.0000004,0.0,0.0,0.0,0.0,0.0,0.0
242532176,242341729,0.0963653,0.09704467,0.20682825,1.1495548,1.1495671,2.5905707,0.0,0.0,0.0,0.0,0.0,0.0,0.0,12.419665,0.0,0.0,0.0,0.0,0.0,0.0,0.0025116114,0.0025108187,0.0025116114,0.0025088033,1.0000304,1.0000309,1.0000002,0.0,0.0,0.0,0.0,0.0,0.0
243032225,242841729,0.09634078,0.09709959,0.20682243,1.1431379,1.1431469,2.5714755,0.0,0.0,0.0,0.0,0.0,0.0,0.0,12.419791,0.0,0.0,0.0,0.0,0.0,0.0,0.002510153,0.002510153,0.0025096,0.0025064975,1.0000304,1.0000308,1.0000001,0.0,0.0,0.0,0.0,0.0,0.0
243532223,243341729,0.09635626,0.09730187,0.20682369,1.1388417,1.1388576,2.552226,0.0,0.0,0.0,0.0,0.0,0.0,0.0,12.418792,0.0,0.0,0.0,0.0,0.0,0.0,0.0025568046,0.0025160701,0.0025492678,0.0025568046,1.0000296,1.0000278,1.0000038,0.0,0.0,0.0,0.0,0.0,0.0
244032196,243841729,0.09625938,0.09865914,0.20683141,1.1344012,1.134442,2.5328698,0.0,0.0,0.0,0.0,0.0,0.0,0.0,12.418923,0.0,0.0,0.0,0.0,0.0,0.0,0.0025147854,0.0025099558,0.0025147854,0.0025132045,1.0000306,1.0000303,1.0000006,0.0,0.0,0.0,0.0,0.0,0.0
244532167,244341729,0.096311234,0.09743252,0.20682772,1.1302986,1.1303722,2.5173142,0.0,0.0,0.0,0.0,0.0,0.0,0.0,12.419059,0.0,0.0,0.0,0.0,0.0,0.0,0.0025095085,0.0025095085,0.0025084745,0.0025055362,1.0000314,1.0000306,1.0,0.0,0.0,0.0,0.0,0.0,0.0
245032259,244841729,0.09627814,0.09635952,0.20680037,1.1260383,1.1261075,2.5014007,0.0,0.0,0.0,0.0,0.0,0.0,0.0,12.419189,0.0,0.0,0.0,0.0,0.0,0.0,0.002510984,0.002510063,0.002510984,0.0025090505,1.0000317,1.0000305,1.0000001,0.0,0.0,0.0,0.0,0.0,0.0
246032192,245841729,0.096265554,0.09706161,0.20679048,1.117537,1.1175572,2.469716,0.0,0.0,0.0,0.0,0.0,0.0,0.0,12.4186535,0.0,0.0,0.0,0.0,0.0,0.0,0.0025105444,0.002509714,0.0025105444,0.0025082966,1.0000312,1.0000306,1.0000001,0.0,0.0,0.0,0.0,0.0,0.0
246532207,246341729,0.09627423,0.097254135,0.2067883,1.1133043,1.1133206,2.4572773,0.0,0.0,0.0,0.0,0.0,0.0,0.0,12.418789,0.0,0.0,0.0,0.0,0.0,0.0,0.0025096645,0.0025096645,0.0025088228,0.0025060566,1.0000308,1.0000306,1.0,0.0,0.0,0.0,0.0,0.0,0.0
247032272,246841729,0.09630262,0.097847335,0.20679282,1.1111606,1.1111896,2.44466,0.0,0.0,0.0,0.0,0.0,0.0,0.0,12.417799,0.0,0.0,0.0,0.0,0.0,0.0,0.0025594889,0.002518602,0.0025463358,0.0025594889,1.00003,1.000028,1.000003,0.0,0.0,0.0,0.0,0.0,0.0
248032418,247841729,0.09632769,0.09667443,0.20677331,1.1025889,1.1026701,2.4194722,0.0,0.0,0.0,0.0,0.0,0.0,0.0,12.418111,0.0,0.0,0.0,0.0,0.0,0.0,0.0025130045,0.0025101285,0.0025130045,0.0025100915,1.0000297,1.0000296,1.0000005,0.0,0.0,0.0,0.0,0.0,0.0
248532176,248341729,0.096382394,0.09638811,0.20677847,1.100638,1.1007055,2.4103553,0.0,0.0,0.0,0.0,0.0,0.0,0.0,12.4175005,0.0,0.0,0.0,0.0,0.0,0.0,0.0025163395,0.0025103395,0.0025163395,0.0025138354,1.0000299,1.0000296,1.0000007,0.0,0.0,0.0,0.0,0.0,0.0
249032212,248841729,0.09635445,0.096737795,0.20677881,1.0985175,1.098554,2.397889,0.0,0.0,0.0,0.0,0.0,0.0,0.0,12.417664,0.0,0.0,0.0,0.0,0.0,0.0,0.0025123458,0.0025098787,0.0025123458,0.002509722,1.0000297,1.0000298,1.0000005,0.0,0.0,0.0,0.0,0.0,0.0
249532204,249341729,0.09632151,0.09704938,0.2067886,1.0964055,1.0964216,2.3887239,0.0,0.0,0.0,0.0,0.0,0.0,0.0,12.417485,0.0,0.0,0.0,0.0,0.0,0.0,0.0025108417,0.0025098652,0.0025108417,0.0025077227,1.0000296,1.0000298,1.0000002,0.0,0.0,0.0,0.0,0.0,0.0
250032218,249841729,0.09628541,0.09696245,0.20678687,1.0963646,1.0963763,2.3793783,0.0,0.0,0.0,0.0,0.0,0.0,0.0,12.417676,0.0,0.0,0.0,0.0,0.0,0.0,0.002509415,0.002509415,0.0025086962,0.0025054724,1.0000298,1.0000299,1.0000001,0.0,0.0,0.0,0.0,0.0,0.0
250532167,250341729,0.09625426,0.0965807,0.20677738,1.0942659,1.0942807,2.3670123,0.0,0.0,0.0,0.0,0.0,0.0,0.0,12.4170885,0.0,0.0,0.0,0.0,0.0,0.0,0.002509473,0.002509473,0.0025083357,0.002504871,1.0000299,1.00003,1.0,0.0,0.0,0.0,0.0,0.0,0.0
251032229,250841729,0.09618177,0.09622559,0.20677237,1.0921646,1.0921806,2.357714,0.0,0.0,0.0,0.0,0.0,0.0,0.0,12.417278,0.0,0.0,0.0,0.0,0.0,0.0,0.0025102568,0.002509408,0.0025102568,0.002507268,1.0000302,1.00003,1.0000001,0.0,0.0,0.0,0.0,0.0,0.0
251532240,251341729,0.09614492,0.096216656,0.20676503,1.0900633,1.0900772,2.351682,0.0,0.0,0.0,0.0,0.0,0.0,0.0,12.4174795,0.0,0.0,0.0,0.0,0.0,0.0,0.0025100994,0.0025094915,0.0025100994,0.002507072,1.0000304,1.0000303,1.0000001,0.0,0.0,0.0,0.0,0.0,0.0
252032185,251841729,0.09616129,0.096381545,0.20676325,1.0900292,1.0900424,2.3484938,0.0,0.0,0.0,0.0,0.0,0.0,0.0,12.416562,0.0,0.0,0.0,0.0,0.0,0.0,0.0025092512,0.0025092512,0.0025087756,0.0025056102,1.0000305,1.0000305,1.0,0.0,0.0,0.0,0.0,0.0,0.0
252532221,252341729,0.09620454,0.096480824,0.20676887,1.0879418,1.0879586,2.3453207,0.0,0.0,0.0,0.0,0.0,0.0,0.0,12.416781,0.0,0.0,0.0,0.0,0.0,0.0,0.0025093798,0.0025093798,0.0025080033,0.002504625,1.0000304,1.0000308,1.0000001,0.0,0.0,0.0,0.0,0.0,0.0
253032224,252841729,0.09622927,0.09640219,0.20676824,1.089983,1.0900044,2.3453991,0.0,0.0,0.0,0.0,0.0,0.0,0.0,12.417021,0.0,0.0,0.0,0.0,0.0,0.0,0.0025095858,0.0025095858,0.0025082636,0.0025046477,1.0000305,1.0000309,1.0000001,0.0,0.0,0.0,0.0,0.0,0.0
253532249,253341729,0.09610236,0.09628269,0.20676957,1.0920275,1.0920539,2.3452897,0.0,0.0,0.0,0.0,0.0,0.0,0.0,12.416495,0.0,0.0,0.0,0.0,0.0,0.0,0.0025159852,0.002509834,0.0025159852,0.00251443,1.0000306,1.0000304,1.0000007,0.0,0.0,0.0,0.0,0.0,0.0
254032374,253841729,0.09608303,0.09634949,0.20676298,1.0939289,1.0939649,2.3511937,0.0,0.0,0.0,0.0,0.0,0.0,0.0,12.416769,0.0,0.0,0.0,0.0,0.0,0.0,0.0025098193,0.0025098193,0.0025079292,0.0025044389,1.0000306,1.0000311,1.0,0.0,0.0,0.0,0.0,0.0,0.0
254532187,254341729,0.0961885,0.096278936,0.20677555,1.0961653,1.0962056,2.3574739,0.0,0.0,0.0,0.0,0.0,0.0,0.0,12.4170685,0.0,0.0,0.0,0.0,0.0,0.0,0.0025102252,0.0025102252,0.0025101327,0.002506507,1.000031,1.0000314,1.0000002,0.0,0.0,0.0,0.0,0.0,0.0
255032417,254841729,0.09621983,0.09626409,0.20676367,1.1022569,1.1022869,2.369539,0.0,0.0,0.0,0.0,0.0,0.0,0.0,12.416264,0.0,0.0,0.0,0.0,0.0,0.0,0.0025114266,0.002510377,0.0025114266,0.0025086002,1.0000308,1.0000309,1.0000005,0.0,0.0,0.0,0.0,0.0,0.0
255532388,255341729,0.09635299,0.096518695,0.2067667,1.1106113,1.110631,2.3847806,0.0,0.0,0.0,0.0,0.0,0.0,0.0,12.416607,0.0,0.0,0.0,0.0,0.0,0.0,0.002510094,0.002510094,0.0025085106,0.002505264,1.0000306,1.0000311,1.0000002,0.0,0.0,0.0,0.0,0.0,0.0
256032188,255841729,0.096408494,0.09654809,0.2067701,1.1252859,1.1253014,2.4032516,0.0,0.0,0.0,0.0,0.0,0.0,0.0,12.416997,0.0,0.0,0.0,0.0,0.0,0.0,0.0025099618,0.0025099618,0.0025083637,0.0025043497,1.0000309,1.0000314,1.0000001,0.0,0.0,0.0,0.0,0.0,0.0
256532386,256341730,0.10887265,0.10891532,0.23468135,1.1529064,1.1529201,2.4372036,0.0,0.0,0.0,0.0,0.0,0.0,0.0,12.417133,0.0,0.0,0.0,0.0,0.0,0.0,0.0025095707,0.0025095707,0.0025078696,0.0025042272,1.0000303,1.0000308,1.0000001,0.0,0.0,0.0,0.0,0.0,0.0
257532207,257341729,0.096778326,0.09679825,0.20688222,1.1819764,1.1819931,2.46602,0.0,0.0,0.0,0.0,0.0,0.0,0.0,12.417818,0.0,0.0,0.0,0.0,0.0,0.0,0.0025094037,0.0025094037,0.0025075946,0.002504112,1.0000304,1.0000309,1.0000001,0.0,0.0,0.0,0.0,0.0,0.0
258032200,257841729,0.09654515,0.096582234,0.20685333,1.1798042,1.1798205,2.4631474,0.0,0.0,0.0,0.0,0.0,0.0,0.0,12.418209,0.0,0.0,0.0,0.0,0.0,0.0,0.0025095355,0.0025095355,0.0025076487,0.0025039536,1.0000302,1.0000305,1.0,0.0,0.0,0.0,0.0,0.0,0.0
258532357,258341729,0.09655358,0.096689716,0.20682354,1.1839147,1.183932,2.4911366,0.0,0.0,0.0,0.0,0.0,0.0,0.0,12.417789,0.0,0.0,0.0,0.0,0.0,0.0,0.0025100568,0.0025100568,0.0025077502,0.002505217,1.0000294,1.0000299,1.0,0.0,0.0,0.0,0.0,0.0,0.0
259032217,258841731,0.09643864,0.09650631,0.20682043,1.1840582,1.1840774,2.494326,0.0,0.0,0.0,0.0,0.0,0.0,0.0,12.418173,0.0,0.0,0.0,0.0,0.0,0.0,0.002510019,0.002510019,0.0025074917,0.002505014,1.0000297,1.00003,1.0,0.0,0.0,0.0,0.0,0.0,0.0
259532207,259341729,0.09636624,0.0962896,0.20680289,1.1838666,1.1838847,2.497482,0.0,0.0,0.0,0.0,0.0,0.0,0.0,12.418542,0.0,0.0,0.0,0.0,0.0,0.0,0.0025095115,0.0025095115,0.0025082792,0.0025051185,1.0000296,1.00003,1.0000001,0.0,0.0,0.0,0.0,0.0,0.0
260032230,259841729,0.09630528,0.096213594,0.20680329,1.1818421,1.1818572,2.4913807,0.0,0.0,0.0,0.0,0.0,0.0,0.0,12.417725,0.0,0.0,0.0,0.0,0.0,0.0,0.002509361,0.002509361,0.0025084266,0.0025047816,1.0000297,1.0000303,1.0000001,0.0,0.0,0.0,0.0,0.0,0.0
260532176,260341729,0.09622479,0.09618747,0.2067921,1.1796502,1.1796623,2.4881957,0.0,0.0,0.0,0.0,0.0,0.0,0.0,12.418026,0.0,0.0,0.0,0.0,0.0,0.0,0.0025095535,0.0025095535,0.0025088931,0.002505244,1.0000298,1.0000304,1.0000002,0.0,0.0,0.0,0.0,0.0,0.0
261032252,260841729,0.09621388,0.096233845,0.20678735,1.1774606,1.1774716,2.4820886,0.0,0.0,0.0,0.0,0.0,0.0,0.0,12.418306,0.0,0.0,0.0,0.0,0.0,0.0,0.0025097113,0.0025097113,0.0025093157,0.0025047176,1.00003,1.0000305,1.0000001,0.0,0.0,0.0,0.0,0.0,0.0
261532234,261341729,0.09622998,0.09628541,0.20677823,1.1752737,1.1752844,2.475757,0.0,0.0,0.0,0.0,0.0,0.0,0.0,12.41857,0.0,0.0,0.0,0.0,0.0,0.0,0.0025092314,0.0025092314,0.002508358,0.0025044824,1.0000303,1.0000308,1.0000001,0.0,0.0,0.0,0.0,0.0,0.0
262032192,261841729,0.09632124,0.09633108,0.20677178,1.1773711,1.1773834,2.47253,0.0,0.0,0.0,0.0,0.0,0.0,0.0,12.418031,0.0,0.0,0.0,0.0,0.0,0.0,0.0025095316,0.0025095316,0.0025077683,0.0025043876,1.0000303,1.0000308,1.0000001,0.0,0.0,0.0,0.0,0.0,0.0
262532175,262341729,0.096470214,0.09635933,0.20677383,1.1773487,1.1773639,2.4661906,0.0,0.0,0.0,0.0,0.0,0.0,0.0,12.417925,0.0,0.0,0.0,0.0,0.0,0.0,0.0025098375,0.0025098375,0.002507752,0.002504805,1.0000302,1.0000308,1.0000002,0.0,0.0,0.0,0.0,0.0,0.0
263032217,262841729,0.096537985,0.096377626,0.20677282,1.1773325,1.1773494,2.4631774,0.0,0.0,0.0,0.0,0.0,0.0,0.0,12.418179,0.0,0.0,0.0,0.0,0.0,0.0,0.0025106696,0.0025106696,0.0025078543,0.0025050486,1.00003,1.0000308,1.0000002,0.0,0.0,0.0,0.0,0.0,0.0
263532210,263341729,0.09654456,0.09641321,0.20677319,1.1794642,1.1794811,2.4599528,0.0,0.0,0.0,0.0,0.0,0.0,0.0,12.417649,0.0,0.0,0.0,0.0,0.0,0.0,0.0025103511,0.0025103511,0.0025078366,0.0025038663,1.0000299,1.0000306,1.0000001,0.0,0.0,0.0,0.0,0.0,0.0
264032178,263841729,0.09649494,0.09640414,0.20677078,1.1816101,1.1816256,2.4598413,0.0,0.0,0.0,0.0,0.0,0.0,0.0,12.417908,0.0,0.0,0.0,0.0,0.0,0.0,0.0025105001,0.0025105001,0.0025088124,0.0025044738,1.00003,1.0000306,1.0000001,0.0,0.0,0.0,0.0,0.0,0.0
264532170,264341729,0.0965106,0.09644086,0.20677562,1.18377,1.1837847,2.4630568,0.0,0.0,0.0,0.0,0.0,0.0,0.0,12.418178,0.0,0.0,0.0,0.0,0.0,0.0,0.0025166445,0.0025166445,0.0025093046,0.0025166343,1.000029,1.0000306,1.0000011,0.0,0.0,0.0,0.0,0.0,0.0
265032226,264841729,0.096673995,0.09636155,0.20678179,1.1859428,1.185951,2.4660773,0.0,0.0,0.0,0.0,0.0,0.0,0.0,12.417332,0.0,0.0,0.0,0.0,0.0,0.0,0.002512615,0.002512615,0.0025073604,0.002507778,1.0000294,1.0000308,1.0000005,0.0,0.0,0.0,0.0,0.0,0.0
265532393,265341729,0.09653464,0.09623734,0.20677711,1.190128,1.1901263,2.469056,0.0,0.0,0.0,0.0,0.0,0.0,0.0,12.41763,0.0,0.0,0.0,0.0,0.0,0.0,0.0025106082,0.0025106082,0.0025069623,0.002504706,1.0000294,1.0000308,1.0000002,0.0,0.0,0.0,0.0,0.0,0.0
266032374,265841729,0.09634895,0.09625464,0.2067743,1.1880064,1.1880002,2.465885,0.0,0.0,0.0,0.0,0.0,0.0,0.0,12.417933,0.0,0.0,0.0,0.0,0.0,0.0,0.0025098296,0.0025098296,0.0025069774,0.002503636,1.0000296,1.000031,1.0,0.0,0.0,0.0,0.0,0.0,0.0
266532245,266341729,0.096294865,0.09630831,0.20678473,1.1903278,1.1903249,2.4692056,0.0,0.0,0.0,0.0,0.0,0.0,0.0,12.418237,0.0,0.0,0.0,0.0,0.0,0.0,0.002510959,0.002510959,0.0025073274,0.0025058847,1.0000299,1.0000315,1.0,0.0,0.0,0.0,0.0,0.0,0.0
267032420,266841729,0.09648235,0.09628013,0.20677046,1.1944954,1.1945062,2.4753127,0.0,0.0,0.0,0.0,0.0,0.0,0.0,12.417763,0.0,0.0,0.0,0.0,0.0,0.0,0.002511562,0.002511562,0.0025075243,0.0025070761,1.0000297,1.0000309,1.0000001,0.0,0.0,0.0,0.0,0.0,0.0
267532486,267341729,0.09677831,0.0962909,0.20677024,1.1988454,1.1988642,2.4815056,0.0,0.0,0.0,0.0,0.0,0.0,0.0,12.418088,0.0,0.0,0.0,0.0,0.0,0.0,0.0025112256,0.0025112256,0.0025075383,0.002506931,1.0000297,1.0000306,1.0000001,0.0,0.0,0.0,0.0,0.0,0.0
268032240,267841729,0.09687726,0.09629467,0.20677193,1.1967155,1.1967344,2.4815614,0.0,0.0,0.0,0.0,0.0,0.0,0.0,12.418419,0.0,0.0,0.0,0.0,0.0,0.0,0.0025108994,0.0025108994,0.0025072454,0.002505856,1.0000298,1.0000309,1.0,0.0,0.0,0.0,0.0,0.0,0.0
268532358,268341729,0.09676542,0.096318044,0.2067716,1.1967546,1.1967674,2.4754012,0.0,0.0,0.0,0.0,0.0,0.0,0.0,12.417598,0.0,0.0,0.0,0.0,0.0,0.0,0.0025099206,0.0025099206,0.002507156,0.0025044791,1.0000297,1.0000304,1.0,0.0,0.0,0.0,0.0,0.0,0.0
269032432,268841729,0.09659311,0.096300274,0.2067686,1.1967839,1.1967903,2.4753494,0.0,0.0,0.0,0.0,0.0,0.0,0.0,12.41791,0.0,0.0,0.0,0.0,0.0,0.0,0.0025093446,0.0025093446,0.002507232,0.002503686,1.0000297,1.0000303,1.0,0.0,0.0,0.0,0.0,0.0,0.0
269532393,269341729,0.09684737,0.09632372,0.20677127,1.198982,1.1989774,2.4784153,0.0,0.0,0.0,0.0,0.0,0.0,0.0,12.418235,0.0,0.0,0.0,0.0,0.0,0.0,0.0025288076,0.0025288076,0.0025244297,0.0025090433,1.0000292,1.0000306,1.0000002,0.0,0.0,0.0,0.0,0.0,0.0
270032375,269841729,0.096621275,0.09638576,0.20677353,1.1990194,1.1990057,2.478581,0.0,0.0,0.0,0.0,0.0,0.0,0.0,12.417428,0.0,0.0,0.0,0.0,0.0,0.0,0.002635146,0.002622344,0.002635146,0.0025033762,1.0000293,1.0000306,1.0,0.0,0.0,0.0,0.0,0.0,0.0
270532355,270341729,0.09672933,0.096752696,0.20676449,1.1990247,1.1990137,2.4785147,0.0,0.0,0.0,0.0,0.0,0.0,0.0,12.417729,0.0,0.0,0.0,0.0,0.0,0.0,0.0027405503,0.0027165415,0.0027405503,0.002503346,1.000029,1.0000294,1.0,0.0,0.0,0.0,0.0,0.0,0.0
271032224,270841729,0.097440735,0.097457334,0.20677803,1.1991913,1.1991884,2.4756048,0.0,0.0,0.0,0.0,0.0,0.0,0.0,12.418023,0.0,0.0,0.0,0.0,0.0,0.0,0.0027368357,0.0027234205,0.0027368357,0.0025032894,1.0000283,1.0000274,1.0,0.0,0.0,0.0,0.0,0.0,0.0
272032212,271841729,0.10750582,0.107307404,0.22471334,1.2014031,1.2014122,2.469236,0.0,0.0,0.0,0.0,0.0,0.0,0.0,12.417829,0.0,0.0,0.0,0.0,0.0,0.0,0.002645736,0.0026455673,0.002645736,0.0025032088,1.0000204,1.0000199,1.0,0.0,0.0,0.0,0.0,0.0,0.0
272532174,272341729,0.09989183,0.09971307,0.20679566,1.2080429,1.2080508,2.4753985,0.0,0.0,0.0,0.0,0.0,0.0,0.0,12.418137,0.0,0.0,0.0,0.0,0.0,0.0,0.0026108865,0.0026108865,0.0026106853,0.0025031911,1.0000163,1.0000163,1.0,0.0,0.0,0.0,0.0,0.0,0.0
273032261,272841729,0.09953138,0.09938968,0.20677777,1.2144339,1.2144393,2.4847205,0.0,0.0,0.0,0.0,0.0,0.0,0.0,12.418448,0.0,0.0,0.0,0.0,0.0,0.0,0.0025830057,0.0025822408,0.0025830057,0.0025031676,1.0000135,1.0000136,1.0,0.0,0.0,0.0,0.0,0.0,0.0
274032246,273841729,0.09876867,0.098722436,0.20685475,1.2394786,1.2394755,2.5417552,0.0,0.0,0.0,0.0,0.0,0.0,0.0,12.418433,0.0,0.0,0.0,0.0,0.0,0.0,0.002543332,0.002539702,0.002543332,0.0025031555,1.0000108,1.0000108,1.0,0.0,0.0,0.0,0.0,0.0,0.0
274532173,274341729,0.09802178,0.09800462,0.20685613,1.2506102,1.2506075,2.5705926,0.0,0.0,0.0,0.0,0.0,0.0,0.0,12.418946,0.0,0.0,0.0,0.0,0.0,0.0,0.0025289813,0.0025248579,0.0025289813,0.0025031469,1.0000104,1.0000104,1.0,0.0,0.0,0.0,0.0,0.0,0.0
275032179,274841729,0.109948695,0.10994426,0.23478891,1.2576445,1.2576425,2.6124039,0.0,0.0,0.0,0.0,0.0,0.0,0.0,12.418907,0.0,0.0,0.0,0.0,0.0,0.0,0.0025171677,0.0025143041,0.0025171677,0.0025031469,1.00001,1.00001,1.0,0.0,0.0,0.0,0.0,0.0,0.0
275532212,275341729,0.09692362,0.09692146,0.20688325,1.2643422,1.2643427,2.651119,0.0,0.0,0.0,0.0,0.0,0.0,0.0,12.419106,0.0,0.0,0.0,0.0,0.0,0.0,0.0025102736,0.0025102736,0.0025098003,0.0025031196,1.0000099,1.0000099,1.0,0.0,0.0,0.0,0.0,0.0,0.0
276032420,275841729,0.112199,0.11220863,0.24206558,1.2801334,1.2801378,2.7034647,0.0,0.0,0.0,0.0,0.0,0.0,0.0,12.419976,0.0,0.0,0.0,0.0,0.0,0.0,0.0025122394,0.0025122394,0.0025084706,0.002503084,1.0000098,1.0000098,1.0,0.0,0.0,0.0,0.0,0.0,0.0
276532391,276341729,0.096539274,0.09656354,0.20695637,1.2917776,1.2917862,2.7169468,0.0,0.0,0.0,0.0,0.0,0.0,0.0,12.420439,0.0,0.0,0.0,0.0,0.0,0.0,0.002517736,0.002517736,0.0025128312,0.0025030824,1.0000099,1.0000098,1.0,0.0,0.0,0.0,0.0,0.0,0.0
277032370,276841729,0.09636567,0.09639517,0.206933,1.2984717,1.2984822,2.7075746,0.0,0.0,0.0,0.0,0.0,0.0,0.0,12.420632,0.0,0.0,0.0,0.0,0.0,0.0,0.0025254267,0.0025254267,0.002522137,0.0025030444,1.0000098,1.0000098,1.0,0.0,0.0,0.0,0.0,0.0,0.0
277532216,277341731,0.09629403,0.09632024,0.20691219,1.3051945,1.3052056,2.7043362,0.0,0.0,0.0,0.0,0.0,0.0,0.0,12.4209795,0.0,0.0,0.0,0.0,0.0,0.0,0.0025318686,0.0025318686,0.0025309173,0.002503046,1.00001,1.00001,1.0,0.0,0.0,0.0,0.0,0.0,0.0
278032449,277841729,0.10485988,0.10489714,0.22620124,1.3093061,1.3093181,2.6944475,0.0,0.0,0.0,0.0,0.0,0.0,0.0,12.420855,0.0,0.0,0.0,0.0,0.0,0.0,0.0025324002,0.0025323161,0.0025324002,0.002502981,1.0000097,1.0000098,1.0,0.0,0.0,0.0,0.0,0.0,0.0
278532174,278341729,0.10948894,0.10950107,0.23620448,1.3117125,1.3117249,2.6914542,0.0,0.0,0.0,0.0,0.0,0.0,0.0,12.420451,0.0,0.0,0.0,0.0,0.0,0.0,0.0025298763,0.0025298763,0.0025296984,0.0025029539,1.0000101,1.0000103,1.0,0.0,0.0,0.0,0.0,0.0,0.0
279032209,278841729,0.09651201,0.09650682,0.2068436,1.3160295,1.3160405,2.6848478,0.0,0.0,0.0,0.0,0.0,0.0,0.0,12.420668,0.0,0.0,0.0,0.0,0.0,0.0,0.0025269673,0.0025268288,0.0025269673,0.0025029676,1.0000104,1.0000105,1.0,0.0,0.0,0.0,0.0,0.0,0.0
279532454,279341729,0.100195624,0.10018342,0.21499954,1.3204467,1.3204561,2.684558,0.0,0.0,0.0,0.0,0.0,0.0,0.0,12.420863,0.0,0.0,0.0,0.0,0.0,0.0,0.0025253575,0.0025253575,0.00252512,0.0025029301,1.0000106,1.0000107,1.0,0.0,0.0,0.0,0.0,0.0,0.0
280532594,280341729,0.09659427,0.0966014,0.20680821,1.3363467,1.3363544,2.6844661,0.0,0.0,0.0,0.0,0.0,0.0,0.0,12.420503,0.0,0.0,0.0,0.0,0.0,0.0,0.0025224572,0.0025224572,0.0025223081,0.0025029131,1.0000117,1.0000118,1.0,0.0,0.0,0.0,0.0,0.0,0.0
281032581,280841729,0.09656455,0.09658109,0.20680155,1.3523952,1.3524027,2.697312,0.0,0.0,0.0,0.0,0.0,0.0,0.0,12.42073,0.0,0.0,0.0,0.0,0.0,0.0,0.0025213116,0.0025213116,0.0025211691,0.0025029033,1.0000123,1.0000124,1.0,0.0,0.0,0.0,0.0,0.0,0.0
281532379,281341729,0.1327203,0.1327292,0.28788066,1.3710676,1.3710759,2.7105603,0.0,0.0,0.0,0.0,0.0,0.0,0.0,12.420071,0.0,0.0,0.0,0.0,0.0,0.0,0.0025204264,0.0025204264,0.0025202623,0.002502897,1.0000134,1.0000135,1.0,0.0,0.0,0.0,0.0,0.0,0.0
282032611,281841729,0.096734494,0.09675258,0.20684859,1.39233,1.3923388,2.7236955,0.0,0.0,0.0,0.0,0.0,0.0,0.0,12.420405,0.0,0.0,0.0,0.0,0.0,0.0,0.002519479,0.0025194597,0.002519479,0.0025028973,1.0000137,1.0000138,1.0,0.0,0.0,0.0,0.0,0.0,0.0
282532565,282341729,0.107284375,0.10730512,0.23046565,1.4137151,1.4137245,2.73689,0.0,0.0,0.0,0.0,0.0,0.0,0.0,12.420856,0.0,0.0,0.0,0.0,0.0,0.0,0.0025190162,0.0025190162,0.00251882,0.002502871,1.0000143,1.0000144,1.0000001,0.0,0.0,0.0,0.0,0.0,0.0
283032385,282841729,0.097093865,0.097104676,0.20692801,1.4262065,1.426218,2.7569523,0.0,0.0,0.0,0.0,0.0,0.0,0.0,12.421573,0.0,0.0,0.0,0.0,0.0,0.0,0.0025183673,0.0025183673,0.0025183172,0.0025028712,1.0000153,1.0000154,1.0,0.0,0.0,0.0,0.0,0.0,0.0
283532608,283341730,0.15925471,0.1592881,0.34668684,1.4409873,1.4410009,2.7773323,0.0,0.0,0.0,0.0,0.0,0.0,0.0,12.421083,0.0,0.0,0.0,0.0,0.0,0.0,0.0025177521,0.00251768,0.0025177521,0.0025028773,1.0000156,1.0000159,1.0,0.0,0.0,0.0,0.0,0.0,0.0
284032609,283841729,0.15619482,0.15631798,0.33973843,1.4606237,1.4606427,2.797507,0.0,0.0,0.0,0.0,0.0,0.0,0.0,12.421824,0.0,0.0,0.0,0.0,0.0,0.0,0.002514503,0.002514503,0.0025117067,0.002502885,1.0000162,1.0000161,1.0,0.0,0.0,0.0,0.0,0.0,0.0
284532572,284341729,0.20166944,0.20178193,0.44023246,1.4887844,1.4888228,2.8350723,0.0,0.0,0.0,0.0,0.0,0.0,0.0,12.42319,0.0,0.0,0.0,0.0,0.0,0.0,0.0025140166,0.0025140166,0.0025092305,0.0025028924,1.0000167,1.0000165,1.0,0.0,0.0,0.0,0.0,0.0,0.0
285032363,284841729,0.3393764,0.33968106,0.74628854,1.5412147,1.5413404,2.8558862,0.0,0.0,0.0,0.0,0.0,0.0,0.0,12.426901,0.0,0.0,0.0,0.0,0.0,0.0,0.002515084,0.002515084,0.0025111586,0.002502872,1.0000172,1.000017,1.0000001,0.0,0.0,0.0,0.0,0.0,0.0
285532416,285341729,0.275176,0.27567285,0.5930449,1.6196004,1.6200889,2.8558862,0.0,0.0,0.0,0.0,0.0,0.0,0.0,12.436905,0.0,0.0,0.0,0.0,0.0,0.0,0.0025153607,0.0025153607,0.0025116575,0.002502922,1.0000182,1.0000182,1.0000001,0.0,0.0,0.0,0.0,0.0,0.0
286032452,285841729,0.19640532,0.1972189,0.40483677,1.6877215,1.689057,2.8558862,0.0,0.0,0.0,0.0,0.0,0.0,0.0,12.44835,0.0,0.0,0.0,0.0,0.0,0.0,0.0025151013,0.0025151013,0.0025111919,0.0025029012,1.0000196,1.0000194,1.0000001,0.0,0.0,0.0,0.0,0.0,0.0
286532341,286341729,0.13683031,0.13805991,0.25755244,1.7507001,1.7537678,2.8558862,0.0,0.0,0.0,0.0,0.0,0.0,0.0,12.459121,0.0,0.0,0.0,0.0,0.0,0.0,0.0025147633,0.0025147633,0.0025113206,0.0025028132,1.000021,1.0000209,1.0000002,0.0,0.0,0.0,0.0,0.0,0.0
287032393,286841729,0.14011475,0.14175883,0.24904878,1.8148503,1.8209081,2.8558862,0.0,0.0,0.0,0.0,0.0,0.0,0.0,12.472591,0.0,0.0,0.0,0.0,0.0,0.0,0.0025139367,0.0025139367,0.00251239,0.0025027483,1.0000229,1.0000222,1.0000002,0.0,0.0,0.0,0.0,0.0,0.0
287532388,287341729,0.1674461,0.1696156,0.29251555,1.9182429,1.9288905,2.8558862,0.0,0.0,0.0,0.0,0.0,0.0,0.0,12.4866295,0.0,0.0,0.0,0.0,0.0,0.0,0.0025138208,0.0025138208,0.0025129428,0.0025027469,1.0000247,1.0000238,1.0000002,0.0,0.0,0.0,0.0,0.0,0.0
288032439,287841729,0.18993796,0.19269861,0.32244557,2.0693476,2.0867548,2.8558862,0.0,0.0,0.0,0.0,0.0,0.0,0.0,12.500798,0.0,0.0,0.0,0.0,0.0,0.0,0.002513875,0.002513875,0.002513142,0.00250275,1.0000266,1.0000255,1.0000002,0.0,0.0,0.0,0.0,0.0,0.0
288532350,288341729,0.24308234,0.246604,0.41823247,2.2645454,2.291646,2.8558862,0.0,0.0,0.0,0.0,0.0,0.0,0.0,12.512616,0.0,0.0,0.0,0.0,0.0,0.0,0.0025139814,0.0025139814,0.0025124312,0.002502773,1.0000285,1.0000274,1.0000002,0.0,0.0,0.0,0.0,0.0,0.0
289032367,288841729,0.31098583,0.31530243,0.54402876,2.5360332,2.5767152,2.8558862,0.0,0.0,0.0,0.0,0.0,0.0,0.0,12.52591,0.0,0.0,0.0,0.0,0.0,0.0,0.0025141155,0.0025141155,0.0025127,0.0025027746,1.0000305,1.0000293,1.0000002,0.0,0.0,0.0,0.0,0.0,0.0
289532392,289341729,0.5058869,0.5111877,0.9531514,2.8799944,2.9389696,2.8558862,0.0,0.0,0.0,0.0,0.0,0.0,0.0,12.538227,0.0,0.0,0.0,0.0,0.0,0.0,0.0025141558,0.0025141558,0.0025129614,0.0025028028,1.0000327,1.0000312,1.0000001,0.0,0.0,0.0,0.0,0.0,0.0
290032390,289841729,0.5610968,0.56810105,1.0459,3.2950883,3.3789978,2.8558862,0.0,0.0,0.0,0.0,0.0,0.0,0.0,12.548408,0.0,0.0,0.0,0.0,0.0,0.0,0.002514345,0.002514345,0.0025130922,0.0025028049,1.0000347,1.0000334,1.0000001,0.0,0.0,0.0,0.0,0.0,0.0
290532202,290341730,0.43248916,0.4428832,0.7167603,3.7724657,3.8913522,2.8558862,0.0,0.0,0.0,0.0,0.0,0.0,0.0,12.558352,0.0,0.0,0.0,0.0,0.0,0.0,0.0025146788,0.0025146788,0.002513103,0.002503076,1.000037,1.0000355,1.0,0.0,0.0,0.0,0.0,0.0,0.0
291032197,290841729,0.49371305,0.5081427,0.8159881,4.3058214,4.475667,2.8558862,0.0,0.0,0.0,0.0,0.0,0.0,0.0,12.56691,0.0,0.0,0.0,0.0,0.0,0.0,0.0025145968,0.0025145968,0.0025134042,0.002503035,1.0000392,1.0000376,1.0,0.0,0.0,0.0,0.0,0.0,0.0
291532221,291341729,0.611737,0.6302714,1.0400339,4.936202,5.175224,2.8558862,0.0,0.0,0.0,0.0,0.0,0.0,0.0,12.572862,0.0,0.0,0.0,0.0,0.0,0.0,0.0025148243,0.0025148243,0.0025138,0.0025030626,1.0000414,1.0000396,1.0,0.0,0.0,0.0,0.0,0.0,0.0
292032232,291841730,0.63203835,0.65517837,1.0400395,5.6561794,5.9860826,2.8558862,0.0,0.0,0.0,0.0,0.0,0.0,0.0,12.578924,0.0,0.0,0.0,0.0,0.0,0.0,0.0025149027,0.0025149027,0.0025140515,0.002503056,1.0000437,1.0000417,1.0,0.0,0.0,0.0,0.0,0.0,0.0
292532218,292341729,0.6018801,0.6316013,0.92464423,6.4725714,6.921419,2.8558862,0.0,0.0,0.0,0.0,0.0,0.0,0.0,12.583815,0.0,0.0,0.0,0.0,0.0,0.0,0.0025153675,0.0025153675,0.0025143416,0.0025032014,1.0000461,1.0000437,1.0,0.0,0.0,0.0,0.0,0.0,0.0
293032220,292841729,0.6407794,0.67823774,0.9624215,7.400418,8.003382,2.8558862,0.0,0.0,0.0,0.0,0.0,0.0,0.0,12.587675,0.0,0.0,0.0,0.0,0.0,0.0,0.0025151875,0.0025151875,0.002514207,0.0025031571,1.0000488,1.0000457,1.0,0.0,0.0,0.0,0.0,0.0,0.0
293532247,293341729,0.6655406,0.71107244,0.96534026,8.461698,9.260562,2.8558862,0.0,0.0,0.0,0.0,0.0,0.0,0.0,12.590748,0.0,0.0,0.0,0.0,0.0,0.0,0.002515335,0.002515335,0.0025144634,0.002503164,1.0000514,1.0000478,1.0,0.0,0.0,0.0,0.0,0.0,0.0
294032230,293841729,0.68439114,0.7395692,0.9507178,9.650312,10.696865,2.8558862,0.0,0.0,0.0,0.0,0.0,0.0,0.0,12.593089,0.0,0.0,0.0,0.0,0.0,0.0,0.0025159065,0.0025159065,0.0025148161,0.0025032603,1.0000539,1.0000501,1.0,0.0,0.0,0.0,0.0,0.0,0.0
294532216,294341729,0.744053,0.80983436,1.0249912,11.005805,12.359704,2.8558862,0.0,0.0,0.0,0.0,0.0,0.0,0.0,12.594836,0.0,0.0,0.0,0.0,0.0,0.0,0.0025159835,0.0025159835,0.002514895,0.0025032673,1.0000566,1.0000521,1.0,0.0,0.0,0.0,0.0,0.0,0.0
295032195,294841732,0.75297654,0.83049077,0.9801307,12.539682,14.270748,2.8558862,0.0,0.0,0.0,0.0,0.0,0.0,0.0,12.595573,0.0,0.0,0.0,0.0,0.0,0.0,0.0025160282,0.0025160282,0.0025151488,0.0025032978,1.0000594,1.0000541,1.0,0.0,0.0,0.0,0.0,0.0,0.0
295532210,295341729,0.8215432,0.91243064,1.067759,14.274972,16.465105,2.8558862,0.0,0.0,0.0,0.0,0.0,0.0,0.0,12.596592,0.0,0.0,0.0,0.0,0.0,0.0,0.0025160622,0.0025160622,0.00251535,0.00250324,1.0000621,1.0000564,1.0,0.0,0.0,0.0,0.0,0.0,0.0
296032226,295841729,0.8747857,0.97956175,1.1177207,16.218851,18.961668,2.8558862,0.0,0.0,0.0,0.0,0.0,0.0,0.0,12.59732,0.0,0.0,0.0,0.0,0.0,0.0,0.0025163202,0.0025163202,0.0025156047,0.002503285,1.0000647,1.0000585,1.0,0.0,0.0,0.0,0.0,0.0,0.0
297032184,296841729,0.98355865,1.0709953,1.1951492,20.92938,24.898462,2.8558862,0.0,0.0,0.0,0.0,0.0,0.0,0.0,12.597635,0.0,0.0,0.0,0.0,0.0,0.0,0.0025481612,0.0025171032,0.0025481612,0.0025052729,1.0000712,1.0000532,1.0000095,0.0,0.0,0.0,0.0,0.0,0.0
297532192,297341729,0.86677426,0.9499322,0.84675753,23.689478,28.255651,0.0,0.0,0.0,0.0,0.0,0.0,0.0,0.0,12.597058,0.0,0.0,0.0,0.0,0.0,0.0,0.0025214138,0.002521321,0.0025214138,0.0025026877,1.0000718,1.0000633,1.0000045,0.0,0.0,0.0,0.0,0.0,0.0
298532165,298341728,0.9574295,1.0573354,0.8971839,29.897324,35.875805,0.0,0.0,0.0,0.0,0.0,0.0,0.0,0.0,12.598256,0.0,0.0,0.0,0.0,0.0,0.0,0.002519482,0.002519482,0.0025176913,0.0025026107,1.0000783,1.0000693,1.000002,0.0,0.0,0.0,0.0,0.0,0.0
299032222,298841729,0.974592,1.0886514,0.8525778,33.40795,40.264107,0.0,0.0,0.0,0.0,0.0,0.0,0.0,0.0,12.598905,0.0,0.0,0.0,0.0,0.0,0.0,0.0025210609,0.0025210609,0.0025173654,0.0025027015,1.0000808,1.0000713,1.0000026,0.0,0.0,0.0,0.0,0.0,0.0
299532238,299341729,1.026763,1.1556587,0.88328665,37.208836,45.06492,0.0,0.0,0.0,0.0,0.0,0.0,0.0,0.0,12.599616,0.0,0.0,0.0,0.0,0.0,0.0,0.0025217042,0.0025217042,0.0025177163,0.0025027045,1.0000825,1.0000734,1.0000038,0.0,0.0,0.0,0.0,0.0,0.0
300032274,299841729,0.83993137,0.9850058,0.3737038,41.31054,50.32539,0.0,0.0,0.0,0.0,0.0,0.0,0.0,0.0,12.599936,0.0,0.0,0.0,0.0,0.0,0.0,0.002522844,0.002522844,0.0025178895,0.0025027744,1.0000852,1.000076,1.0000037,0.0,0.0,0.0,0.0,0.0,0.0
300532163,300341729,0.8893892,1.0550938,0.38828158,45.697613,56.063065,0.0,0.0,0.0,0.0,0.0,0.0,0.0,0.0,12.600748,0.0,0.0,0.0,0.0,0.0,0.0,0.002517523,0.002517523,0.002517435,0.0025028998,1.0000901,1.0000792,1.0000004,0.0,0.0,0.0,0.0,0.0,0.0
301032215,300841729,0.91532606,1.1107073,0.35206515,50.38601,62.350838,0.0,0.0,0.0,0.0,0.0,0.0,0.0,0.0,12.601434,0.0,0.0,0.0,0.0,0.0,0.0,0.0025180685,0.0025180404,0.0025180685,0.002503427,1.0000919,1.0000817,1.0,0.0,0.0,0.0,0.0,0.0,0.0
301532195,301341729,0.9425849,1.1748757,0.32612488,55.373287,69.22213,0.0,0.0,0.0,0.0,0.0,0.0,0.0,0.0,12.601448,0.0,0.0,0.0,0.0,0.0,0.0,0.002518359,0.0025182103,0.002518359,0.00250358,1.0000943,1.0000827,1.0,0.0,0.0,0.0,0.0,0.0,0.0
302032335,301841729,0.96795464,1.2399203,0.2963112,60.74232,76.76861,0.0,0.0,0.0,0.0,0.0,0.0,0.0,0.0,12.601651,0.0,0.0,0.0,0.0,0.0,0.0,0.002518236,0.0025181246,0.002518236,0.0025034612,1.0000958,1.0000842,1.0,0.0,0.0,0.0,0.0,0.0,0.0
302532203,302341729,1.0197426,1.3353021,0.32247144,66.539474,85.07886,0.0,0.0,0.0,0.0,0.0,0.0,0.0,0.0,12.601634,0.0,0.0,0.0,0.0,0.0,0.0,0.0025183966,0.0025181507,0.0025183966,0.0025035145,1.000098,1.0000854,1.0,0.0,0.0,0.0,0.0,0.0,0.0
303032212,302841729,1.1299164,1.4898891,0.48346892,72.78504,94.16763,0.0,0.0,0.0,0.0,0.0,0.0,0.0,0.0,12.601476,0.0,0.0,0.0,0.0,0.0,0.0,0.002518281,0.002518187,0.002518281,0.0025034877,1.0001005,1.0000861,1.0,0.0,0.0,0.0,0.0,0.0,0.0
303532170,303341729,1.1689856,1.5785589,0.47313675,79.49433,104.1512,0.0,0.0,0.0,0.0,0.0,0.0,0.0,0.0,12.601598,0.0,0.0,0.0,0.0,0.0,0.0,0.002518528,0.0025182066,0.002518528,0.0025035534,1.0001024,1.0000876,1.0,0.0,0.0,0.0,0.0,0.0,0.0
304032225,303841729,1.2128901,1.6747706,0.46699175,86.72396,115.09662,0.0,0.0,0.0,0.0,0.0,0.0,0.0,0.0,12.601334,0.0,0.0,0.0,0.0,0.0,0.0,0.0025191891,0.0025191891,0.0025182334,0.002503732,1.0001038,1.0000896,1.0000002,0.0,0.0,0.0,0.0,0.0,0.0
305032172,304841729,1.2230619,1.8219814,0.2897676,102.492584,139.92493,0.0,0.0,0.0,0.0,0.0,0.0,0.0,0.0,12.600445,0.0,0.0,0.0,0.0,0.0,0.0,0.002518436,0.002518436,0.0025181843,0.002503397,1.0001088,1.0000908,1.0,0.0,0.0,0.0,0.0,0.0,0.0
305532223,305341729,1.2610751,1.9291435,0.26796585,111.29295,154.06287,0.0,0.0,0.0,0.0,0.0,0.0,0.0,0.0,12.600217,0.0,0.0,0.0,0.0,0.0,0.0,0.0025186925,0.0025183621,0.0025186925,0.0025036186,1.0001112,1.0000919,1.0,0.0,0.0,0.0,0.0,0.0,0.0
306032327,305841729,1.2949461,2.0317206,0.2340743,120.63749,169.28104,0.0,0.0,0.0,0.0,0.0,0.0,0.0,0.0,12.600074,0.0,0.0,0.0,0.0,0.0,0.0,0.0025187393,0.002518407,0.0025187393,0.0025036351,1.0001132,1.000093,1.0000001,0.0,0.0,0.0,0.0,0.0,0.0
306532197,306341729,1.3260156,2.1202447,0.21194774,128.71857,182.66896,0.0,0.0,0.0,0.0,0.0,0.0,0.0,0.0,12.600363,0.0,0.0,0.0,0.0,0.0,0.0,0.0025184955,0.0025184955,0.0025183063,0.0025034011,1.0001155,1.0000939,1.0,0.0,0.0,0.0,0.0,0.0,0.0
307032181,306841729,1.3870063,2.2723567,0.21198875,141.1921,203.53949,0.0,0.0,0.0,0.0,0.0,0.0,0.0,0.0,12.600378,0.0,0.0,0.0,0.0,0.0,0.0,0.002518515,0.002518515,0.0025184506,0.0025034745,1.0001161,1.0000964,1.0,0.0,0.0,0.0,0.0,0.0,0.0
307532360,307341729,0.1352951,0.13540156,0.3038706,5.07194,5.071941,8.188059,0.0,0.0,0.0,0.0,0.0,0.0,0.0,14.4849825,0.0,0.0,0.0,0.0,0.0,0.0,0.0025185796,0.0025185796,0.0025184674,0.0025034745,1.0001172,1.0000982,1.0,0.0,0.0,0.0,0.0,0.0,0.0
308532391,308341729,0.107098,0.109055884,0.23354465,3.5014055,3.5015104,6.478853,0.0,0.0,0.0,0.0,0.0,0.0,0.0,12.679274,0.0,0.0,0.0,0.0,0.0,0.0,0.00251711,0.00251711,0.002517003,0.0025030584,1.0000972,1.0000827,1.0,0.0,0.0,0.0,0.0,0.0,0.0
309032371,308841729,0.20754968,0.21473661,0.44949034,3.3810208,3.3815684,6.357477,0.0,0.0,0.0,0.0,0.0,0.0,0.0,12.588989,0.0,0.0,0.0,0.0,0.0,0.0,0.002529658,0.0025174695,0.002529658,0.0025063085,1.0000777,1.0000645,1.0000061,0.0,0.0,0.0,0.0,0.0,0.0
309532392,309341729,0.2534175,0.26213682,0.5399463,3.311386,3.3130305,6.3035836,0.0,0.0,0.0,0.0,0.0,0.0,0.0,12.543644,0.0,0.0,0.0,0.0,0.0,0.0,0.0025227875,0.0025191677,0.0025227875,0.0025052316,1.0000577,1.0000546,1.0000046,0.0,0.0,0.0,0.0,0.0,0.0
310032426,309841729,0.14039654,0.14381751,0.28547505,3.2478008,3.2493815,6.2691183,0.0,0.0,0.0,0.0,0.0,0.0,0.0,12.517547,0.0,0.0,0.0,0.0,0.0,0.0,0.002515875,0.002515875,0.002510736,0.0025026454,1.0000418,1.0000427,1.0000001,0.0,0.0,0.0,0.0,0.0,0.0
310532390,310341729,0.16657928,0.16732427,0.3503186,3.1954143,3.1964986,6.271545,0.0,0.0,0.0,0.0,0.0,0.0,0.0,12.500074,0.0,0.0,0.0,0.0,0.0,0.0,0.0025149775,0.0025149775,0.002513394,0.0025026244,1.0000335,1.0000329,1.0000007,0.0,0.0,0.0,0.0,0.0,0.0
311032373,310841729,0.19943963,0.19950707,0.42690614,3.1735144,3.1743503,6.3347244,0.0,0.0,0.0,0.0,0.0,0.0,0.0,12.488819,0.0,0.0,0.0,0.0,0.0,0.0,0.0025170392,0.0025143132,0.0025170392,0.0025029334,1.0000285,1.000027,1.0000018,0.0,0.0,0.0,0.0,0.0,0.0
312032265,311841729,0.36651522,0.36551136,0.78970826,3.2935407,3.2937837,6.4008136,0.0,0.0,0.0,0.0,0.0,0.0,0.0,12.491958,0.0,0.0,0.0,0.0,0.0,0.0,0.0025145,0.0025135104,0.0025145,0.0025027166,1.0000292,1.0000285,1.0000013,0.0,0.0,0.0,0.0,0.0,0.0
312532213,312341729,0.3643102,0.3619314,0.76647455,3.4199536,3.4188483,6.4008136,0.0,0.0,0.0,0.0,0.0,0.0,0.0,12.502146,0.0,0.0,0.0,0.0,0.0,0.0,0.0025132995,0.0025132995,0.0025095392,0.0025023893,1.0000311,1.0000315,1.0000002,0.0,0.0,0.0,0.0,0.0,0.0
313032212,312841729,0.3412838,0.33744782,0.69551706,3.518556,3.51439,6.4008136,0.0,0.0,0.0,0.0,0.0,0.0,0.0,12.511901,0.0,0.0,0.0,0.0,0.0,0.0,0.0025139828,0.0025139828,0.0025093565,0.0025023287,1.0000329,1.0000337,1.0000002,0.0,0.0,0.0,0.0,0.0,0.0
313532179,313341729,0.29456145,0.29060176,0.57040864,3.60077,3.591576,6.4008136,0.0,0.0,0.0,0.0,0.0,0.0,0.0,12.524176,0.0,0.0,0.0,0.0,0.0,0.0,0.0025143223,0.0025143223,0.0025096226,0.0025023518,1.0000349,1.0000359,1.0000002,0.0,0.0,0.0,0.0,0.0,0.0
314032228,313841729,0.20661145,0.20232078,0.34903046,3.7233672,3.7072208,6.4008136,0.0,0.0,0.0,0.0,0.0,0.0,0.0,12.536676,0.0,0.0,0.0,0.0,0.0,0.0,0.0025141586,0.0025141586,0.0025103341,0.0025023925,1.0000371,1.0000379,1.0000002,0.0,0.0,0.0,0.0,0.0,0.0
314532251,314341729,0.25228098,0.24649394,0.42261502,3.879543,3.8536167,6.4008136,0.0,0.0,0.0,0.0,0.0,0.0,0.0,12.548848,0.0,0.0,0.0,0.0,0.0,0.0,0.0025144534,0.0025144534,0.0025102838,0.0025024859,1.000039,1.00004,1.0000001,0.0,0.0,0.0,0.0,0.0,0.0
315032203,314841730,0.25408322,0.24792036,0.39609635,4.088251,4.049271,6.4008136,0.0,0.0,0.0,0.0,0.0,0.0,0.0,12.55845,0.0,0.0,0.0,0.0,0.0,0.0,0.0025147037,0.0025147037,0.0025107013,0.0025024798,1.0000411,1.0000422,1.0000001,0.0,0.0,0.0,0.0,0.0,0.0
315532190,315341729,0.2634445,0.25684178,0.38310674,4.3946342,4.339985,6.4008136,0.0,0.0,0.0,0.0,0.0,0.0,0.0,12.568812,0.0,0.0,0.0,0.0,0.0,0.0,0.0025147847,0.0025147847,0.0025111707,0.0025025443,1.0000433,1.0000443,1.0000001,0.0,0.0,0.0,0.0,0.0,0.0
316032226,315841729,0.3132366,0.3055883,0.45587176,4.7687397,4.6954355,6.4008136,0.0,0.0,0.0,0.0,0.0,0.0,0.0,12.577828,0.0,0.0,0.0,0.0,0.0,0.0,0.0025148473,0.0025148473,0.002511941,0.0025025725,1.0000454,1.0000464,1.0000001,0.0,0.0,0.0,0.0,0.0,0.0
316532210,316341729,0.37036037,0.36251253,0.543919,5.232916,5.137331,6.4008136,0.0,0.0,0.0,0.0,0.0,0.0,0.0,12.584987,0.0,0.0,0.0,0.0,0.0,0.0,0.0025152136,0.0025152136,0.0025122159,0.002502461,1.0000474,1.0000485,1.0000002,0.0,0.0,0.0,0.0,0.0,0.0
317032188,316841729,0.44767565,0.4394024,0.6711536,5.8055058,5.685856,6.4008136,0.0,0.0,0.0,0.0,0.0,0.0,0.0,12.591323,0.0,0.0,0.0,0.0,0.0,0.0,0.0025154047,0.0025154047,0.0025149821,0.002502512,1.0000496,1.0000497,1.0000012,0.0,0.0,0.0,0.0,0.0,0.0
317532179,317341729,0.5137267,0.50486946,0.76960385,6.4865484,6.3398237,6.4008136,0.0,0.0,0.0,0.0,0.0,0.0,0.0,12.596376,0.0,0.0,0.0,0.0,0.0,0.0,0.0025155148,0.0025155148,0.002513055,0.002502535,1.0000517,1.0000528,1.0000001,0.0,0.0,0.0,0.0,0.0,0.0
318032233,317841729,0.56885374,0.56096137,0.84449136,7.264293,7.0911455,6.4008136,0.0,0.0,0.0,0.0,0.0,0.0,0.0,12.599352,0.0,0.0,0.0,0.0,0.0,0.0,0.002515688,0.002515688,0.0025131362,0.0025028724,1.0000539,1.000055,1.0,0.0,0.0,0.0,0.0,0.0,0.0
318532258,318341729,0.49184614,0.48591608,0.62057,8.125021,7.928899,6.4008136,0.0,0.0,0.0,0.0,0.0,0.0,0.0,12.602208,0.0,0.0,0.0,0.0,0.0,0.0,0.0025158885,0.0025158885,0.0025134266,0.0025028219,1.0000559,1.000057,1.0,0.0,0.0,0.0,0.0,0.0,0.0
319032228,318841729,0.48892316,0.4852779,0.55653197,9.124516,8.912959,6.4008136,0.0,0.0,0.0,0.0,0.0,0.0,0.0,12.604113,0.0,0.0,0.0,0.0,0.0,0.0,0.0025160508,0.0025160508,0.0025137935,0.0025029734,1.0000578,1.0000591,1.0,0.0,0.0,0.0,0.0,0.0,0.0
319532216,319341729,0.5255048,0.5243747,0.5766468,10.272431,10.054275,6.4008136,0.0,0.0,0.0,0.0,0.0,0.0,0.0,12.605262,0.0,0.0,0.0,0.0,0.0,0.0,0.0025161128,0.0025161128,0.0025141593,0.0025028847,1.0000598,1.000061,1.0,0.0,0.0,0.0,0.0,0.0,0.0
320032220,319841730,0.55413157,0.5566982,0.5765396,11.567844,11.355384,6.4008136,0.0,0.0,0.0,0.0,0.0,0.0,0.0,12.606233,0.0,0.0,0.0,0.0,0.0,0.0,0.0025163442,0.0025163442,0.0025154469,0.0025024745,1.0000619,1.0000622,1.0000007,0.0,0.0,0.0,0.0,0.0,0.0
320532216,320341729,0.6033051,0.60830736,0.61551714,13.02672,12.83754,6.4008136,0.0,0.0,0.0,0.0,0.0,0.0,0.0,12.606465,0.0,0.0,0.0,0.0,0.0,0.0,0.0025164816,0.0025164816,0.0025154885,0.0025025986,1.0000643,1.0000641,1.0000006,0.0,0.0,0.0,0.0,0.0,0.0
321032190,320841729,0.62311924,0.6325618,0.58772635,14.674061,14.529398,6.4008136,0.0,0.0,0.0,0.0,0.0,0.0,0.0,12.605556,0.0,0.0,0.0,0.0,0.0,0.0,0.0025168324,0.0025168324,0.002515143,0.0025031317,1.0000668,1.000066,1.0,0.0,0.0,0.0,0.0,0.0,0.0
321532190,321341729,0.67590964,0.693237,0.6319023,16.52896,16.46518,6.4008136,0.0,0.0,0.0,0.0,0.0,0.0,0.0,12.605773,0.0,0.0,0.0,0.0,0.0,0.0,0.0025171028,0.0025171028,0.002514884,0.0025030365,1.0000691,1.0000672,1.0,0.0,0.0,0.0,0.0,0.0,0.0
322032223,321841729,0.66626793,0.6929994,0.5364,18.610317,18.664108,6.4008136,0.0,0.0,0.0,0.0,0.0,0.0,0.0,12.605359,0.0,0.0,0.0,0.0,0.0,0.0,0.0025171642,0.0025171642,0.0025151747,0.0025028521,1.0000706,1.0000695,1.0,0.0,0.0,0.0,0.0,0.0,0.0
322532206,322341729,0.68510514,0.72177935,0.49371064,20.88954,21.123465,6.4008136,0.0,0.0,0.0,0.0,0.0,0.0,0.0,12.604855,0.0,0.0,0.0,0.0,0.0,0.0,0.0025176262,0.0025176262,0.0025154545,0.002503437,1.0000722,1.0000713,1.0000001,0.0,0.0,0.0,0.0,0.0,0.0
323032185,322841729,0.67412055,0.7203882,0.3711795,23.411814,23.87788,6.4008136,0.0,0.0,0.0,0.0,0.0,0.0,0.0,12.603971,0.0,0.0,0.0,0.0,0.0,0.0,0.0025171037,0.0025171037,0.0025157875,0.0025029343,1.0000738,1.0000736,1.0,0.0,0.0,0.0,0.0,0.0,0.0
323532186,323341729,0.6950241,0.75283384,0.3240963,26.22693,26.991745,6.4008136,0.0,0.0,0.0,0.0,0.0,0.0,0.0,12.603487,0.0,0.0,0.0,0.0,0.0,0.0,0.0025171787,0.0025171787,0.002516015,0.0025030146,1.0000756,1.0000753,1.0,0.0,0.0,0.0,0.0,0.0,0.0
324032231,323841729,0.7314751,0.8044989,0.30422884,29.329239,30.476002,6.4008136,0.0,0.0,0.0,0.0,0.0,0.0,0.0,12.603067,0.0,0.0,0.0,0.0,0.0,0.0,0.0025173211,0.0025173211,0.0025161833,0.0025030565,1.0000776,1.0000768,1.0,0.0,0.0,0.0,0.0,0.0,0.0
324532244,324341729,0.88896906,0.9767866,0.56522524,32.790867,34.420605,6.4008136,0.0,0.0,0.0,0.0,0.0,0.0,0.0,12.602725,0.0,0.0,0.0,0.0,0.0,0.0,0.0025175223,0.0025175223,0.0025162501,0.0025030153,1.00008,1.0000777,1.0,0.0,0.0,0.0,0.0,0.0,0.0
325032235,324841729,0.92899394,1.034368,0.55852735,36.660954,38.89106,6.4008136,0.0,0.0,0.0,0.0,0.0,0.0,0.0,12.602914,0.0,0.0,0.0,0.0,0.0,0.0,0.0025176553,0.0025176553,0.002516415,0.0025031029,1.000082,1.0000792,1.0,0.0,0.0,0.0,0.0,0.0,0.0
325532174,325341729,0.9410408,1.0653477,0.4876012,40.88965,43.858715,6.4008136,0.0,0.0,0.0,0.0,0.0,0.0,0.0,12.602708,0.0,0.0,0.0,0.0,0.0,0.0,0.0025176196,0.0025176196,0.0025165807,0.0025029953,1.0000834,1.0000808,1.0,0.0,0.0,0.0,0.0,0.0,0.0
326032286,325841729,1.220021,1.3625524,1.0105016,45.55576,49.41819,6.4008136,0.0,0.0,0.0,0.0,0.0,0.0,0.0,12.602566,0.0,0.0,0.0,0.0,0.0,0.0,0.0025177188,0.0025177188,0.0025167144,0.0025030093,1.0000852,1.0000824,1.0,0.0,0.0,0.0,0.0,0.0,0.0
326532228,326341729,1.1822364,1.3480463,0.83569664,50.64216,55.536503,6.4008136,0.0,0.0,0.0,0.0,0.0,0.0,0.0,12.602038,0.0,0.0,0.0,0.0,0.0,0.0,0.0025233263,0.0025233263,0.0025168236,0.002502832,1.0000842,1.0000838,1.0000026,0.0,0.0,0.0,0.0,0.0,0.0
327032185,326841729,1.3304231,1.5232519,1.0805794,56.15237,62.280674,6.4008136,0.0,0.0,0.0,0.0,0.0,0.0,0.0,12.601853,0.0,0.0,0.0,0.0,0.0,0.0,0.0025210388,0.0025210388,0.002516943,0.0025028388,1.0000868,1.0000854,1.0000018,0.0,0.0,0.0,0.0,0.0,0.0
327532188,327341730,1.3272994,1.5483077,0.986483,62.06235,69.67558,6.4008136,0.0,0.0,0.0,0.0,0.0,0.0,0.0,12.601654,0.0,0.0,0.0,0.0,0.0,0.0,0.002520272,0.002520272,0.0025170182,0.0025027131,1.0000888,1.0000869,1.0000014,0.0,0.0,0.0,0.0,0.0,0.0
328032230,327841729,1.4328256,1.6825624,1.1245971,68.36398,77.731964,6.4008136,0.0,0.0,0.0,0.0,0.0,0.0,0.0,12.601118,0.0,0.0,0.0,0.0,0.0,0.0,0.0025194488,0.0025194488,0.0025170976,0.0025028165,1.0000912,1.0000881,1.0000011,0.0,0.0,0.0,0.0,0.0,0.0
328532211,328341729,1.4651415,1.7461131,1.0962976,75.15785,86.575386,6.4008136,0.0,0.0,0.0,0.0,0.0,0.0,0.0,12.601049,0.0,0.0,0.0,0.0,0.0,0.0,0.0025187463,0.0025187463,0.0025172245,0.0025027504,1.0000927,1.0000901,1.0000005,0.0,0.0,0.0,0.0,0.0,0.0
329032183,328841729,1.3180709,1.6286861,0.65589535,82.40614,96.18104,6.4008136,0.0,0.0,0.0,0.0,0.0,0.0,0.0,12.6010685,0.0,0.0,0.0,0.0,0.0,0.0,0.0025181388,0.0025181388,0.0025173095,0.002503137,1.0000951,1.000091,1.0,0.0,0.0,0.0,0.0,0.0,0.0
329532214,329341729,1.3839217,1.732483,0.687687,90.15711,106.62695,6.4008136,0.0,0.0,0.0,0.0,0.0,0.0,0.0,12.601158,0.0,0.0,0.0,0.0,0.0,0.0,0.0025183605,0.0025183605,0.0025174562,0.0025031678,1.0000963,1.000092,1.0000005,0.0,0.0,0.0,0.0,0.0,0.0
330032247,329841729,1.5386839,1.9342475,0.93403965,98.42854,117.96944,6.4008136,0.0,0.0,0.0,0.0,0.0,0.0,0.0,12.601709,0.0,0.0,0.0,0.0,0.0,0.0,0.0025194422,0.0025185957,0.0025194422,0.0025041827,1.0000978,1.0000916,1.0000024,0.0,0.0,0.0,0.0,0.0,0.0
330532228,330341729,1.5865673,2.0309038,0.9311582,107.234314,130.30235,6.4008136,0.0,0.0,0.0,0.0,0.0,0.0,0.0,12.601913,0.0,0.0,0.0,0.0,0.0,0.0,0.002518293,0.002518293,0.002517462,0.0025032996,1.0000997,1.0000945,1.0000002,0.0,0.0,0.0,0.0,0.0,0.0
331032216,330841729,1.4899846,1.9978731,0.6064502,116.575615,143.65213,6.4008136,0.0,0.0,0.0,0.0,0.0,0.0,0.0,12.602161,0.0,0.0,0.0,0.0,0.0,0.0,0.0025189621,0.0025183377,0.0025189621,0.0025043755,1.0001009,1.0000951,1.000001,0.0,0.0,0.0,0.0,0.0,0.0
