timestamp,last_instance_change,instance_changed_count,accel_device_id,baro_device_id,gyro_device_id,mag_device_id,combined_test_ratio[0],combined_test_ratio[1],combined_test_ratio[2],combined_test_ratio[3],combined_test_ratio[4],combined_test_ratio[5],combined_test_ratio[6],combined_test_ratio[7],combined_test_ratio[8],relative_test_ratio[0],relative_test_ratio[1],relative_test_ratio[2],relative_test_ratio[3],relative_test_ratio[4],relative_test_ratio[5],relative_test_ratio[6],relative_test_ratio[7],relative_test_ratio[8],accumulated_gyro_error[0],accumulated_gyro_error[1],accumulated_gyro_error[2],accumulated_gyro_error[3],accumulated_accel_error[0],accumulated_accel_error[1],accumulated_accel_error[2],accumulated_accel_error[3],primary_instance,instances_available,healthy[0],healthy[1],healthy[2],healthy[3],healthy[4],healthy[5],healthy[6],healthy[7],healthy[8],gyro_fault_detected,accel_fault_detected
199102484,1043527,1,3407898,6780433,3407898,466953,0.01416926,0.0137157785,0.014310263,nan,nan,nan,nan,nan,nan,0.0,1.0,1.0,nan,nan,nan,nan,nan,nan,0.0,0.0,0.0,nan,0.0,0.0,0.0,nan,0,3,1,1,1,0,0,0,0,0,0,0,0
201112305,1043527,1,3407898,6780433,3407898,466953,0.015046695,0.015210416,0.012820582,nan,nan,nan,nan,nan,nan,0.0,1.0,1.0,nan,nan,nan,nan,nan,nan,0.0,0.0,0.0,nan,0.0,0.0,0.0,nan,0,3,1,1,1,0,0,0,0,0,0,0,0
202122233,1043527,1,3407898,6780433,3407898,466953,0.02145298,0.020075804,0.02283984,nan,nan,nan,nan,nan,nan,0.0,1.0,1.0,nan,nan,nan,nan,nan,nan,0.0,0.0,0.0,nan,0.0,0.0,0.0,nan,0,3,1,1,1,0,0,0,0,0,0,0,0
203132300,1043527,1,3407898,6780433,3407898,466953,0.017856091,0.017946173,0.017594727,nan,nan,nan,nan,nan,nan,0.0,1.0,1.0,nan,nan,nan,nan,nan,nan,0.0,0.0,0.0,nan,0.0,0.0,0.0,nan,0,3,1,1,1,0,0,0,0,0,0,0,0
204132303,1043527,1,3407898,6780433,3407898,466953,0.018328972,0.019384485,0.020376148,nan,nan,nan,nan,nan,nan,0.0,1.0,1.0,nan,nan,nan,nan,nan,nan,0.0,0.0,0.0,nan,0.0,0.0,0.0,nan,0,3,1,1,1,0,0,0,0,0,0,0,0
205142384,1043527,1,3407898,6780433,3407898,466953,0.01715871,0.018614162,0.018943459,nan,nan,nan,nan,nan,nan,0.0,1.0,1.0,nan,nan,nan,nan,nan,nan,0.0,0.0,0.0,nan,0.0,0.0,0.0,nan,0,3,1,1,1,0,0,0,0,0,0,0,0
206142432,1043527,1,3407898,6780433,3407898,466953,0.044542965,0.024217706,0.020212168,nan,nan,nan,nan,nan,nan,0.0,1.0,1.0,nan,nan,nan,nan,nan,nan,0.0,0.0,0.0,nan,0.0,0.0,0.0,nan,0,3,1,1,1,0,0,0,0,0,0,0,0
207152222,1043527,1,3407898,6780433,3407898,466953,0.03696423,0.043660633,0.040954452,nan,nan,nan,nan,nan,nan,0.0,1.0,1.0,nan,nan,nan,nan,nan,nan,0.0,0.0,0.0,nan,0.0,0.0,0.0,nan,0,3,1,1,1,0,0,0,0,0,0,0,0
208152263,1043527,1,3407898,6780433,3407898,466953,0.0312294,0.032511823,0.035378408,nan,nan,nan,nan,nan,nan,0.0,1.0,1.0,nan,nan,nan,nan,nan,nan,0.0,0.0,0.0,nan,0.0,0.0,0.0,nan,0,3,1,1,1,0,0,0,0,0,0,0,0
209162214,1043527,1,3407898,6780433,3407898,466953,0.04737152,0.049070626,0.0486876,nan,nan,nan,nan,nan,nan,0.0,1.0,1.0,nan,nan,nan,nan,nan,nan,0.0,0.0,0.0,nan,0.0,0.0,0.0,nan,0,3,1,1,1,0,0,0,0,0,0,0,0
210162260,1043527,1,3407898,6780433,3407898,466953,0.0346215,0.026492402,0.026584126,nan,nan,nan,nan,nan,nan,0.0,1.0,1.0,nan,nan,nan,nan,nan,nan,0.0,0.0,0.0,nan,0.0,0.0,0.0,nan,0,3,1,1,1,0,0,0,0,0,0,0,0
212172491,1043527,1,3407898,6780433,3407898,466953,0.045496386,0.035512984,0.03997564,nan,nan,nan,nan,nan,nan,0.0,1.0,1.0,nan,nan,nan,nan,nan,nan,0.0,0.0,0.0,nan,0.0,0.0,0.0,nan,0,3,1,1,1,0,0,0,0,0,0,0,0
213172552,1043527,1,3407898,6780433,3407898,466953,0.044944923,0.03583145,0.053420264,nan,nan,nan,nan,nan,nan,0.0,1.0,1.0,nan,nan,nan,nan,nan,nan,0.0,0.0,0.0,nan,0.0,0.0,0.0,nan,0,3,1,1,1,0,0,0,0,0,0,0,0
214182232,1043527,1,3407898,6780433,3407898,466953,0.028898582,0.02949003,0.025374327,nan,nan,nan,nan,nan,nan,0.0,1.0,1.0,nan,nan,nan,nan,nan,nan,0.0,0.0,0.0,nan,0.0,0.0,0.0,nan,0,3,1,1,1,0,0,0,0,0,0,0,0
215182276,1043527,1,3407898,6780433,3407898,466953,0.043313622,0.045285888,0.041883927,nan,nan,nan,nan,nan,nan,0.0,1.0,1.0,nan,nan,nan,nan,nan,nan,0.0,0.0,0.0,nan,0.0,0.0,0.0,nan,0,3,1,1,1,0,0,0,0,0,0,0,0
216182391,1043527,1,3407898,6780433,3407898,466953,0.059491277,0.052762255,0.058017418,nan,nan,nan,nan,nan,nan,0.0,1.0,1.0,nan,nan,nan,nan,nan,nan,0.0,0.0,0.0,nan,0.0,0.0,0.0,nan,0,3,1,1,1,0,0,0,0,0,0,0,0
217182421,1043527,1,3407898,6780433,3407898,466953,0.02891197,0.052698497,0.04319551,nan,nan,nan,nan,nan,nan,0.0,1.0,1.0,nan,nan,nan,nan,nan,nan,0.0,0.0,0.0,nan,0.0,0.0,0.0,nan,0,3,1,1,1,0,0,0,0,0,0,0,0
218192193,1043527,1,3407898,6780433,3407898,466953,0.023933293,0.025730431,0.021980524,nan,nan,nan,nan,nan,nan,0.0,1.0,1.0,nan,nan,nan,nan,nan,nan,0.0,0.0,0.0,nan,0.0,0.0,0.0,nan,0,3,1,1,1,0,0,0,0,0,0,0,0
219192246,1043527,1,3407898,6780433,3407898,466953,0.040059045,0.05282926,0.051890038,nan,nan,nan,nan,nan,nan,0.0,1.0,1.0,nan,nan,nan,nan,nan,nan,0.0,0.0,0.0,nan,0.0,0.0,0.0,nan,0,3,1,1,1,0,0,0,0,0,0,0,0
220202213,1043527,1,3407898,6780433,3407898,466953,0.033930592,0.030143555,0.035713032,nan,nan,nan,nan,nan,nan,0.0,1.0,1.0,nan,nan,nan,nan,nan,nan,0.0,0.0,0.0,nan,0.0,0.0,0.0,nan,0,3,1,1,1,0,0,0,0,0,0,0,0
221202274,1043527,1,3407898,6780433,3407898,466953,0.03086023,0.04868351,0.048668258,nan,nan,nan,nan,nan,nan,0.0,1.0,1.0,nan,nan,nan,nan,nan,nan,0.0,0.0,0.0,nan,0.0,0.0,0.0,nan,0,3,1,1,1,0,0,0,0,0,0,0,0
222212201,1043527,1,3407898,6780433,3407898,466953,0.05056752,0.054809995,0.052177705,nan,nan,nan,nan,nan,nan,0.0,1.0,1.0,nan,nan,nan,nan,nan,nan,0.0,0.0,0.0,nan,0.0,0.0,0.0,nan,0,3,1,1,1,0,0,0,0,0,0,0,0
223212261,1043527,1,3407898,6780433,3407898,466953,0.037040353,0.061000794,0.059202153,nan,nan,nan,nan,nan,nan,0.0,1.0,1.0,nan,nan,nan,nan,nan,nan,0.0,0.0,0.0,nan,0.0,0.0,0.0,nan,0,3,1,1,1,0,0,0,0,0,0,0,0
224222198,1043527,1,3407898,6780433,3407898,466953,0.023908937,0.03534403,0.0342026,nan,nan,nan,nan,nan,nan,0.0,1.0,1.0,nan,nan,nan,nan,nan,nan,0.0,0.0,0.0,nan,0.0,0.0,0.0,nan,0,3,1,1,1,0,0,0,0,0,0,0,0
225222273,1043527,1,3407898,6780433,3407898,466953,0.03757228,0.042868935,0.044928495,nan,nan,nan,nan,nan,nan,0.0,1.0,1.0,nan,nan,nan,nan,nan,nan,0.0,0.0,0.0,nan,0.0,0.0,0.0,nan,0,3,1,1,1,0,0,0,0,0,0,0,0
226232236,1043527,1,3407898,6780433,3407898,466953,0.044616576,0.04323776,0.05082223,nan,nan,nan,nan,nan,nan,0.0,1.0,1.0,nan,nan,nan,nan,nan,nan,0.0,0.0,0.0,nan,0.0,0.0,0.0,nan,0,3,1,1,1,0,0,0,0,0,0,0,0
227232261,1043527,1,3407898,6780433,3407898,466953,0.024775231,0.046404094,0.045733098,nan,nan,nan,nan,nan,nan,0.0,1.0,1.0,nan,nan,nan,nan,nan,nan,0.0,0.0,0.0,nan,0.0,0.0,0.0,nan,0,3,1,1,1,0,0,0,0,0,0,0,0
228232371,1043527,1,3407898,6780433,3407898,466953,0.021782294,0.042726025,0.045440454,nan,nan,nan,nan,nan,nan,0.0,1.0,1.0,nan,nan,nan,nan,nan,nan,0.0,0.0,0.0,nan,0.0,0.0,0.0,nan,0,3,1,1,1,0,0,0,0,0,0,0,0
229242437,1043527,1,3407898,6780433,3407898,466953,0.039776694,0.025202774,0.023464609,nan,nan,nan,nan,nan,nan,0.0,1.0,1.0,nan,nan,nan,nan,nan,nan,0.0,0.0,0.0,nan,0.0,0.0,0.0,nan,0,3,1,1,1,0,0,0,0,0,0,0,0
230252199,1043527,1,3407898,6780433,3407898,466953,0.020269616,0.026746001,0.034168374,nan,nan,nan,nan,nan,nan,0.0,1.0,1.0,nan,nan,nan,nan,nan,nan,0.0,0.0,0.0,nan,0.0,0.0,0.0,nan,0,3,1,1,1,0,0,0,0,0,0,0,0
231252239,1043527,1,3407898,6780433,3407898,466953,0.031223038,0.03692243,0.03621287,nan,nan,nan,nan,nan,nan,0.0,1.0,1.0,nan,nan,nan,nan,nan,nan,0.0,0.0,0.0,nan,0.0,0.0,0.0,nan,0,3,1,1,1,0,0,0,0,0,0,0,0
232262411,1043527,1,3407898,6780433,3407898,466953,0.033198193,0.03303893,0.034937166,nan,nan,nan,nan,nan,nan,0.0,1.0,1.0,nan,nan,nan,nan,nan,nan,0.0,0.0,0.0,nan,0.0,0.0,0.0,nan,0,3,1,1,1,0,0,0,0,0,0,0,0
233262445,1043527,1,3407898,6780433,3407898,466953,0.024003237,0.034513257,0.03549251,nan,nan,nan,nan,nan,nan,0.0,1.0,1.0,nan,nan,nan,nan,nan,nan,0.0,0.0,0.0,nan,0.0,0.0,0.0,nan,0,3,1,1,1,0,0,0,0,0,0,0,0
234272214,1043527,1,3407898,6780433,3407898,466953,0.025251534,0.038514264,0.039910927,nan,nan,nan,nan,nan,nan,0.0,1.0,1.0,nan,nan,nan,nan,nan,nan,0.0,0.0,0.0,nan,0.0,0.0,0.0,nan,0,3,1,1,1,0,0,0,0,0,0,0,0
235272437,1043527,1,3407898,6780433,3407898,466953,0.010136945,0.025605815,0.025150461,nan,nan,nan,nan,nan,nan,0.0,1.0,1.0,nan,nan,nan,nan,nan,nan,0.0,0.0,0.0,nan,0.0,0.0,0.0,nan,0,3,1,1,1,0,0,0,0,0,0,0,0
236282193,1043527,1,3407898,6780433,3407898,466953,0.034727268,0.03403883,0.033066947,nan,nan,nan,nan,nan,nan,0.0,1.0,1.0,nan,nan,nan,nan,nan,nan,0.0,0.0,0.0,nan,0.0,0.0,0.0,nan,0,3,1,1,1,0,0,0,0,0,0,0,0
237282280,1043527,1,3407898,6780433,3407898,466953,0.03511982,0.039859153,0.025503535,nan,nan,nan,nan,nan,nan,0.0,1.0,1.0,nan,nan,nan,nan,nan,nan,0.0,0.0,0.0,nan,0.0,0.0,0.0,nan,0,3,1,1,1,0,0,0,0,0,0,0,0
238292196,1043527,1,3407898,6780433,3407898,466953,0.018258156,0.02946343,0.02062279,nan,nan,nan,nan,nan,nan,0.0,1.0,1.0,nan,nan,nan,nan,nan,nan,0.0,0.0,0.0,nan,0.0,0.0,0.0,nan,0,3,1,1,1,0,0,0,0,0,0,0,0
239292237,1043527,1,3407898,6780433,3407898,466953,0.034081712,0.029362964,0.025409188,nan,nan,nan,nan,nan,nan,0.0,1.0,1.0,nan,nan,nan,nan,nan,nan,0.0,0.0,0.0,nan,0.0,0.0,0.0,nan,0,3,1,1,1,0,0,0,0,0,0,0,0
240302194,1043527,1,3407898,6780433,3407898,466953,0.015313684,0.027245233,0.026456809,nan,nan,nan,nan,nan,nan,0.0,1.0,1.0,nan,nan,nan,nan,nan,nan,0.0,0.0,0.0,nan,0.0,0.0,0.0,nan,0,3,1,1,1,0,0,0,0,0,0,0,0
241302235,1043527,1,3407898,6780433,3407898,466953,0.030374479,0.0443169,0.036714643,nan,nan,nan,nan,nan,nan,0.0,1.0,1.0,nan,nan,nan,nan,nan,nan,0.0,0.0,0.0,nan,0.0,0.0,0.0,nan,0,3,1,1,1,0,0,0,0,0,0,0,0
242312265,1043527,1,3407898,6780433,3407898,466953,0.028244127,0.035591353,0.029483981,nan,nan,nan,nan,nan,nan,0.0,1.0,1.0,nan,nan,nan,nan,nan,nan,0.0,0.0,0.0,nan,0.0,0.0,0.0,nan,0,3,1,1,1,0,0,0,0,0,0,0,0
243322238,1043527,1,3407898,6780433,3407898,466953,0.013540195,0.020372605,0.018062834,nan,nan,nan,nan,nan,nan,0.0,1.0,1.0,nan,nan,nan,nan,nan,nan,0.0,0.0,0.0,nan,0.0,0.0,0.0,nan,0,3,1,1,1,0,0,0,0,0,0,0,0
244332194,1043527,1,3407898,6780433,3407898,466953,0.05128284,0.042260885,0.04092475,nan,nan,nan,nan,nan,nan,0.0,1.0,1.0,nan,nan,nan,nan,nan,nan,0.0,0.0,0.0,nan,0.0,0.0,0.0,nan,0,3,1,1,1,0,0,0,0,0,0,0,0
245332238,1043527,1,3407898,6780433,3407898,466953,0.01255211,0.020171566,0.017646655,nan,nan,nan,nan,nan,nan,0.0,1.0,1.0,nan,nan,nan,nan,nan,nan,0.0,0.0,0.0,nan,0.0,0.0,0.0,nan,0,3,1,1,1,0,0,0,0,0,0,0,0
246342434,1043527,1,3407898,6780433,3407898,466953,0.015274984,0.020455554,0.017824974,nan,nan,nan,nan,nan,nan,0.0,1.0,1.0,nan,nan,nan,nan,nan,nan,0.0,0.0,0.0,nan,0.0,0.0,0.0,nan,0,3,1,1,1,0,0,0,0,0,0,0,0
248352430,1043527,1,3407898,6780433,3407898,466953,0.041942246,0.029607192,0.03567113,nan,nan,nan,nan,nan,nan,0.0,1.0,1.0,nan,nan,nan,nan,nan,nan,0.0,0.0,0.0,nan,0.0,0.0,0.0,nan,0,3,1,1,1,0,0,0,0,0,0,0,0
249362239,1043527,1,3407898,6780433,3407898,466953,0.027380813,0.03094393,0.02854667,nan,nan,nan,nan,nan,nan,0.0,1.0,1.0,nan,nan,nan,nan,nan,nan,0.0,0.0,0.0,nan,0.0,0.0,0.0,nan,0,3,1,1,1,0,0,0,0,0,0,0,0
250362246,1043527,1,3407898,6780433,3407898,466953,0.01874496,0.02955805,0.018807987,nan,nan,nan,nan,nan,nan,0.0,1.0,1.0,nan,nan,nan,nan,nan,nan,0.0,0.0,0.0,nan,0.0,0.0,0.0,nan,0,3,1,1,1,0,0,0,0,0,0,0,0
251372242,1043527,1,3407898,6780433,3407898,466953,0.018812822,0.025065904,0.023407996,nan,nan,nan,nan,nan,nan,0.0,1.0,1.0,nan,nan,nan,nan,nan,nan,0.0,0.0,0.0,nan,0.0,0.0,0.0,nan,0,3,1,1,1,0,0,0,0,0,0,0,0
252382196,1043527,1,3407898,6780433,3407898,466953,0.03471165,0.036350377,0.03550779,nan,nan,nan,nan,nan,nan,0.0,1.0,1.0,nan,nan,nan,nan,nan,nan,0.0,0.0,0.0,nan,0.0,0.0,0.0,nan,0,3,1,1,1,0,0,0,0,0,0,0,0
253382226,1043527,1,3407898,6780433,3407898,466953,0.02503391,0.03110266,0.038746033,nan,nan,nan,nan,nan,nan,0.0,1.0,1.0,nan,nan,nan,nan,nan,nan,0.0,0.0,0.0,nan,0.0,0.0,0.0,nan,0,3,1,1,1,0,0,0,0,0,0,0,0
254392221,1043527,1,3407898,6780433,3407898,466953,0.04175742,0.054218393,0.05322628,nan,nan,nan,nan,nan,nan,0.0,1.0,1.0,nan,nan,nan,nan,nan,nan,0.0,0.0,0.0,nan,0.0,0.0,0.0,nan,0,3,1,1,1,0,0,0,0,0,0,0,0
255392233,1043527,1,3407898,6780433,3407898,466953,0.044081837,0.0410774,0.061059043,nan,nan,nan,nan,nan,nan,0.0,1.0,1.0,nan,nan,nan,nan,nan,nan,0.0,0.0,0.0,nan,0.0,0.0,0.0,nan,0,3,1,1,1,0,0,0,0,0,0,0,0
256392250,1043527,1,3407898,6780433,3407898,466953,0.057564426,0.05682043,0.068287246,nan,nan,nan,nan,nan,nan,0.0,1.0,1.0,nan,nan,nan,nan,nan,nan,0.0,0.0,0.0,nan,0.0,0.0,0.0,nan,0,3,1,1,1,0,0,0,0,0,0,0,0
257402229,1043527,1,3407898,6780433,3407898,466953,0.03599426,0.036384262,0.044088334,nan,nan,nan,nan,nan,nan,0.0,1.0,1.0,nan,nan,nan,nan,nan,nan,0.0,0.0,0.0,nan,0.0,0.0,0.0,nan,0,3,1,1,1,0,0,0,0,0,0,0,0
258412222,1043527,1,3407898,6780433,3407898,466953,0.06782361,0.07071759,0.06916746,nan,nan,nan,nan,nan,nan,0.0,1.0,1.0,nan,nan,nan,nan,nan,nan,0.0,0.0,0.0,nan,0.0,0.0,0.0,nan,0,3,1,1,1,0,0,0,0,0,0,0,0
259412233,1043527,1,3407898,6780433,3407898,466953,0.029338595,0.036229942,0.040418882,nan,nan,nan,nan,nan,nan,0.0,1.0,1.0,nan,nan,nan,nan,nan,nan,0.0,0.0,0.0,nan,0.0,0.0,0.0,nan,0,3,1,1,1,0,0,0,0,0,0,0,0
260422238,1043527,1,3407898,6780433,3407898,466953,0.028239686,0.033430316,0.035190374,nan,nan,nan,nan,nan,nan,0.0,1.0,1.0,nan,nan,nan,nan,nan,nan,0.0,0.0,0.0,nan,0.0,0.0,0.0,nan,0,3,1,1,1,0,0,0,0,0,0,0,0
261422261,1043527,1,3407898,6780433,3407898,466953,0.01866551,0.022181682,0.02344218,nan,nan,nan,nan,nan,nan,0.0,1.0,1.0,nan,nan,nan,nan,nan,nan,0.0,0.0,0.0,nan,0.0,0.0,0.0,nan,0,3,1,1,1,0,0,0,0,0,0,0,0
262432191,1043527,1,3407898,6780433,3407898,466953,0.026715586,0.03393039,0.029577166,nan,nan,nan,nan,nan,nan,0.0,1.0,1.0,nan,nan,nan,nan,nan,nan,0.0,0.0,0.0,nan,0.0,0.0,0.0,nan,0,3,1,1,1,0,0,0,0,0,0,0,0
263432227,1043527,1,3407898,6780433,3407898,466953,0.02440966,0.028095605,0.033326313,nan,nan,nan,nan,nan,nan,0.0,1.0,1.0,nan,nan,nan,nan,nan,nan,0.0,0.0,0.0,nan,0.0,0.0,0.0,nan,0,3,1,1,1,0,0,0,0,0,0,0,0
264442591,1043527,1,3407898,6780433,3407898,466953,0.050113115,0.043194488,0.048510235,nan,nan,nan,nan,nan,nan,0.0,1.0,1.0,nan,nan,nan,nan,nan,nan,0.0,0.0,0.0,nan,0.0,0.0,0.0,nan,0,3,1,1,1,0,0,0,0,0,0,0,0
265452268,1043527,1,3407898,6780433,3407898,466953,0.025735255,0.030281171,0.028847601,nan,nan,nan,nan,nan,nan,0.0,1.0,1.0,nan,nan,nan,nan,nan,nan,0.0,0.0,0.0,nan,0.0,0.0,0.0,nan,0,3,1,1,1,0,0,0,0,0,0,0,0
266462211,1043527,1,3407898,6780433,3407898,466953,0.034000657,0.03924309,0.037432995,nan,nan,nan,nan,nan,nan,0.0,1.0,1.0,nan,nan,nan,nan,nan,nan,0.0,0.0,0.0,nan,0.0,0.0,0.0,nan,0,3,1,1,1,0,0,0,0,0,0,0,0
267462233,1043527,1,3407898,6780433,3407898,466953,0.027898122,0.03419405,0.032062627,nan,nan,nan,nan,nan,nan,0.0,1.0,1.0,nan,nan,nan,nan,nan,nan,0.0,0.0,0.0,nan,0.0,0.0,0.0,nan,0,3,1,1,1,0,0,0,0,0,0,0,0
268472195,1043527,1,3407898,6780433,3407898,466953,0.02961439,0.040706486,0.036871888,nan,nan,nan,nan,nan,nan,0.0,1.0,1.0,nan,nan,nan,nan,nan,nan,0.0,0.0,0.0,nan,0.0,0.0,0.0,nan,0,3,1,1,1,0,0,0,0,0,0,0,0
269472241,1043527,1,3407898,6780433,3407898,466953,0.021124044,0.027176252,0.02417594,nan,nan,nan,nan,nan,nan,0.0,1.0,1.0,nan,nan,nan,nan,nan,nan,0.0,0.0,0.0,nan,0.0,0.0,0.0,nan,0,3,1,1,1,0,0,0,0,0,0,0,0
270482194,1043527,1,3407898,6780433,3407898,466953,0.052187428,0.057097152,0.054211237,nan,nan,nan,nan,nan,nan,0.0,1.0,1.0,nan,nan,nan,nan,nan,nan,0.0,0.0,0.0,nan,0.0,0.0,0.0,nan,0,3,1,1,1,0,0,0,0,0,0,0,0
271482232,1043527,1,3407898,6780433,3407898,466953,0.07072323,0.08243846,0.079330556,nan,nan,nan,nan,nan,nan,0.0,1.0,1.0,nan,nan,nan,nan,nan,nan,0.0,0.0,0.0,nan,0.0,0.0,0.0,nan,0,3,1,1,1,0,0,0,0,0,0,0,0
272492201,1043527,1,3407898,6780433,3407898,466953,0.072777465,0.08473732,0.07629069,nan,nan,nan,nan,nan,nan,0.0,1.0,1.0,nan,nan,nan,nan,nan,nan,0.0,0.0,0.0,nan,0.0,0.0,0.0,nan,0,3,1,1,1,0,0,0,0,0,0,0,0
274502214,1043527,1,3407898,6780433,3407898,466953,0.017846946,0.018538518,0.012253877,nan,nan,nan,nan,nan,nan,0.0,1.0,1.0,nan,nan,nan,nan,nan,nan,0.0,0.0,0.0,nan,0.0,0.0,0.0,nan,0,3,1,1,1,0,0,0,0,0,0,0,0
275502273,1043527,1,3407898,6780433,3407898,466953,0.03149397,0.028742464,0.026026871,nan,nan,nan,nan,nan,nan,0.0,1.0,1.0,nan,nan,nan,nan,nan,nan,0.0,0.0,0.0,nan,0.0,0.0,0.0,nan,0,3,1,1,1,0,0,0,0,0,0,0,0
276512192,1043527,1,3407898,6780433,3407898,466953,0.058539018,0.052142538,0.05503153,nan,nan,nan,nan,nan,nan,0.0,1.0,1.0,nan,nan,nan,nan,nan,nan,0.0,0.0,0.0,nan,0.0,0.0,0.0,nan,0,3,1,1,1,0,0,0,0,0,0,0,0
277512259,1043527,1,3407898,6780433,3407898,466953,0.019880947,0.025005395,0.02450296,nan,nan,nan,nan,nan,nan,0.0,1.0,1.0,nan,nan,nan,nan,nan,nan,0.0,0.0,0.0,nan,0.0,0.0,0.0,nan,0,3,1,1,1,0,0,0,0,0,0,0,0
278522361,1043527,1,3407898,6780433,3407898,466953,0.016754506,0.01813548,0.015215702,nan,nan,nan,nan,nan,nan,0.0,1.0,1.0,nan,nan,nan,nan,nan,nan,0.0,0.0,0.0,nan,0.0,0.0,0.0,nan,0,3,1,1,1,0,0,0,0,0,0,0,0
279522446,1043527,1,3407898,6780433,3407898,466953,0.01914766,0.016912924,0.0149282785,nan,nan,nan,nan,nan,nan,0.0,1.0,1.0,nan,nan,nan,nan,nan,nan,0.0,0.0,0.0,nan,0.0,0.0,0.0,nan,0,3,1,1,1,0,0,0,0,0,0,0,0
280532614,1043527,1,3407898,6780433,3407898,466953,0.024832971,0.03630551,0.031201359,nan,nan,nan,nan,nan,nan,0.0,1.0,1.0,nan,nan,nan,nan,nan,nan,0.0,0.0,0.0,nan,0.0,0.0,0.0,nan,0,3,1,1,1,0,0,0,0,0,0,0,0
281542494,1043527,1,3407898,6780433,3407898,466953,0.023788895,0.030096827,0.034160245,nan,nan,nan,nan,nan,nan,0.0,1.0,1.0,nan,nan,nan,nan,nan,nan,0.0,0.0,0.0,nan,0.0,0.0,0.0,nan,0,3,1,1,1,0,0,0,0,0,0,0,0
282552205,1043527,1,3407898,6780433,3407898,466953,0.043081094,0.034108203,0.042806063,nan,nan,nan,nan,nan,nan,0.0,1.0,1.0,nan,nan,nan,nan,nan,nan,0.0,0.0,0.0,nan,0.0,0.0,0.0,nan,0,3,1,1,1,0,0,0,0,0,0,0,0
283552260,1043527,1,3407898,6780433,3407898,466953,0.02891294,0.023257993,0.03417696,nan,nan,nan,nan,nan,nan,0.0,1.0,1.0,nan,nan,nan,nan,nan,nan,0.0,0.0,0.0,nan,0.0,0.0,0.0,nan,0,3,1,1,1,0,0,0,0,0,0,0,0
284562214,1043527,1,3407898,6780433,3407898,466953,0.014340615,0.020908406,0.026518907,nan,nan,nan,nan,nan,nan,0.0,1.0,1.0,nan,nan,nan,nan,nan,nan,0.0,0.0,0.0,nan,0.0,0.0,0.0,nan,0,3,1,1,1,0,0,0,0,0,0,0,0
285562260,1043527,1,3407898,6780433,3407898,466953,0.017771773,0.032297548,0.0308044,nan,nan,nan,nan,nan,nan,0.0,1.0,1.0,nan,nan,nan,nan,nan,nan,0.0,0.0,0.0,nan,0.0,0.0,0.0,nan,0,3,1,1,1,0,0,0,0,0,0,0,0
286572200,1043527,1,3407898,6780433,3407898,466953,0.025371343,0.08684354,0.033206936,nan,nan,nan,nan,nan,nan,0.0,1.0,1.0,nan,nan,nan,nan,nan,nan,0.0,0.0,0.0,nan,0.0,0.0,0.0,nan,0,3,1,1,1,0,0,0,0,0,0,0,0
287572234,1043527,1,3407898,6780433,3407898,466953,0.02789728,0.09634817,0.047329113,nan,nan,nan,nan,nan,nan,0.0,1.0,1.0,nan,nan,nan,nan,nan,nan,0.0,0.0,0.0,nan,0.0,0.0,0.0,nan,0,3,1,1,1,0,0,0,0,0,0,0,0
288582198,1043527,1,3407898,6780433,3407898,466953,0.021953637,0.12106587,0.061963968,nan,nan,nan,nan,nan,nan,0.0,1.0,1.0,nan,nan,nan,nan,nan,nan,0.0,0.0,0.0,nan,0.0,0.0,0.0,nan,0,3,1,1,1,0,0,0,0,0,0,0,0
289582229,1043527,1,3407898,6780433,3407898,466953,0.041725904,0.14690703,0.060962092,nan,nan,nan,nan,nan,nan,0.0,1.0,1.0,nan,nan,nan,nan,nan,nan,0.0,0.0,0.0,nan,0.0,0.0,0.0,nan,0,3,1,1,1,0,0,0,0,0,0,0,0
290582236,1043527,1,3407898,6780433,3407898,466953,0.068112746,0.18810639,0.06379039,nan,nan,nan,nan,nan,nan,0.0,1.0,1.0,nan,nan,nan,nan,nan,nan,0.0,0.0,0.0,nan,0.0,0.0,0.0,nan,0,3,1,1,1,0,0,0,0,0,0,0,0
291582271,1043527,1,3407898,6780433,3407898,466953,0.024503287,0.15498188,0.042402793,nan,nan,nan,nan,nan,nan,0.0,1.0,1.0,nan,nan,nan,nan,nan,nan,0.0,0.0,0.0,nan,0.0,0.0,0.0,nan,0,3,1,1,1,0,0,0,0,0,0,0,0
292592182,1043527,1,3407898,6780433,3407898,466953,0.045859948,0.18251176,0.043779697,nan,nan,nan,nan,nan,nan,0.0,1.0,1.0,nan,nan,nan,nan,nan,nan,0.0,0.0,0.0,nan,0.0,0.0,0.0,nan,0,3,1,1,1,0,0,0,0,0,0,0,0
293592228,1043527,1,3407898,6780433,3407898,466953,0.05219075,0.1892669,0.08607184,nan,nan,nan,nan,nan,nan,0.0,1.0,1.0,nan,nan,nan,nan,nan,nan,0.0,0.0,0.0,nan,0.0,0.0,0.0,nan,0,3,1,1,1,0,0,0,0,0,0,0,0
294602192,1043527,1,3407898,6780433,3407898,466953,0.023962975,0.15076706,0.076577604,nan,nan,nan,nan,nan,nan,0.0,1.0,1.0,nan,nan,nan,nan,nan,nan,0.0,0.0,0.0,nan,0.0,0.0,0.0,nan,0,3,1,1,1,0,0,0,0,0,0,0,0
295602229,1043527,1,3407898,6780433,3407898,466953,0.09453551,0.16907178,0.13032933,nan,nan,nan,nan,nan,nan,0.0,1.0,1.0,nan,nan,nan,nan,nan,nan,0.0,0.0,0.0,nan,0.0,0.0,0.0,nan,0,3,1,1,1,0,0,0,0,0,0,0,0
296612432,1043527,1,3407898,6780433,3407898,466953,0.10002643,0.17154583,0.13854222,nan,nan,nan,nan,nan,nan,0.0,1.0,1.0,nan,nan,nan,nan,nan,nan,0.0,0.0,0.0,nan,0.0,0.0,0.0,nan,0,3,1,1,1,0,0,0,0,0,0,0,0
297332420,1043527,1,3407898,6780433,3407898,466953,1.0,1.0,0.19494201,nan,nan,nan,nan,nan,nan,0.0,1.0,0.194942,nan,nan,nan,nan,nan,nan,0.0,0.0,0.0,nan,0.0,0.0,0.0,nan,0,3,1,1,1,0,0,0,0,0,0,0,0
298332607,1043527,1,3407898,6780433,3407898,466953,1.0,1.0,1.0,nan,nan,nan,nan,nan,nan,0.0,1.0,0.194942,nan,nan,nan,nan,nan,nan,0.0,0.0,0.0,nan,0.0,0.0,0.0,nan,0,3,1,1,1,0,0,0,0,0,0,0,0
299332610,1043527,1,3407898,6780433,3407898,466953,1.0,1.0,1.0,nan,nan,nan,nan,nan,nan,0.0,1.0,0.194942,nan,nan,nan,nan,nan,nan,0.0,0.0,0.0,nan,0.0,0.0,0.0,nan,0,3,1,1,1,0,0,0,0,0,0,0,0
300342344,1043527,1,3407898,6780433,3407898,466953,1.0,1.0,1.0,nan,nan,nan,nan,nan,nan,0.0,1.0,0.194942,nan,nan,nan,nan,nan,nan,0.0,0.0,0.0,nan,0.0,0.0,0.0,nan,0,3,1,1,1,0,0,0,0,0,0,0,0
301352207,1043527,1,3407898,6780433,3407898,466953,1.0,1.0,1.0,nan,nan,nan,nan,nan,nan,0.0,1.0,0.194942,nan,nan,nan,nan,nan,nan,0.0,0.0,0.0,nan,0.0,0.0,0.0,nan,0,3,1,1,1,0,0,0,0,0,0,0,0
302352219,1043527,1,3407898,6780433,3407898,466953,1.0,1.0,1.0,nan,nan,nan,nan,nan,nan,0.0,1.0,0.194942,nan,nan,nan,nan,nan,nan,0.0,0.0,0.0,nan,0.0,0.0,0.0,nan,0,3,1,1,1,0,0,0,0,0,0,0,0
303362213,1043527,1,3407898,6780433,3407898,466953,1.0,1.0,1.0,nan,nan,nan,nan,nan,nan,0.0,1.0,0.194942,nan,nan,nan,nan,nan,nan,0.0,0.0,0.0,nan,0.0,0.0,0.0,nan,0,3,1,1,1,0,0,0,0,0,0,0,0
304362490,1043527,1,3407898,6780433,3407898,466953,1.0,1.0,1.0,nan,nan,nan,nan,nan,nan,0.0,1.0,0.194942,nan,nan,nan,nan,nan,nan,0.0,0.0,0.0,nan,0.0,0.0,0.0,nan,0,3,1,1,1,0,0,0,0,0,0,0,0
305372348,1043527,1,3407898,6780433,3407898,466953,1.0,1.0,1.0,nan,nan,nan,nan,nan,nan,0.0,1.0,0.194942,nan,nan,nan,nan,nan,nan,0.0,0.0,0.0,nan,0.0,0.0,0.0,nan,0,3,1,1,1,0,0,0,0,0,0,0,0
306382214,1043527,1,3407898,6780433,3407898,466953,1.0,1.0,1.0,nan,nan,nan,nan,nan,nan,0.0,1.0,0.194942,nan,nan,nan,nan,nan,nan,0.0,0.0,0.0,nan,0.0,0.0,0.0,nan,0,3,1,1,1,0,0,0,0,0,0,0,0
307392237,1043527,1,3407898,6780433,3407898,466953,0.15821049,1.0,1.0,nan,nan,nan,nan,nan,nan,0.0,1.0,1.0,nan,nan,nan,nan,nan,nan,0.0,0.0,0.0,nan,0.0,0.0,0.0,nan,0,3,1,1,1,0,0,0,0,0,0,0,0
308392278,1043527,1,3407898,6780433,3407898,466953,0.0767036,0.089758545,0.111303136,nan,nan,nan,nan,nan,nan,0.0,1.0,1.0,nan,nan,nan,nan,nan,nan,0.0,0.0,0.0,nan,0.0,0.0,0.0,nan,0,3,1,1,1,0,0,0,0,0,0,0,0
309402232,1043527,1,3407898,6780433,3407898,466953,0.14969307,0.15577976,0.15482914,nan,nan,nan,nan,nan,nan,0.0,1.0,1.0,nan,nan,nan,nan,nan,nan,0.0,0.0,0.0,nan,0.0,0.0,0.0,nan,0,3,1,1,1,0,0,0,0,0,0,0,0
310412416,1043527,1,3407898,6780433,3407898,466953,0.19355568,0.20527199,0.20495477,nan,nan,nan,nan,nan,nan,0.0,1.0,1.0,nan,nan,nan,nan,nan,nan,0.0,0.0,0.0,nan,0.0,0.0,0.0,nan,0,3,1,1,1,0,0,0,0,0,0,0,0
311422202,1043527,1,3407898,6780433,3407898,466953,0.15518878,0.16058335,0.14984116,nan,nan,nan,nan,nan,nan,0.0,1.0,1.0,nan,nan,nan,nan,nan,nan,0.0,0.0,0.0,nan,0.0,0.0,0.0,nan,0,3,1,1,1,0,0,0,0,0,0,0,0
312422270,1043527,1,3407898,6780433,3407898,466953,0.2019157,0.19528827,0.19967568,nan,nan,nan,nan,nan,nan,0.0,1.0,1.0,nan,nan,nan,nan,nan,nan,0.0,0.0,0.0,nan,0.0,0.0,0.0,nan,0,3,1,1,1,0,0,0,0,0,0,0,0
313422412,1043527,1,3407898,6780433,3407898,466953,0.19686644,0.18728678,0.19000027,nan,nan,nan,nan,nan,nan,0.0,1.0,1.0,nan,nan,nan,nan,nan,nan,0.0,0.0,0.0,nan,0.0,0.0,0.0,nan,0,3,1,1,1,0,0,0,0,0,0,0,0
314422438,1043527,1,3407898,6780433,3407898,466953,0.15006143,0.13477552,0.14151204,nan,nan,nan,nan,nan,nan,0.0,1.0,1.0,nan,nan,nan,nan,nan,nan,0.0,0.0,0.0,nan,0.0,0.0,0.0,nan,0,3,1,1,1,0,0,0,0,0,0,0,0
315432201,1043527,1,3407898,6780433,3407898,466953,0.15112858,0.13362467,0.14058317,nan,nan,nan,nan,nan,nan,0.0,1.0,1.0,nan,nan,nan,nan,nan,nan,0.0,0.0,0.0,nan,0.0,0.0,0.0,nan,0,3,1,1,1,0,0,0,0,0,0,0,0
316432237,1043527,1,3407898,6780433,3407898,466953,0.13070798,0.105881326,0.11260955,nan,nan,nan,nan,nan,nan,0.0,1.0,1.0,nan,nan,nan,nan,nan,nan,0.0,0.0,0.0,nan,0.0,0.0,0.0,nan,0,3,1,1,1,0,0,0,0,0,0,0,0
317442187,1043527,1,3407898,6780433,3407898,466953,0.12534922,0.10006695,0.1071419,nan,nan,nan,nan,nan,nan,0.0,1.0,1.0,nan,nan,nan,nan,nan,nan,0.0,0.0,0.0,nan,0.0,0.0,0.0,nan,0,3,1,1,1,0,0,0,0,0,0,0,0
318442234,1043527,1,3407898,6780433,3407898,466953,0.10842325,0.08554556,0.080527335,nan,nan,nan,nan,nan,nan,0.0,1.0,1.0,nan,nan,nan,nan,nan,nan,0.0,0.0,0.0,nan,0.0,0.0,0.0,nan,0,3,1,1,1,0,0,0,0,0,0,0,0
319442271,1043527,1,3407898,6780433,3407898,466953,0.13852358,0.08695589,0.064443745,nan,nan,nan,nan,nan,nan,0.0,1.0,1.0,nan,nan,nan,nan,nan,nan,0.0,0.0,0.0,nan,0.0,0.0,0.0,nan,0,3,1,1,1,0,0,0,0,0,0,0,0
320442302,1043527,1,3407898,6780433,3407898,466953,0.17216441,0.11771416,0.09512639,nan,nan,nan,nan,nan,nan,0.0,1.0,1.0,nan,nan,nan,nan,nan,nan,0.0,0.0,0.0,nan,0.0,0.0,0.0,nan,0,3,1,1,1,0,0,0,0,0,0,0,0
321452197,1043527,1,3407898,6780433,3407898,466953,0.13759045,0.11149287,0.10309218,nan,nan,nan,nan,nan,nan,0.0,1.0,1.0,nan,nan,nan,nan,nan,nan,0.0,0.0,0.0,nan,0.0,0.0,0.0,nan,0,3,1,1,1,0,0,0,0,0,0,0,0
322452260,1043527,1,3407898,6780433,3407898,466953,0.17318162,0.1113452,0.10042389,nan,nan,nan,nan,nan,nan,0.0,1.0,1.0,nan,nan,nan,nan,nan,nan,0.0,0.0,0.0,nan,0.0,0.0,0.0,nan,0,3,1,1,1,0,0,0,0,0,0,0,0
323462191,1043527,1,3407898,6780433,3407898,466953,0.18080032,0.11591284,0.106004685,nan,nan,nan,nan,nan,nan,0.0,1.0,1.0,nan,nan,nan,nan,nan,nan,0.0,0.0,0.0,nan,0.0,0.0,0.0,nan,0,3,1,1,1,0,0,0,0,0,0,0,0
324462236,1043527,1,3407898,6780433,3407898,466953,0.17867823,0.10629214,0.107155345,nan,nan,nan,nan,nan,nan,0.0,1.0,1.0,nan,nan,nan,nan,nan,nan,0.0,0.0,0.0,nan,0.0,0.0,0.0,nan,0,3,1,1,1,0,0,0,0,0,0,0,0
325472212,1043527,1,3407898,6780433,3407898,466953,0.19015223,0.11503419,0.11837335,nan,nan,nan,nan,nan,nan,0.0,1.0,1.0,nan,nan,nan,nan,nan,nan,0.0,0.0,0.0,nan,0.0,0.0,0.0,nan,0,3,1,1,1,0,0,0,0,0,0,0,0
326472234,1043527,1,3407898,6780433,3407898,466953,0.17894247,0.105516404,0.104886115,nan,nan,nan,nan,nan,nan,0.0,1.0,1.0,nan,nan,nan,nan,nan,nan,0.0,0.0,0.0,nan,0.0,0.0,0.0,nan,0,3,1,1,1,0,0,0,0,0,0,0,0
327482190,1043527,1,3407898,6780433,3407898,466953,0.18658322,0.11498226,0.11771423,nan,nan,nan,nan,nan,nan,0.0,1.0,1.0,nan,nan,nan,nan,nan,nan,0.0,0.0,0.0,nan,0.0,0.0,0.0,nan,0,3,1,1,1,0,0,0,0,0,0,0,0
328482243,1043527,1,3407898,6780433,3407898,466953,0.20459962,0.1279326,0.13649864,nan,nan,nan,nan,nan,nan,0.0,1.0,1.0,nan,nan,nan,nan,nan,nan,0.0,0.0,0.0,nan,0.0,0.0,0.0,nan,0,3,1,1,1,0,0,0,0,0,0,0,0
330492493,1043527,1,3407898,6780433,3407898,466953,0.20854712,0.12976605,0.14519164,nan,nan,nan,nan,nan,nan,0.0,1.0,1.0,nan,nan,nan,nan,nan,nan,0.0,0.0,0.0,nan,0.0,0.0,0.0,nan,0,3,1,1,1,0,0,0,0,0,0,0,0
331502193,1043527,1,3407898,6780433,3407898,466953,0.19497614,0.14307931,0.14332446,nan,nan,nan,nan,nan,nan,0.0,1.0,1.0,nan,nan,nan,nan,nan,nan,0.0,0.0,0.0,nan,0.0,0.0,0.0,nan,0,3,1,1,1,0,0,0,0,0,0,0,0
332502255,1043527,1,3407898,6780433,3407898,466953,0.18934688,0.11404669,0.1352771,nan,nan,nan,nan,nan,nan,0.0,1.0,1.0,nan,nan,nan,nan,nan,nan,0.0,0.0,0.0,nan,0.0,0.0,0.0,nan,0,3,1,1,1,0,0,0,0,0,0,0,0
332632354,1043527,1,3407898,6780433,3407898,466953,1.0,0.1128218,1.0,nan,nan,nan,nan,nan,nan,0.0,0.11282182,1.0,nan,nan,nan,nan,nan,nan,0.0,0.0,0.0,nan,0.0,0.0,0.0,nan,0,3,1,1,1,0,0,0,0,0,0,0,0
333632380,1043527,1,3407898,6780433,3407898,466953,1.0,1.0,1.0,nan,nan,nan,nan,nan,nan,0.0,0.11282182,1.0,nan,nan,nan,nan,nan,nan,0.0,0.0,0.0,nan,0.0,0.0,0.0,nan,0,3,1,1,1,0,0,0,0,0,0,0,0
334642607,1043527,1,3407898,6780433,3407898,466953,1.0,1.0,1.0,nan,nan,nan,nan,nan,nan,0.0,0.11282182,1.0,nan,nan,nan,nan,nan,nan,0.0,0.0,0.0,nan,0.0,0.0,0.0,nan,0,3,1,1,1,0,0,0,0,0,0,0,0
335652201,1043527,1,3407898,6780433,3407898,466953,1.0,1.0,1.0,nan,nan,nan,nan,nan,nan,0.0,0.11282182,1.0,nan,nan,nan,nan,nan,nan,0.0,0.0,0.0,nan,0.0,0.0,0.0,nan,0,3,1,1,1,0,0,0,0,0,0,0,0
336652213,1043527,1,3407898,6780433,3407898,466953,1.0,1.0,1.0,nan,nan,nan,nan,nan,nan,0.0,0.11282182,1.0,nan,nan,nan,nan,nan,nan,0.0,0.0,0.0,nan,0.0,0.0,0.0,nan,0,3,1,1,1,0,0,0,0,0,0,0,0
337652337,1043527,1,3407898,6780433,3407898,466953,1.0,1.0,1.0,nan,nan,nan,nan,nan,nan,0.0,0.11282182,1.0,nan,nan,nan,nan,nan,nan,0.0,0.0,0.0,nan,0.0,0.0,0.0,nan,0,3,1,1,1,0,0,0,0,0,0,0,0
338662208,1043527,1,3407898,6780433,3407898,466953,1.0,1.0,1.0,nan,nan,nan,nan,nan,nan,0.0,0.11282182,1.0,nan,nan,nan,nan,nan,nan,0.0,0.0,0.0,nan,0.0,0.0,0.0,nan,0,3,1,1,1,0,0,0,0,0,0,0,0
339672232,1043527,1,3407898,6780433,3407898,466953,1.0,1.0,1.0,nan,nan,nan,nan,nan,nan,0.0,0.11282182,1.0,nan,nan,nan,nan,nan,nan,0.0,0.0,0.0,nan,0.0,0.0,0.0,nan,0,3,1,1,1,0,0,0,0,0,0,0,0
340672353,1043527,1,3407898,6780433,3407898,466953,1.0,1.0,1.0,nan,nan,nan,nan,nan,nan,0.0,0.11282182,1.0,nan,nan,nan,nan,nan,nan,0.0,0.0,0.0,nan,0.0,0.0,0.0,nan,0,3,1,1,1,0,0,0,0,0,0,0,0
341682213,1043527,1,3407898,6780433,3407898,466953,1.0,1.0,1.0,nan,nan,nan,nan,nan,nan,0.0,0.11282182,1.0,nan,nan,nan,nan,nan,nan,0.0,0.0,0.0,nan,0.0,0.0,0.0,nan,0,3,1,1,1,0,0,0,0,0,0,0,0
342682234,1043527,1,3407898,6780433,3407898,466953,1.0,1.0,1.0,nan,nan,nan,nan,nan,nan,0.0,0.11282182,1.0,nan,nan,nan,nan,nan,nan,0.0,0.0,0.0,nan,0.0,0.0,0.0,nan,0,3,1,1,1,0,0,0,0,0,0,0,0
343692213,1043527,1,3407898,6780433,3407898,466953,1.0,1.0,1.0,nan,nan,nan,nan,nan,nan,0.0,0.11282182,1.0,nan,nan,nan,nan,nan,nan,0.0,0.0,0.0,nan,0.0,0.0,0.0,nan,0,3,1,1,1,0,0,0,0,0,0,0,0
344692335,1043527,1,3407898,6780433,3407898,466953,1.0,1.0,1.0,nan,nan,nan,nan,nan,nan,0.0,0.11282182,1.0,nan,nan,nan,nan,nan,nan,0.0,0.0,0.0,nan,0.0,0.0,0.0,nan,0,3,1,1,1,0,0,0,0,0,0,0,0
345702351,1043527,1,3407898,6780433,3407898,466953,1.0,1.0,1.0,nan,nan,nan,nan,nan,nan,0.0,0.11282182,1.0,nan,nan,nan,nan,nan,nan,0.0,0.0,0.0,nan,0.0,0.0,0.0,nan,0,3,1,1,1,0,0,0,0,0,0,0,0
346702366,1043527,1,3407898,6780433,3407898,466953,1.0,1.0,1.0,nan,nan,nan,nan,nan,nan,0.0,0.11282182,1.0,nan,nan,nan,nan,nan,nan,0.0,0.0,0.0,nan,0.0,0.0,0.0,nan,0,3,1,1,1,0,0,0,0,0,0,0,0
347712299,1043527,1,3407898,6780433,3407898,466953,1.0,1.0,1.0,nan,nan,nan,nan,nan,nan,0.0,0.11282182,1.0,nan,nan,nan,nan,nan,nan,0.0,0.0,0.0,nan,0.0,0.0,0.0,nan,0,3,1,1,1,0,0,0,0,0,0,0,0
348712329,1043527,1,3407898,6780433,3407898,466953,1.0,1.0,1.0,nan,nan,nan,nan,nan,nan,0.0,0.11282182,1.0,nan,nan,nan,nan,nan,nan,0.0,0.0,0.0,nan,0.0,0.0,0.0,nan,0,3,1,1,1,0,0,0,0,0,0,0,0
349722567,1043527,1,3407898,6780433,3407898,466953,1.0,1.0,1.0,nan,nan,nan,nan,nan,nan,0.0,0.11282182,1.0,nan,nan,nan,nan,nan,nan,0.0,0.0,0.0,nan,0.0,0.0,0.0,nan,0,3,1,1,1,0,0,0,0,0,0,0,0
350732666,1043527,1,3407898,6780433,3407898,466953,1.0,1.0,1.0,nan,nan,nan,nan,nan,nan,0.0,0.11282182,1.0,nan,nan,nan,nan,nan,nan,0.0,0.0,0.0,nan,0.0,0.0,0.0,nan,0,3,1,1,1,0,0,0,0,0,0,0,0
351742187,1043527,1,3407898,6780433,3407898,466953,1.0,1.0,1.0,nan,nan,nan,nan,nan,nan,0.0,0.11282182,1.0,nan,nan,nan,nan,nan,nan,0.0,0.0,0.0,nan,0.0,0.0,0.0,nan,0,3,1,1,1,0,0,0,0,0,0,0,0
352742219,1043527,1,3407898,6780433,3407898,466953,1.0,1.0,1.0,nan,nan,nan,nan,nan,nan,0.0,0.11282182,1.0,nan,nan,nan,nan,nan,nan,0.0,0.0,0.0,nan,0.0,0.0,0.0,nan,0,3,1,1,1,0,0,0,0,0,0,0,0
353742315,1043527,1,3407898,6780433,3407898,466953,1.0,1.0,1.0,nan,nan,nan,nan,nan,nan,0.0,0.11282182,1.0,nan,nan,nan,nan,nan,nan,0.0,0.0,0.0,nan,0.0,0.0,0.0,nan,0,3,1,1,1,0,0,0,0,0,0,0,0
354742341,1043527,1,3407898,6780433,3407898,466953,1.0,1.0,1.0,nan,nan,nan,nan,nan,nan,0.0,0.11282182,1.0,nan,nan,nan,nan,nan,nan,0.0,0.0,0.0,nan,0.0,0.0,0.0,nan,0,3,1,1,1,0,0,0,0,0,0,0,0
355752308,1043527,1,3407898,6780433,3407898,466953,1.0,1.0,1.0,nan,nan,nan,nan,nan,nan,0.0,0.11282182,1.0,nan,nan,nan,nan,nan,nan,0.0,0.0,0.0,nan,0.0,0.0,0.0,nan,0,3,1,1,1,0,0,0,0,0,0,0,0
356752458,1043527,1,3407898,6780433,3407898,466953,1.0,1.0,1.0,nan,nan,nan,nan,nan,nan,0.0,0.11282182,1.0,nan,nan,nan,nan,nan,nan,0.0,0.0,0.0,nan,0.0,0.0,0.0,nan,0,3,1,1,1,0,0,0,0,0,0,0,0
357762307,1043527,1,3407898,6780433,3407898,466953,1.0,1.0,1.0,nan,nan,nan,nan,nan,nan,0.0,0.11282182,1.0,nan,nan,nan,nan,nan,nan,0.0,0.0,0.0,nan,0.0,0.0,0.0,nan,0,3,1,1,1,0,0,0,0,0,0,0,0
358762361,1043527,1,3407898,6780433,3407898,466953,1.0,1.0,1.0,nan,nan,nan,nan,nan,nan,0.0,0.11282182,1.0,nan,nan,nan,nan,nan,nan,0.0,0.0,0.0,nan,0.0,0.0,0.0,nan,0,3,1,1,1,0,0,0,0,0,0,0,0
359772342,1043527,1,3407898,6780433,3407898,466953,1.0,1.0,1.0,nan,nan,nan,nan,nan,nan,0.0,0.11282182,1.0,nan,nan,nan,nan,nan,nan,0.0,0.0,0.0,nan,0.0,0.0,0.0,nan,0,3,1,1,1,0,0,0,0,0,0,0,0
