timestamp,timestamp_sample,gyro_device_id,gyro_bias[0],gyro_bias[1],gyro_bias[2],gyro_bias_limit,gyro_bias_variance[0],gyro_bias_variance[1],gyro_bias_variance[2],accel_device_id,accel_bias[0],accel_bias[1],accel_bias[2],accel_bias_limit,accel_bias_variance[0],accel_bias_variance[1],accel_bias_variance[2],mag_device_id,mag_bias[0],mag_bias[1],mag_bias[2],mag_bias_limit,mag_bias_variance[0],mag_bias_variance[1],mag_bias_variance[2],gyro_bias_valid,gyro_bias_stable,accel_bias_valid,accel_bias_stable,mag_bias_valid,mag_bias_stable
199314192,199123649,3407890,-0.0022957341,-0.0034725962,0.0008180295,0.15,1.8850886e-07,1.8870993e-07,3.936852e-07,3407890,-0.0033696177,-0.012353225,0.025101287,0.4,0.0019371096,0.0019855325,1.544326e-05,466953,0.0006798962,0.0002421039,-0.007525085,0.5,0.001163918,0.0011640263,0.001250037,1,1,1,0,1,0
200323940,200133649,3407890,-0.0022974536,-0.0034848829,0.00081391056,0.15,1.8859619e-07,1.8879615e-07,3.937353e-07,3407890,-0.0033655341,-0.012356978,0.025076644,0.4,0.0019372037,0.0019856265,1.5428084e-05,466953,0.0006968465,0.00025521798,-0.0075187646,0.5,0.0011638873,0.0011640096,0.0012500337,1,1,1,0,1,0
201334127,201143648,3407890,-0.0022957292,-0.0034860515,0.0007952089,0.15,1.8784642e-07,1.88052e-07,3.937446e-07,3407890,-0.0033657083,-0.012356377,0.02505944,0.4,0.0019372978,0.0019857206,1.5402893e-05,466953,0.0007060309,0.00024135012,-0.007517401,0.5,0.001163812,0.001163948,0.0012500299,1,1,1,0,1,0
202344133,202153648,3407890,-0.0022952978,-0.0034942375,0.00077703217,0.15,1.879374e-07,1.8814139e-07,3.9380623e-07,3407890,-0.0033671798,-0.012354156,0.02509805,0.4,0.0019373903,0.0019858147,1.538808e-05,466953,0.0007647892,0.00025270585,-0.0075112083,0.5,0.0011636673,0.0011638165,0.0012500252,1,1,1,0,1,0
203353971,203163648,3407890,-0.0022997665,-0.0034836896,0.000760578,0.15,1.8802513e-07,1.8823192e-07,3.9386725e-07,3407890,-0.0033755954,-0.012347461,0.02512201,0.4,0.0019374822,0.0019859087,1.5372812e-05,466953,0.00076704205,0.00018988934,-0.0075062457,0.5,0.0011634277,0.0011635985,0.0012500196,1,1,1,0,1,0
204363942,204173648,3407890,-0.0023000215,-0.0034978066,0.0007411195,0.15,1.8830197e-07,1.8851875e-07,3.9461014e-07,3407890,-0.003370128,-0.0123522645,0.02511496,0.4,0.0019375731,0.0019860019,1.5358466e-05,466953,0.00092405896,0.00024991733,-0.007493277,0.5,0.0011630586,0.0011632456,0.0012500123,1,0,1,0,1,0
205373934,205183648,3407890,-0.0023350902,-0.0034895008,0.00072334474,0.15,1.8912618e-07,1.893735e-07,3.9804183e-07,3407890,-0.0033992175,-0.0123368595,0.025138322,0.4,0.0019376628,0.001986093,1.5343265e-05,466953,0.0010061633,0.00013052486,-0.007510766,0.5,0.0011623638,0.0011625863,0.0012499801,1,0,1,0,1,0
205734164,205543648,3407890,-0.0023428975,-0.0034883465,0.0007127529,0.15,1.8984477e-07,1.9006086e-07,3.9875928e-07,3407890,-0.0034076236,-0.0122787515,0.025137525,0.4,0.0019376831,0.0019861057,1.5344021e-05,466953,0.0014207213,-0.00074920256,-0.0077552767,0.5,0.0011601418,0.0011569269,0.0012459276,1,0,1,0,1,0
205884161,205693648,3407890,-0.0023362867,-0.003489876,0.0007079648,0.15,1.8946851e-07,1.8966877e-07,3.991443e-07,3407890,-0.0034256396,-0.012264351,0.025125695,0.4,0.0019376373,0.0019860526,1.5336414e-05,466953,0.0017313556,-0.0020999298,-0.0079454025,0.5,0.0011497422,0.0011399651,0.0012373984,1,0,1,0,1,0
205954216,205763647,3407890,-0.002336021,-0.0034956192,0.0007042863,0.15,1.8922393e-07,1.8944058e-07,3.9925862e-07,3407890,-0.0034846151,-0.012285593,0.025107376,0.4,0.0019375737,0.0019859888,1.5332194e-05,466953,0.0015075245,-0.0032256956,-0.008035273,0.5,0.0011396451,0.0011272316,0.0012335966,1,0,1,0,1,0
206094173,205903647,3407890,-0.0023384131,-0.0034982366,0.00070046086,0.15,1.8964671e-07,1.8988406e-07,3.995968e-07,3407890,-0.0035342178,-0.012277601,0.025093783,0.4,0.0019374929,0.0019859085,1.5333557e-05,466953,0.0020062157,-0.0040880213,-0.008167688,0.5,0.0011289677,0.0011129208,0.0012305778,1,0,1,0,1,0
206314159,206123648,3407890,-0.0023473827,-0.0035060185,0.0006958167,0.15,1.8994083e-07,1.902285e-07,4.0016212e-07,3407890,-0.0036419798,-0.012278281,0.025063822,0.4,0.0019373017,0.0019856733,1.5330945e-05,466953,0.0021944735,-0.005107401,-0.008199469,0.5,0.0011087074,0.0010847438,0.0012298884,1,0,1,0,1,0
206934132,206743648,3407890,-0.0023599975,-0.0034852321,0.00068787736,0.15,1.8957778e-07,1.8965964e-07,4.0228875e-07,3407890,-0.003499319,-0.012146179,0.024924336,0.4,0.0019360532,0.001984117,1.5304442e-05,466953,0.0025460105,-0.00603965,-0.008223325,0.5,0.0010672769,0.0010178435,0.00122903,1,0,1,0,1,0
207234155,207043648,3407890,-0.0023780197,-0.003482728,0.0006851722,0.15,1.8966387e-07,1.8971477e-07,4.0352535e-07,3407890,-0.0037517436,-0.01206678,0.02486992,0.4,0.0019349627,0.001983147,1.5294014e-05,466953,0.002171257,-0.006991317,-0.008280722,0.5,0.0010327004,0.000973666,0.0012284521,1,0,1,0,1,0
207444163,207253648,3407890,-0.002374627,-0.0034924492,0.00068058004,0.15,1.8977151e-07,1.8993954e-07,4.0440128e-07,3407890,-0.0036884423,-0.012349431,0.024813771,0.4,0.0019339086,0.0019823513,1.5287374e-05,466953,0.0034315833,-0.006868085,-0.008316555,0.5,0.0010025362,0.0009374893,0.001228205,1,0,1,0,1,0
207534138,207343647,3407890,-0.0023758975,-0.0034775361,0.0006799052,0.15,1.896804e-07,1.8993833e-07,4.045051e-07,3407890,-0.0035683156,-0.012082449,0.024804657,0.4,0.0019333318,0.001981935,1.5282907e-05,466953,0.0025521684,-0.008139998,-0.0083993105,0.5,0.0009868355,0.00091784704,0.0012280636,1,0,1,0,1,0
207834167,207643648,3407890,-0.0023898787,-0.0034778859,0.00067656377,0.15,1.8979489e-07,1.9048507e-07,4.059064e-07,3407890,-0.0038084034,-0.012158164,0.024734931,0.4,0.001931502,0.0019807261,1.527057e-05,466953,0.0027070309,-0.009127838,-0.008470934,0.5,0.00094972504,0.0008789775,0.0012277138,1,0,1,0,1,0
208144163,207953648,3407890,-0.002401465,-0.0034891006,0.00067262654,0.15,1.9002826e-07,1.9129209e-07,4.072927e-07,3407890,-0.004021711,-0.012434855,0.024668608,0.4,0.0019298359,0.0019795625,1.5258326e-05,466953,0.0036776091,-0.009543245,-0.008728667,0.5,0.00092619687,0.00085511425,0.0012247126,1,0,1,0,1,0
208243959,208053648,3407890,-0.0024098381,-0.0034900634,0.0006724509,0.15,1.9009728e-07,1.9152982e-07,4.078193e-07,3407890,-0.0041869762,-0.012416927,0.024662422,0.4,0.001929382,0.0019791862,1.5254189e-05,466953,0.0,0.0,0.0,0.5,0.0025000002,0.0025000002,0.0025000002,1,0,1,0,1,0
208314104,208123648,3407890,-0.0024103445,-0.0034902631,0.0006724729,0.15,1.9078435e-07,1.9221595e-07,4.0851907e-07,3407890,-0.004240276,-0.012256648,0.024672478,0.4,0.0019282203,0.0019779403,1.52574285e-05,466953,0.00040724268,0.0016301842,-0.00967221,0.5,0.0017526972,0.0017548128,0.0016668666,1,0,1,0,1,0
208384114,208193648,3407890,-0.002412287,-0.0034868862,0.00067310076,0.15,1.9058969e-07,1.921717e-07,4.0919383e-07,3407890,-0.0042547947,-0.012251973,0.024650924,0.4,0.0019276721,0.001977411,1.52501425e-05,466953,0.00042376848,0.0017747496,-0.011619882,0.5,0.0016207891,0.0016212715,0.0015002714,1,0,1,0,1,0
208524107,208333651,3407890,-0.0024038907,-0.0034892221,0.0006718252,0.15,1.9109552e-07,1.9281876e-07,4.105694e-07,3407890,-0.0041185715,-0.0123834135,0.024631556,0.4,0.0019272766,0.0019770053,1.52487755e-05,466953,0.00026846636,0.0018859905,-0.013004206,0.5,0.0015336601,0.0015354545,0.0013890946,1,0,1,0,1,0
208744101,208553648,3407890,-0.002402862,-0.0034967698,0.0006708987,0.15,1.906128e-07,1.927309e-07,4.1270116e-07,3407890,-0.004078092,-0.012509622,0.02461418,0.4,0.0019267232,0.0019763182,1.5228467e-05,466953,-0.0003010692,0.0014521889,-0.013746704,0.5,0.0014865436,0.0014919202,0.0013331318,1,0,1,0,1,0
208934127,208743647,3407890,-0.002385729,-0.0034949835,0.00066926714,0.15,1.9075954e-07,1.9310262e-07,4.1455993e-07,3407890,-0.0039200177,-0.012619174,0.02460149,0.4,0.0019265619,0.0019760083,1.52185285e-05,466953,0.00013177352,0.0023105878,-0.014028079,0.5,0.0014666308,0.0014732842,0.001313937,1,0,1,0,1,0
209144180,208953648,3407890,-0.0024018902,-0.003491583,0.0006711759,0.15,1.912847e-07,1.9361286e-07,4.166221e-07,3407890,-0.003984954,-0.012645708,0.024602702,0.4,0.0019264834,0.0019757205,1.5209986e-05,466953,-0.0012959824,0.0009998641,-0.014097525,0.5,0.0014353157,0.0014487489,0.0012913728,1,0,1,0,1,0
209334172,209143656,3407890,-0.0024095231,-0.0034856638,0.0006723914,0.15,1.9210695e-07,1.9384555e-07,4.184904e-07,3407890,-0.004001507,-0.012705819,0.024602827,0.4,0.0019264322,0.0019754125,1.5199392e-05,466953,-0.002613243,-0.00027629087,-0.014087449,0.5,0.0013940815,0.0014135696,0.0012725618,1,0,1,0,1,0
209434122,209243648,3407890,-0.002404234,-0.0034839502,0.00067213614,0.15,1.9278745e-07,1.9397307e-07,4.1947706e-07,3407890,-0.003957864,-0.012704593,0.024602318,0.4,0.0019264125,0.0019752434,1.5194707e-05,466953,-0.0014253596,0.0009601517,-0.014228561,0.5,0.0013730208,0.0013933483,0.0012671695,1,0,1,0,1,0
209934127,209743648,3407890,-0.0024040742,-0.003493846,0.0006714708,0.15,1.9732983e-07,1.9432834e-07,4.2442574e-07,3407890,-0.003997088,-0.012870629,0.024586907,0.4,0.0019262828,0.0019742432,1.5168531e-05,466953,-0.0026532738,0.00039881427,-0.014224955,0.5,0.0012588069,0.0012895088,0.0012379664,1,0,1,0,1,0
210674158,210483648,3407890,-0.002402395,-0.0034964085,0.0006714535,0.15,2.0431811e-07,1.9478219e-07,4.3176902e-07,3407890,-0.0040544006,-0.013144656,0.024569364,0.4,0.0019255861,0.001971464,1.513144e-05,466953,-0.0035564117,-3.3715074e-05,-0.014286356,0.5,0.0010852701,0.0011348994,0.001206375,1,0,1,0,1,0
211634154,211443648,3407890,-0.0024029214,-0.0035133236,0.0006714359,0.15,2.1319904e-07,1.9442966e-07,4.412826e-07,3407890,-0.004112831,-0.014169542,0.02446049,0.4,0.0019233576,0.0019619358,1.5059619e-05,466953,-0.0033659171,0.0001890429,-0.014480992,0.5,0.0009819791,0.0010236156,0.0011915057,1,0,1,0,1,0
212174132,211983648,3407890,-0.0023909148,-0.0034971666,0.00067064265,0.15,2.1681969e-07,1.9493355e-07,4.465901e-07,3407890,-0.00363259,-0.013796576,0.024444472,0.4,0.0019199656,0.001954736,1.5023514e-05,466953,-0.0042518657,0.0006360166,-0.014766543,0.5,0.0009304437,0.0009810901,0.0011642969,1,0,1,0,1,0
213234162,213043647,3407890,-0.0023444844,-0.0035064039,0.00066326116,0.15,2.0958673e-07,1.9578293e-07,4.5650944e-07,3407890,-0.0017164296,-0.011971328,0.024825202,0.4,0.0019030476,0.0019369018,1.4938492e-05,466953,-0.0048693,0.00024696696,-0.0150176715,0.5,0.0008113334,0.0009519479,0.0010131377,1,0,1,0,1,0
213814105,213623648,3407890,-0.0023419946,-0.0035084896,0.00066426815,0.15,2.0008704e-07,1.964621e-07,4.616447e-07,3407890,-0.0016185839,-0.011932024,0.024852755,0.4,0.0018961478,0.001930726,1.4915117e-05,466953,-0.004691645,0.00047693553,-0.015997132,0.5,0.00073012355,0.0009317994,0.0009101482,1,0,1,0,1,0
214234123,214043647,3407890,-0.0023459638,-0.0035461101,0.00066587253,0.15,1.954562e-07,1.9549572e-07,4.6548587e-07,3407890,-0.0015558506,-0.013167544,0.024747835,0.4,0.0018926145,0.001926059,1.4883724e-05,466953,-0.0045893267,0.00049431896,-0.016135301,0.5,0.0007054341,0.00091707514,0.00088839914,1,0,1,0,1,0
215244114,215053648,3407890,-0.0023343887,-0.0035445176,0.000664612,0.15,1.9671447e-07,1.9575583e-07,4.7520857e-07,3407890,-0.0021434415,-0.013933686,0.02449622,0.4,0.001888841,0.0019186849,1.4846675e-05,466953,-0.004975348,0.00083715416,-0.016493639,0.5,0.00066780625,0.00086934323,0.0008746901,1,1,1,0,1,0
215734122,215543648,3407890,-0.0023487944,-0.0035567707,0.0006651903,0.15,1.981631e-07,1.9590806e-07,4.799827e-07,3407890,-0.0028711082,-0.014640321,0.024333542,0.4,0.0018873886,0.0019160658,1.4833844e-05,466953,-0.005029673,0.0008305604,-0.01650686,0.5,0.00066269265,0.0008587423,0.0008719956,1,1,1,0,1,0
216334158,216143648,3407890,-0.0023741373,-0.0035368288,0.00066526403,0.15,1.9967474e-07,1.9597387e-07,4.8574236e-07,3407890,-0.003973737,-0.014806337,0.024158048,0.4,0.001885626,0.0019139353,1.48211175e-05,466953,-0.0052999314,0.0010797937,-0.016518762,0.5,0.00065333425,0.000848145,0.00086071907,1,1,1,0,1,0
216734126,216543648,3407890,-0.0023987184,-0.0035192561,0.00066304527,0.15,1.9956259e-07,1.9546138e-07,4.895474e-07,3407890,-0.0050006625,-0.01517778,0.023990138,0.4,0.0018840745,0.0019129651,1.480941e-05,466953,-0.005524946,0.0012442829,-0.016426135,0.5,0.0006390762,0.00084515195,0.00083658495,1,1,1,0,1,0
217034449,216843647,3407890,-0.0024088686,-0.0035237414,0.0006605796,0.15,1.9889121e-07,1.9500071e-07,4.923336e-07,3407890,-0.005855476,-0.015716236,0.023832109,0.4,0.0018826574,0.0019124019,1.4800217e-05,466953,-0.0057074735,0.0011430468,-0.016625036,0.5,0.00062790874,0.0008417101,0.0008184192,1,1,1,0,1,0
217334128,217143647,3407890,-0.002416264,-0.003514347,0.0006595161,0.15,1.9827833e-07,1.9464885e-07,4.9518104e-07,3407890,-0.006946429,-0.016219681,0.023656834,0.4,0.001881203,0.0019119909,1.4791455e-05,466953,-0.005785523,0.0011213064,-0.016680036,0.5,0.0006264534,0.0008397518,0.0008178292,1,1,1,0,1,0
217634131,217443648,3407890,-0.0023805266,-0.0034922073,0.0006617173,0.15,1.9796512e-07,1.9440867e-07,4.98057e-07,3407890,-0.008067266,-0.016741876,0.023469716,0.4,0.0018796269,0.0019116527,1.478402e-05,466953,-0.005632909,0.0013734025,-0.016692245,0.5,0.0006247557,0.00083721813,0.0008173854,1,1,1,0,1,0
218034314,217843647,3407890,-0.0023862026,-0.0034644154,0.00066389685,0.15,1.9756963e-07,1.9416113e-07,5.018524e-07,3407890,-0.009073878,-0.017165765,0.023313554,0.4,0.0018772846,0.0019112125,1.4775582e-05,466953,-0.0061434824,0.001957248,-0.016145745,0.5,0.000611595,0.0008309467,0.0007983303,1,1,1,0,1,0
218254111,218063648,3407890,-0.0023868838,-0.0034635556,0.00066425564,0.15,1.9716762e-07,1.9426105e-07,5.038981e-07,3407890,-0.009478787,-0.01732567,0.023250679,0.4,0.0018758716,0.0019109951,1.4773557e-05,466953,-0.0065538096,0.00224478,-0.015219381,0.5,0.0005722374,0.00082578073,0.0007335575,1,1,1,0,1,0
218634136,218443647,3407890,-0.0024244145,-0.0034680322,0.00065274874,0.15,1.952503e-07,1.9399457e-07,5.0718813e-07,3407890,-0.010880542,-0.01784139,0.02310239,0.4,0.0018724921,0.0019105441,1.4765627e-05,466953,-0.0068899007,0.0018316715,-0.01617081,0.5,0.00052339456,0.0008199266,0.00065750966,1,1,1,0,1,0
218834138,218643647,3407890,-0.0024318467,-0.0034838095,0.00064811576,0.15,1.9458608e-07,1.9397017e-07,5.0891015e-07,3407890,-0.011971453,-0.018135,0.022996929,0.4,0.0018707075,0.0019103455,1.4763665e-05,466953,-0.006881507,0.0014760413,-0.016574541,0.5,0.000518851,0.0008177839,0.0006516355,1,1,1,0,1,0
219144135,218953648,3407890,-0.0024280155,-0.0034383405,0.0006500622,0.15,1.940165e-07,1.938841e-07,5.1175704e-07,3407890,-0.012983019,-0.018613659,0.022857951,0.4,0.0018679432,0.0019100691,1.4761285e-05,466953,-0.006953453,0.0017034782,-0.016382877,0.5,0.00051711744,0.0008158644,0.00065015,1,1,1,0,1,0
219434124,219243647,3407890,-0.0024122493,-0.0034348674,0.00065089774,0.15,1.9372133e-07,1.9373043e-07,5.1448734e-07,3407890,-0.014086907,-0.018874986,0.022748979,0.4,0.0018652277,0.0019097535,1.475887e-05,466953,-0.006930296,0.0017825668,-0.01638685,0.5,0.00051654154,0.000814917,0.00064957363,1,1,1,0,1,0
219834156,219643647,3407890,-0.0023984492,-0.0034189955,0.0006516801,0.15,1.9360667e-07,1.9362516e-07,5.1820825e-07,3407890,-0.015173582,-0.019200694,0.022644438,0.4,0.0018611647,0.0019091885,1.4756329e-05,466953,-0.006937229,0.001943863,-0.016267708,0.5,0.00051549985,0.0008139264,0.0006485191,1,1,1,0,1,0
220234126,220043648,3407890,-0.0023794684,-0.0034121582,0.00065087026,0.15,1.9360965e-07,1.935571e-07,5.21906e-07,3407890,-0.016260486,-0.019458506,0.022548428,0.4,0.0018567295,0.0019085949,1.47558085e-05,466953,-0.006889603,0.002095232,-0.016167218,0.5,0.0005138995,0.0008125778,0.0006467047,1,1,1,0,1,0
221034117,220843648,3407890,-0.0023669035,-0.0034195657,0.00064739806,0.15,1.93509e-07,1.9322613e-07,5.288305e-07,3407890,-0.019664139,-0.020043403,0.02226792,0.4,0.0018463222,0.0019073284,1.4757539e-05,466953,-0.006893281,0.0020223763,-0.016205514,0.5,0.0005104974,0.000808922,0.00064299995,1,1,1,0,1,0
221334120,221143648,3407890,-0.002349602,-0.0034280007,0.00064128404,0.15,1.9335867e-07,1.9299472e-07,5.3098154e-07,3407890,-0.02115866,-0.020219782,0.022167802,0.4,0.0018419921,0.001906781,1.4758464e-05,466953,-0.006802271,0.0020119976,-0.016276766,0.5,0.000506763,0.00080789113,0.00063734123,1,1,1,0,1,0
221634124,221443648,3407890,-0.002340512,-0.003467787,0.00063424034,0.15,1.932933e-07,1.928362e-07,5.329929e-07,3407890,-0.022508077,-0.020033423,0.022080125,0.4,0.001837733,0.001906325,1.4760538e-05,466953,-0.00667971,0.0018076925,-0.016390346,0.5,0.00050339143,0.0008052872,0.00063360867,1,1,1,0,1,0
221844153,221653648,3407890,-0.0023352446,-0.0034598988,0.00063330523,0.15,1.9336359e-07,1.9281646e-07,5.343126e-07,3407890,-0.023533909,-0.020271651,0.021997256,0.4,0.0018349015,0.0019060678,1.4762441e-05,466953,-0.006631277,0.0018749138,-0.016397797,0.5,0.00050070975,0.0008022768,0.000631204,1,1,1,0,1,0
222044407,221853648,3407890,-0.002338317,-0.0034564275,0.0006367902,0.15,1.9336363e-07,1.9269136e-07,5.354851e-07,3407890,-0.024579722,-0.02044088,0.021906024,0.4,0.0018321414,0.0019058271,1.4764065e-05,466953,-0.0066186963,0.0019332463,-0.016432032,0.5,0.0004985745,0.0007990473,0.0006298047,1,1,1,0,1,0
222234153,222043648,3407890,-0.0023292417,-0.003467303,0.00063197536,0.15,1.9334084e-07,1.9252182e-07,5.3668e-07,3407890,-0.025868703,-0.0205493,0.021812875,0.4,0.0018295721,0.0019056308,1.4765039e-05,466953,-0.006627099,0.0018734774,-0.016447678,0.5,0.0004972245,0.000796325,0.00062941684,1,1,1,0,1,0
222434150,222243647,3407890,-0.0023185953,-0.0034721347,0.0006271381,0.15,1.9341344e-07,1.924388e-07,5.379755e-07,3407890,-0.027053207,-0.02071346,0.02172379,0.4,0.0018271148,0.0019054707,1.47670835e-05,466953,-0.0066400333,0.0018961533,-0.016442865,0.5,0.00049528974,0.0007916214,0.000629262,1,1,1,0,1,0
222744131,222553648,3407890,-0.002326707,-0.00348319,0.00062977674,0.15,1.9362444e-07,1.9244405e-07,5.40273e-07,3407890,-0.028426016,-0.020804927,0.02160292,0.4,0.0018237485,0.0019053178,1.4771437e-05,466953,-0.006591917,0.0018066178,-0.01645715,0.5,0.00049320864,0.00078590016,0.0006285811,1,1,1,0,1,0
223034128,222843647,3407890,-0.0023381298,-0.0035011226,0.00063201506,0.15,1.9359096e-07,1.92253e-07,5.425395e-07,3407890,-0.029713081,-0.020861017,0.02148643,0.4,0.0018206764,0.0019051543,1.4773195e-05,466953,-0.0065838005,0.0016301895,-0.0164786,0.5,0.0004923223,0.0007836086,0.0006282854,1,1,1,0,1,0
223234120,223043647,3407890,-0.0023248687,-0.0035003228,0.00062803994,0.15,1.9358413e-07,1.9215922e-07,5.4412453e-07,3407890,-0.030740775,-0.021055195,0.02139506,0.4,0.0018187868,0.0019050082,1.4774554e-05,466953,-0.0065144296,0.001640986,-0.016439272,0.5,0.0004918944,0.00078289007,0.0006278129,1,1,1,0,1,0
223544378,223353648,3407890,-0.0023169867,-0.0035045228,0.000625989,0.15,1.9362169e-07,1.9209585e-07,5.465888e-07,3407890,-0.0321124,-0.021312982,0.02126037,0.4,0.0018161519,0.0019047104,1.4776407e-05,466953,-0.006446058,0.001629093,-0.01641715,0.5,0.00049103075,0.00078216486,0.0006267091,1,1,1,0,1,1
223834126,223643648,3407890,-0.002328404,-0.0035128854,0.00062859606,0.15,1.9349137e-07,1.9189486e-07,5.489908e-07,3407890,-0.033196863,-0.021485327,0.021133302,0.4,0.001813827,0.0019043955,1.4776023e-05,466953,-0.006453222,0.001517012,-0.016405523,0.5,0.0004895771,0.00077961676,0.0006253107,1,1,1,0,1,1
224144154,223953648,3407890,-0.0023161888,-0.0035092353,0.0006269299,0.15,1.9358257e-07,1.9192441e-07,5.515884e-07,3407890,-0.034265365,-0.021776466,0.021016112,0.4,0.0018117693,0.0019041396,1.4776337e-05,466953,-0.006363242,0.0014254822,-0.016347734,0.5,0.00048596264,0.00077311805,0.00062158983,1,1,1,0,1,1
224534119,224343648,3407890,-0.0023375205,-0.0035064602,0.0006324679,0.15,1.9349825e-07,1.9174334e-07,5.547202e-07,3407890,-0.03537507,-0.02208651,0.02085943,0.4,0.0018093645,0.0019038222,1.4774308e-05,466953,-0.0064068716,0.0013907186,-0.016346563,0.5,0.00048352004,0.0007697612,0.0006193126,1,1,1,0,1,1
224834158,224643648,3407890,-0.0023352292,-0.0034877635,0.000633908,0.15,1.9344061e-07,1.9162704e-07,5.569174e-07,3407890,-0.03633515,-0.022538593,0.020716736,0.4,0.0018076412,0.0019034991,1.4772551e-05,466953,-0.0063868086,0.0014973813,-0.016346997,0.5,0.0004826792,0.0007691252,0.0006181284,1,1,1,0,1,1
225234125,225043648,3407890,-0.0023591681,-0.0034873958,0.0006384678,0.15,1.9348946e-07,1.9160768e-07,5.6002096e-07,3407890,-0.037272185,-0.02293597,0.020546382,0.4,0.0018054242,0.0019028191,1.4770125e-05,466953,-0.006455295,0.001464696,-0.016344504,0.5,0.00048192753,0.0007681531,0.0006172723,1,1,1,0,1,1
225634203,225443647,3407890,-0.0023544251,-0.0034804337,0.00063856546,0.15,1.9329589e-07,1.9142442e-07,5.630177e-07,3407890,-0.038346764,-0.023473887,0.020377822,0.4,0.0018031657,0.0019018078,1.4765018e-05,466953,-0.006414304,0.0014804524,-0.016349958,0.5,0.00048153236,0.00076742994,0.00061682286,1,1,1,0,1,1
226144122,225953648,3407890,-0.0023538144,-0.003475683,0.0006374256,0.15,1.9308986e-07,1.9133189e-07,5.670112e-07,3407890,-0.039410166,-0.024075478,0.020184338,0.4,0.00180067,0.001900461,1.4757778e-05,466953,-0.0063730753,0.0015132662,-0.016322598,0.5,0.000481173,0.00076613034,0.00061594986,1,1,1,0,1,1
226634146,226443648,3407890,-0.0023631062,-0.0034720676,0.00063911744,0.15,1.9272657e-07,1.9106828e-07,5.7080996e-07,3407890,-0.040228467,-0.024775572,0.019986082,0.4,0.0017984909,0.00189896,1.4746697e-05,466953,-0.006379846,0.0015162867,-0.01629921,0.5,0.0004799658,0.0007638829,0.0006137586,1,1,1,0,1,1
227334314,227143648,3407890,-0.00237121,-0.0034924156,0.00063590024,0.15,1.9235098e-07,1.909235e-07,5.760527e-07,3407890,-0.041148946,-0.025479643,0.019753648,0.4,0.0017960384,0.0018967486,1.4727054e-05,466953,-0.0062183896,0.0014865345,-0.016022794,0.5,0.0004784454,0.0007569125,0.000608218,1,1,1,0,1,1
227734167,227543648,3407890,-0.002366417,-0.0034823222,0.00063683494,0.15,1.9213188e-07,1.9084442e-07,5.789873e-07,3407890,-0.04175845,-0.026276495,0.019597437,0.4,0.001794778,0.0018951441,1.4712817e-05,466953,-0.006214503,0.00158463,-0.016129589,0.5,0.0004780918,0.00075402565,0.0006064248,1,1,1,0,1,1
228034131,227843648,3407890,-0.0023545255,-0.0034628941,0.0006377054,0.15,1.919248e-07,1.9074714e-07,5.810662e-07,3407890,-0.042271346,-0.027139919,0.019469734,0.4,0.0017937779,0.0018935981,1.4699949e-05,466953,-0.006182937,0.0016853957,-0.016173,0.5,0.00047728757,0.0007509824,0.0006047985,1,1,1,0,1,1
228534156,228343648,3407890,-0.0023513376,-0.0034643908,0.0006413448,0.15,1.9161482e-07,1.9061274e-07,5.8440475e-07,3407890,-0.04296556,-0.02812452,0.019265026,0.4,0.0017921666,0.0018907678,1.4676588e-05,466953,-0.006097272,0.0018053978,-0.015980795,0.5,0.000476268,0.0007416425,0.0005989783,1,1,1,0,1,1
229044397,228853648,3407890,-0.0023441375,-0.0034552854,0.00064193713,0.15,1.9144619e-07,1.9061065e-07,5.875771e-07,3407890,-0.043613993,-0.02917733,0.019063026,0.4,0.0017911402,0.0018886725,1.4655501e-05,466953,-0.0059303874,0.0018555064,-0.015974188,0.5,0.00047282752,0.000731958,0.0005963114,1,1,1,0,1,1
229534197,229343648,3407890,-0.0023447622,-0.0034418816,0.0006431847,0.15,1.9123361e-07,1.9047987e-07,5.9108646e-07,3407890,-0.044106465,-0.030112142,0.01889563,0.4,0.0017903704,0.0018866019,1.46309385e-05,466953,-0.0058562746,0.0018483482,-0.01592984,0.5,0.00047160924,0.00073074707,0.00059489126,1,1,1,0,1,1
230034181,229843647,3407890,-0.002333853,-0.003430561,0.0006439226,0.15,1.9112619e-07,1.9041269e-07,5.944838e-07,3407890,-0.04460931,-0.031111011,0.018718846,0.4,0.0017897508,0.0018844611,1.4606085e-05,466953,-0.00575677,0.0018624644,-0.0159243,0.5,0.00046977133,0.00072746375,0.00059318275,1,1,1,0,1,1
230634118,230443648,3407890,-0.0023263341,-0.0034310606,0.0006442431,0.15,1.9100959e-07,1.9031691e-07,5.9819354e-07,3407890,-0.045092158,-0.03210136,0.018537803,0.4,0.0017891163,0.0018818481,1.45757185e-05,466953,-0.0056739743,0.0019231995,-0.015896618,0.5,0.00046866934,0.00072579016,0.00059205963,1,1,1,0,1,1
231044121,230853648,3407890,-0.002316363,-0.0034290873,0.0006435491,0.15,1.909966e-07,1.903028e-07,6.0088166e-07,3407890,-0.04552568,-0.03316877,0.018354971,0.4,0.0017886874,0.0018800471,1.45560625e-05,466953,-0.0056724036,0.001953952,-0.015920687,0.5,0.00046840418,0.0007256004,0.0005916382,1,1,1,0,1,1
231534122,231343647,3407890,-0.0023102171,-0.0034267176,0.00064592075,0.15,1.9083878e-07,1.9013585e-07,6.037149e-07,3407890,-0.045942575,-0.034090955,0.018190406,0.4,0.0017881449,0.0018778796,1.4530022e-05,466953,-0.005657812,0.0019751724,-0.015925288,0.5,0.00046776608,0.0007252901,0.0005906831,1,1,1,0,1,1
232144129,231953648,3407890,-0.0023129368,-0.003445842,0.00064764055,0.15,1.9076849e-07,1.9010967e-07,6.0710084e-07,3407890,-0.046391815,-0.035088435,0.01798276,0.4,0.0017875636,0.0018754695,1.4502063e-05,466953,-0.0056600343,0.0019436266,-0.015864493,0.5,0.0004675024,0.0007251177,0.00059030514,1,1,1,0,1,1
232744169,232553648,3407890,-0.0023103135,-0.0034346886,0.000652118,0.15,1.9071152e-07,1.9007169e-07,6.106663e-07,3407890,-0.046763018,-0.03602938,0.017805634,0.4,0.0017870256,0.0018733046,1.4474847e-05,466953,-0.0057241344,0.002008487,-0.015950391,0.5,0.00046674497,0.0007240145,0.0005894009,1,1,1,0,1,1
233534176,233343648,3407890,-0.0022995037,-0.003459769,0.00065441756,0.15,1.9057529e-07,1.8994868e-07,6.150215e-07,3407890,-0.04724241,-0.036972724,0.017582923,0.4,0.0017864298,0.001870722,1.4439581e-05,466953,-0.0056887646,0.0019659451,-0.015931148,0.5,0.00046604776,0.0007209202,0.0005878957,1,1,1,0,1,1
234144126,233953648,3407890,-0.0023038744,-0.0034615812,0.00065877225,0.15,1.9056222e-07,1.8996623e-07,6.1769964e-07,3407890,-0.04757308,-0.037983198,0.017383536,0.4,0.0017857898,0.0018683142,1.4412129e-05,466953,-0.0056198407,0.0018757946,-0.015912322,0.5,0.00046405502,0.00071718235,0.0005857373,1,1,1,0,1,1
235634130,235443647,3407890,-0.0022640317,-0.0034637768,0.0006592878,0.15,1.9030679e-07,1.8977124e-07,6.2379524e-07,3407890,-0.048549194,-0.039943296,0.016975544,0.4,0.0017845944,0.0018630642,1.4344583e-05,466953,-0.005429249,0.0018613203,-0.01587609,0.5,0.00046114493,0.0007071141,0.0005801438,1,1,1,0,1,1
236643935,236453648,3407890,-0.0022464374,-0.003474138,0.00065493915,0.15,1.9024942e-07,1.8982799e-07,6.282289e-07,3407890,-0.048863087,-0.04081966,0.01677361,0.4,0.0017843138,0.0018606712,1.430638e-05,466953,-0.0053638546,0.001647802,-0.015749533,0.5,0.00045687583,0.0006993471,0.0005775438,1,1,1,0,1,1
238534118,238343648,3407890,-0.0022544807,-0.0034816482,0.00065830577,0.15,1.9000053e-07,1.8958904e-07,6.360463e-07,3407890,-0.04951612,-0.042685814,0.01624193,0.4,0.0017840215,0.0018576684,1.42434765e-05,466953,-0.005456929,0.0014349247,-0.015739096,0.5,0.00045242105,0.00069022976,0.00057312474,1,1,1,0,1,1
239543942,239353648,3407890,-0.0022997858,-0.0034456719,0.0006825934,0.15,1.9024186e-07,1.8977524e-07,6.39314e-07,3407890,-0.049987197,-0.04346889,0.016004095,0.4,0.0017838291,0.0018563997,1.4214756e-05,466953,-0.0057975724,0.0016954648,-0.01547398,0.5,0.00044872952,0.000683194,0.0005690968,1,1,1,0,1,1
240554139,240363647,3407890,-0.0022764166,-0.0034283376,0.00072487077,0.15,1.9098101e-07,1.9081338e-07,6.210422e-07,3407890,-0.050222687,-0.043524653,0.015934695,0.4,0.001783202,0.0018537056,1.4178477e-05,466953,-0.00580695,0.0017662204,-0.016146326,0.5,0.00044191486,0.0005794915,0.00048666407,1,1,1,0,1,1
241144186,240953653,3407890,-0.0022892724,-0.003423229,0.00073757814,0.15,1.9078234e-07,1.9133479e-07,6.1512304e-07,3407890,-0.050169773,-0.044702634,0.015659893,0.4,0.0017825925,0.0018519346,1.4151243e-05,466953,-0.005857559,0.0017755664,-0.016110666,0.5,0.00044116372,0.00057723845,0.0004856634,1,1,1,0,1,1
241534150,241343648,3407890,-0.0022842789,-0.0034203979,0.00073818234,0.15,1.9050854e-07,1.9119565e-07,6.1530943e-07,3407890,-0.050230645,-0.045736104,0.015447615,0.4,0.0017821292,0.0018502389,1.413106e-05,466953,-0.005862081,0.0018260203,-0.01609321,0.5,0.00044092373,0.0005730515,0.0004827859,1,1,1,0,1,1
242034120,241843648,3407890,-0.0022869222,-0.0034224493,0.00074014463,0.15,1.9013797e-07,1.905372e-07,6.1468506e-07,3407890,-0.050219115,-0.046768676,0.015221178,0.4,0.0017816783,0.0018477906,1.4106484e-05,466953,-0.005864438,0.0019282711,-0.016097283,0.5,0.00044075004,0.00056601973,0.00047767302,1,1,1,0,1,1
242934127,242743648,3407890,-0.0022704918,-0.0034427205,0.00076229713,0.15,1.8958711e-07,1.8951582e-07,6.0947866e-07,3407890,-0.050306812,-0.047809523,0.014954401,0.4,0.0017813576,0.0018441549,1.4064759e-05,466953,-0.005769931,0.0019390732,-0.016093941,0.5,0.00044021782,0.00055576814,0.0004704998,1,1,1,0,1,1
243564107,243373648,3407890,-0.0022444807,-0.0034610627,0.00078293815,0.15,1.8966604e-07,1.8979424e-07,6.060728e-07,3407890,-0.050357718,-0.048466578,0.0147933215,0.4,0.0017812932,0.0018421494,1.40408265e-05,466953,-0.005805313,0.0025632635,-0.015267313,0.5,0.0004381513,0.0005281353,0.0004476089,1,1,1,0,1,1
244064151,243873648,3407890,-0.0022517252,-0.003468422,0.0007926093,0.15,1.8967147e-07,1.9059907e-07,5.9702955e-07,3407890,-0.05028613,-0.04887799,0.014644327,0.4,0.0017810944,0.00184055,1.4022305e-05,466953,-0.0057314523,0.0025237522,-0.016278986,0.5,0.00043615093,0.0004953014,0.00042067945,1,1,1,0,1,1
245073938,244883647,3407890,-0.0022250519,-0.0034714437,0.00080176856,0.15,1.8996938e-07,1.9264924e-07,5.9559704e-07,3407890,-0.05046925,-0.04949482,0.014457764,0.4,0.0017808405,0.0018390471,1.3997069e-05,466953,-0.005766164,0.0025407863,-0.016149523,0.5,0.0004349788,0.0004909313,0.00041630882,1,1,1,0,1,1
246083941,245893648,3407890,-0.0022163782,-0.0035064565,0.0007730437,0.15,1.9007553e-07,1.9153596e-07,5.903201e-07,3407890,-0.050800283,-0.049911726,0.014279506,0.4,0.0017805718,0.001838403,1.3980705e-05,466953,-0.005857331,0.002619105,-0.01618599,0.5,0.00043368712,0.0004809381,0.0004068232,1,1,1,0,1,1
247093932,246903650,3407890,-0.0022307297,-0.003509497,0.0007812855,0.15,1.901162e-07,1.904616e-07,5.733222e-07,3407890,-0.0509948,-0.050256804,0.0140906,0.4,0.0017798998,0.0018379209,1.3967725e-05,466953,-0.0058227195,0.0025162413,-0.015677279,0.5,0.0004290303,0.00045121956,0.0003775151,1,1,1,0,1,1
248103935,247913648,3407890,-0.0022425316,-0.0034979982,0.00079243927,0.15,1.9018862e-07,1.9128261e-07,5.540706e-07,3407890,-0.050935656,-0.050832503,0.013848161,0.4,0.001778567,0.0018370898,1.3948714e-05,466953,-0.005867447,0.0024194273,-0.015957953,0.5,0.00042583796,0.00043888742,0.0003660937,1,1,1,0,1,1
249113935,248923648,3407890,-0.002260733,-0.0034870105,0.0007740368,0.15,1.9004626e-07,1.9078384e-07,5.541037e-07,3407890,-0.05081455,-0.05145187,0.01360647,0.4,0.0017780428,0.0018355924,1.3923412e-05,466953,-0.0059148823,0.002538574,-0.015807137,0.5,0.00042533877,0.00042031024,0.00035320324,1,1,1,0,1,1
250123940,249933648,3407890,-0.0022531142,-0.003452063,0.00074608007,0.15,1.8999127e-07,1.905034e-07,5.5161286e-07,3407890,-0.050740197,-0.051979505,0.013432368,0.4,0.0017779653,0.001834634,1.3897069e-05,466953,-0.0059944815,0.0024738738,-0.0159054,0.5,0.00042444572,0.0004129511,0.0003487649,1,1,1,0,1,1
251133933,250943648,3407890,-0.0022210907,-0.0034023304,0.00073071796,0.15,1.9029366e-07,1.9122696e-07,5.537783e-07,3407890,-0.050949957,-0.051604763,0.013467307,0.4,0.0017776029,0.0018336035,1.3872877e-05,466953,-0.0061220415,0.002626475,-0.015918884,0.5,0.00042317668,0.00041037955,0.00034685316,1,1,1,0,1,1
252144394,251953648,3407890,-0.0022112986,-0.0033857997,0.0007440143,0.15,1.8979786e-07,1.9051004e-07,5.526845e-07,3407890,-0.05098626,-0.051238727,0.013539816,0.4,0.0017768842,0.001831525,1.3839276e-05,466953,-0.0060918126,0.0027788982,-0.015965994,0.5,0.0004225173,0.00040566523,0.00034303445,1,1,1,0,1,1
253153968,252963648,3407890,-0.0022416897,-0.0034014806,0.00073639717,0.15,1.8996305e-07,1.9056134e-07,5.5038225e-07,3407890,-0.05101431,-0.05177347,0.0134285735,0.4,0.0017766842,0.001830168,1.3817902e-05,466953,-0.006123633,0.002871178,-0.015964422,0.5,0.00042224297,0.00040483888,0.00034243864,1,1,1,0,1,1
254163937,253973648,3407890,-0.0022639812,-0.0034164332,0.0007370805,0.15,1.9042432e-07,1.91173e-07,5.473525e-07,3407890,-0.050705727,-0.05158684,0.013491915,0.4,0.0017758715,0.0018275704,1.3792672e-05,466953,-0.006191622,0.00323213,-0.015903601,0.5,0.00042177382,0.00039799794,0.00033686587,1,1,1,0,1,1
255173957,254983648,3407890,-0.002308248,-0.003452868,0.0007319988,0.15,1.9040492e-07,1.9112296e-07,5.4772494e-07,3407890,-0.05069175,-0.052251305,0.013336996,0.4,0.0017755588,0.0018258517,1.376768e-05,466953,-0.0062201065,0.0031178694,-0.01589934,0.5,0.0004209878,0.00039133674,0.00033191344,1,1,1,0,1,1
255834122,255643648,3407890,-0.0023410115,-0.0035230115,0.0007507284,0.15,1.8959136e-07,1.9016099e-07,5.477928e-07,3407890,-0.05160437,-0.053066663,0.013035836,0.4,0.0017752636,0.0018247758,1.3749046e-05,466953,-0.006146083,0.0031018374,-0.015968418,0.5,0.00042045582,0.00038994147,0.0003304795,1,1,1,0,1,1
256434314,256243647,3407890,-0.0023610035,-0.0035169567,0.0007462734,0.15,1.8923598e-07,1.8979674e-07,5.480222e-07,3407890,-0.052268624,-0.053964753,0.012700695,0.4,0.0017745167,0.0018235482,1.3738696e-05,466953,-0.006105802,0.0031806696,-0.016023422,0.5,0.00041960072,0.00038934033,0.00033022286,1,1,1,0,1,1
257234120,257043648,3407890,-0.0023589623,-0.0035126652,0.0007385998,0.15,1.8959672e-07,1.9014966e-07,5.4945536e-07,3407890,-0.053001232,-0.054782096,0.012406707,0.4,0.0017733027,0.0018221774,1.3734816e-05,466953,-0.006091637,0.0031928618,-0.016043106,0.5,0.00041949106,0.00038914697,0.0003301386,1,1,1,0,1,1
258234135,258043648,3407890,-0.0023261795,-0.00350489,0.0007251909,0.15,1.8892035e-07,1.8938422e-07,5.497856e-07,3407890,-0.053823486,-0.055688933,0.012113006,0.4,0.0017717406,0.0018210947,1.3721614e-05,466953,-0.0060793385,0.0030559022,-0.015991436,0.5,0.00041856474,0.0003881854,0.00032948016,1,1,1,0,1,1
259234131,259043648,3407890,-0.00230977,-0.0034953798,0.0007163322,0.15,1.8905537e-07,1.892537e-07,5.4581477e-07,3407890,-0.054493807,-0.056408413,0.011850673,0.4,0.0017698123,0.0018199941,1.3712789e-05,466953,-0.0062180203,0.0030441398,-0.015869092,0.5,0.0004156775,0.00038737454,0.00032745072,1,1,1,0,1,1
260243956,260053649,3407890,-0.0023040941,-0.0034778856,0.0007133264,0.15,1.9002563e-07,1.8972057e-07,5.427833e-07,3407890,-0.054328527,-0.056313086,0.011895048,0.4,0.0017685794,0.0018194688,1.3706776e-05,466953,-0.0063085235,0.0029061283,-0.015913313,0.5,0.00041474667,0.00038520168,0.0003260156,1,1,1,0,1,1
261253945,261063648,3407890,-0.0022984718,-0.0034724977,0.00070397573,0.15,1.9052183e-07,1.9010452e-07,5.428462e-07,3407890,-0.05435458,-0.05630735,0.011885767,0.4,0.0017671781,0.0018188971,1.3705272e-05,466953,-0.00630396,0.0028389331,-0.015973182,0.5,0.00041405534,0.00038197666,0.00032416676,1,1,1,0,1,1
262263947,262073648,3407890,-0.0023045992,-0.0034730998,0.00070402434,0.15,1.9021721e-07,1.9016336e-07,5.431486e-07,3407890,-0.054757025,-0.0564664,0.011737547,0.4,0.0017663928,0.0018186371,1.3705427e-05,466953,-0.006279178,0.002867382,-0.015998013,0.5,0.00041301455,0.00038037004,0.0003226001,1,1,1,0,1,1
263273934,263083648,3407890,-0.0023003467,-0.003458051,0.0007141879,0.15,1.8972239e-07,1.8995408e-07,5.395283e-07,3407890,-0.055273965,-0.05657027,0.011537379,0.4,0.0017657847,0.0018186258,1.3709113e-05,466953,-0.0062087104,0.0029293343,-0.015943937,0.5,0.00041026346,0.00037894695,0.00032076004,1,1,1,0,1,1
264283989,264093648,3407890,-0.0022966466,-0.0034844799,0.0006956912,0.15,1.8967665e-07,1.9002232e-07,5.3517664e-07,3407890,-0.05567346,-0.05673527,0.011400366,0.4,0.0017646846,0.001818266,1.3716317e-05,466953,-0.006339204,0.0028641243,-0.01602846,0.5,0.0004074185,0.0003761698,0.00031988035,1,1,1,0,1,1
265294108,265103647,3407890,-0.0022935655,-0.0034996406,0.00068907975,0.15,1.8997548e-07,1.9023092e-07,5.2897406e-07,3407890,-0.05622528,-0.0567171,0.011206765,0.4,0.0017632431,0.0018178128,1.37243105e-05,466953,-0.0060305065,0.003071241,-0.01595449,0.5,0.00039414337,0.00037269117,0.00031110863,1,1,1,0,1,1
266303939,266113648,3407890,-0.0022799207,-0.003498675,0.0006903459,0.15,1.9081594e-07,1.9052881e-07,5.2659635e-07,3407890,-0.056940787,-0.05675876,0.010985154,0.4,0.0017622424,0.0018178584,1.3731372e-05,466953,-0.0059900302,0.0030635754,-0.015991848,0.5,0.00039278856,0.00037237207,0.00031011758,1,1,1,0,1,1
267234134,267043647,3407890,-0.0022712934,-0.003479643,0.00069668604,0.15,1.8988814e-07,1.8966175e-07,5.240997e-07,3407890,-0.05791649,-0.056910448,0.010721575,0.4,0.0017610468,0.0018178618,1.3732313e-05,466953,-0.0059363977,0.0030793913,-0.016009226,0.5,0.00038794178,0.00037046315,0.00030669553,1,1,1,0,1,1
268243956,268053648,3407890,-0.002282958,-0.0034789697,0.000723935,0.15,1.8957489e-07,1.8948607e-07,5.143534e-07,3407890,-0.05881501,-0.057047687,0.010423965,0.4,0.0017598578,0.0018178218,1.3738624e-05,466953,-0.005893811,0.003044207,-0.016116906,0.5,0.0003829509,0.00036895231,0.000303752,1,1,1,0,1,1
269253940,269063647,3407890,-0.002279438,-0.0035140885,0.0007286463,0.15,1.9000571e-07,1.895007e-07,5.082166e-07,3407890,-0.059532933,-0.057086248,0.010121067,0.4,0.0017592447,0.0018178517,1.3742657e-05,466953,-0.0059256027,0.0029728033,-0.016026683,0.5,0.00037737674,0.00036796098,0.00030077217,1,1,1,0,1,1
269944108,269753648,3407890,-0.0022467643,-0.003515129,0.00070689304,0.15,1.9069186e-07,1.8949096e-07,5.053841e-07,3407890,-0.059449576,-0.057246547,0.009959446,0.4,0.0017577254,0.0018161027,1.3738834e-05,466953,-0.005785314,0.003954645,-0.016238019,0.5,0.00031372262,0.00031322043,0.0002975546,1,1,1,0,1,1
270234438,270043647,3407890,-0.0022372215,-0.0035187926,0.0007009976,0.15,1.9103011e-07,1.8955058e-07,5.0652824e-07,3407890,-0.059213277,-0.057545494,0.009865564,0.4,0.0017512814,0.0018088957,1.3727415e-05,466953,-0.004874481,0.0045668255,-0.01620708,0.5,0.00024928455,0.0002504413,0.00029724283,1,1,1,0,1,1
270434185,270243648,3407890,-0.002229694,-0.0035032574,0.0007015266,0.15,1.9134549e-07,1.8973722e-07,5.0800276e-07,3407890,-0.058354054,-0.056405894,0.009827892,0.4,0.0017409815,0.0017977154,1.37114175e-05,466953,-0.0042476496,0.004827845,-0.016220909,0.5,0.00021467898,0.0002165317,0.00029697013,1,1,1,0,1,1
270734439,270543683,3407890,-0.0022181305,-0.0035009447,0.0007031364,0.15,1.918341e-07,1.9015661e-07,5.1041997e-07,3407890,-0.056964893,-0.05648944,0.009709291,0.4,0.0017095006,0.0017642681,1.36630715e-05,466953,-0.0030317628,0.004662735,-0.016237445,0.5,0.00014044001,0.00014333795,0.00029634446,1,1,1,0,1,1
270834128,270643648,3407890,-0.0022179778,-0.0034922732,0.0007057847,0.15,1.9202733e-07,1.9035411e-07,5.112658e-07,3407890,-0.056496225,-0.055283517,0.00970933,0.4,0.0016935129,0.0017474208,1.3638121e-05,466953,-0.0028286402,0.0046044113,-0.01625412,0.5,0.00012862663,0.00013161713,0.00029626887,1,1,1,0,1,1
270934137,270743648,3407890,-0.0022203599,-0.0034859586,0.0007077378,0.15,1.9224382e-07,1.905871e-07,5.1209435e-07,3407890,-0.056468774,-0.054113254,0.00972539,0.4,0.0016743287,0.0017272509,1.360856e-05,466953,-0.0026296456,0.004555732,-0.01626583,0.5,0.000117877535,0.00012092536,0.00029620377,1,1,1,0,1,1
271034118,270843648,3407890,-0.0022172893,-0.003473242,0.0007127099,0.15,1.9248927e-07,1.9086112e-07,5.127749e-07,3407890,-0.055045713,-0.052267645,0.009730281,0.4,0.0016518323,0.0017036217,1.3573363e-05,466953,-0.002247305,0.004337299,-0.016295986,0.5,9.9367746e-05,0.00010243424,0.00029609937,1,1,1,0,1,1
271144157,270953648,3407890,-0.002219563,-0.0034589544,0.0007162908,0.15,1.9286891e-07,1.9127287e-07,5.1364157e-07,3407890,-0.054148193,-0.04945336,0.009777235,0.4,0.0016253032,0.0016757519,1.3532621e-05,466953,-0.0020602199,0.00439013,-0.016309593,0.5,9.137465e-05,9.4417686e-05,0.0002960532,1,1,1,0,1,1
271244125,271053648,3407890,-0.002226551,-0.0034541034,0.0007168214,0.15,1.9318416e-07,1.9163251e-07,5.1419715e-07,3407890,-0.0549537,-0.047567427,0.009828662,0.4,0.0015954188,0.001644385,1.3486071e-05,466953,-0.0017610078,0.0043327087,-0.016316919,0.5,7.7757315e-05,8.0697086e-05,0.0002959617,1,1,1,0,1,1
271344147,271153648,3407890,-0.0022255597,-0.0034498484,0.0007189377,0.15,1.9355394e-07,1.920453e-07,5.1488837e-07,3407890,-0.054239374,-0.046719674,0.009810716,0.4,0.0015625047,0.0016098048,1.3434283e-05,466953,-0.0016143109,0.0042273914,-0.016326644,0.5,7.196479e-05,7.483688e-05,0.0002959212,1,1,1,0,1,1
271734449,271543648,3407890,-0.0022260856,-0.0034167182,0.00073066977,0.15,1.9546255e-07,1.9413372e-07,5.1685015e-07,3407890,-0.049043156,-0.038472764,0.00985721,0.4,0.0014076346,0.0014468099,1.3190065e-05,466953,-0.00086944073,0.003907661,-0.016378133,0.5,4.7585272e-05,4.993165e-05,0.00029579183,1,1,1,0,1,1
271834121,271643647,3407890,-0.0022341334,-0.0034185082,0.0007258335,0.15,1.9610182e-07,1.9481038e-07,5.174289e-07,3407890,-0.051612902,-0.03671848,0.0099489875,0.4,0.0013655816,0.0014024914,1.3124189e-05,466953,-0.0007505662,0.0038926252,-0.016379312,0.5,4.4795062e-05,4.7048674e-05,0.0002957848,1,1,1,0,1,1
271934134,271743647,3407890,-0.0022386343,-0.0034177767,0.00072340615,0.15,1.96813e-07,1.9555132e-07,5.180271e-07,3407890,-0.052630205,-0.035040908,0.010004242,0.4,0.0013259345,0.001360714,1.3062241e-05,466953,-0.0007053611,0.0038341135,-0.016382176,0.5,4.227152e-05,4.4432876e-05,0.0002957806,1,1,1,0,1,1
272034115,271843648,3407890,-0.0022393535,-0.0034132677,0.00072483375,0.15,1.9755174e-07,1.9631975e-07,5.183708e-07,3407890,-0.051400956,-0.033226546,0.010007616,0.4,0.0012842178,0.0013168033,1.2997349e-05,466953,-0.00058793783,0.003747585,-0.016392164,0.5,3.791034e-05,3.989353e-05,0.00029576823,1,1,1,0,1,1
272144136,271953648,3407890,-0.0022414925,-0.0034061808,0.00072497973,0.15,1.984258e-07,1.9721584e-07,5.190714e-07,3407890,-0.04948979,-0.030006504,0.01004953,0.4,0.0012395339,0.0012697807,1.2928007e-05,466953,-0.00045691992,0.0037738248,-0.016405396,0.5,3.601271e-05,3.790809e-05,0.00029576072,1,1,1,0,1,1
272234412,272043647,3407890,-0.002244818,-0.003400966,0.00072438485,0.15,1.99134e-07,1.9794463e-07,5.193135e-07,3407890,-0.048458323,-0.026644723,0.010117537,0.4,0.001196311,0.001224383,1.2859756e-05,466953,-0.00028507822,0.0037924838,-0.016417298,0.5,3.2706736e-05,3.4434433e-05,0.00029574716,1,1,1,0,1,1
272344156,272153648,3407890,-0.002245955,-0.0033959365,0.00072501646,0.15,2.0008133e-07,1.9890518e-07,5.200348e-07,3407890,-0.046410713,-0.024212709,0.010129175,0.4,0.0011532905,0.0011792338,1.2793243e-05,466953,-0.0002008714,0.003770777,-0.01642592,0.5,3.1260566e-05,3.2906148e-05,0.00029574326,1,1,1,0,1,1
272434125,272243648,3407890,-0.0022494216,-0.0033888682,0.0007238072,0.15,2.008568e-07,1.99691e-07,5.2055884e-07,3407890,-0.043630727,-0.019723946,0.010190437,0.4,0.0011121681,0.0011361495,1.2728471e-05,466953,-0.00010856294,0.0037894496,-0.0164322,0.5,2.9935934e-05,3.1500058e-05,0.00029574192,1,1,1,0,1,1
272634126,272443648,3407890,-0.0022516367,-0.0033852505,0.0007243828,0.15,2.0266727e-07,2.0151937e-07,5.21481e-07,3407890,-0.041780364,-0.016388927,0.010228084,0.4,0.0010338702,0.0010543435,1.260672e-05,466953,0.0001037367,0.0037655567,-0.01642744,0.5,2.6580981e-05,2.791093e-05,0.00029573697,1,1,1,0,1,1
272834158,272643648,3407890,-0.0022534397,-0.0033824532,0.00072453415,0.15,2.0453945e-07,2.0340377e-07,5.223571e-07,3407890,-0.039527703,-0.013315812,0.010262693,0.4,0.0009618485,0.000979404,1.2494557e-05,466953,0.00027668613,0.0037448183,-0.016425565,0.5,2.3965516e-05,2.5078165e-05,0.00029573028,1,1,1,0,1,1
272934129,272743648,3407890,-0.0022534467,-0.0033801165,0.00072568934,0.15,2.0549423e-07,2.0436136e-07,5.229615e-07,3407890,-0.03706347,-0.012920226,0.0102140885,0.4,0.00092847866,0.00094476243,1.2443082e-05,466953,0.00034227956,0.0037399733,-0.01643247,0.5,2.322495e-05,2.4268636e-05,0.00029572693,1,1,1,0,1,1
273034131,272843648,3407890,-0.0022538437,-0.0033800257,0.0007268937,0.15,2.064482e-07,2.0532157e-07,5.2317534e-07,3407890,-0.036818948,-0.011754875,0.010246007,0.4,0.0008967626,0.00091191824,1.2393758e-05,466953,0.0004446811,0.0037063076,-0.016432097,0.5,2.1914162e-05,2.2826282e-05,0.00029571922,1,1,1,0,1,1
273144117,272953648,3407890,-0.0022554146,-0.0033787095,0.0007256466,0.15,2.0751297e-07,2.0638886e-07,5.2385053e-07,3407890,-0.034516305,-0.01003294,0.0102505395,0.4,0.0008665513,0.00088067027,1.2348069e-05,466953,0.0004945222,0.0037389102,-0.016438505,0.5,2.1332631e-05,2.2180984e-05,0.00029571366,1,1,1,0,1,1
273234407,273043648,3407890,-0.002255887,-0.003379261,0.0007269126,0.15,2.0837645e-07,2.0725848e-07,5.239136e-07,3407890,-0.034412567,-0.008480914,0.010293609,0.4,0.00084424816,0.0008576346,1.2313744e-05,466953,0.00058469205,0.003701291,-0.016438235,0.5,2.0303285e-05,2.1030339e-05,0.00029570085,1,1,1,0,1,1
273334120,273143648,3407890,-0.0022556263,-0.0033800113,0.0007278367,0.15,2.09347e-07,2.0823198e-07,5.24466e-07,3407890,-0.03505863,-0.0077172667,0.010322285,0.4,0.0008226874,0.0008353866,1.2281892e-05,466953,0.00061710953,0.0036736582,-0.016434018,0.5,1.9846311e-05,2.0514794e-05,0.0002956955,1,1,1,0,1,1
273734472,273543648,3407890,-0.0022558684,-0.00338165,0.00073439575,0.15,2.1318911e-07,2.1209792e-07,5.255608e-07,3407890,-0.034222376,-0.005415884,0.010333488,0.4,0.00073538144,0.0007454422,1.2148634e-05,466953,0.00083289086,0.0035523025,-0.016442243,0.5,1.776735e-05,1.812099e-05,0.00029567507,1,1,1,0,1,1
273834126,273643648,3407890,-0.0022571986,-0.003382412,0.00073334767,0.15,2.1414428e-07,2.1305874e-07,5.2602877e-07,3407890,-0.03299512,-0.0046566576,0.010321271,0.4,0.00071456033,0.0007240089,1.211566e-05,466953,0.00084571616,0.003572443,-0.016441507,0.5,1.7505849e-05,1.7811619e-05,0.00029567216,1,1,1,0,1,1
274144159,273953648,3407890,-0.002257797,-0.0033810223,0.0007405487,0.15,2.1709106e-07,2.1602743e-07,5.2691297e-07,3407890,-0.032185122,-0.005962784,0.010219042,0.4,0.00066522637,0.0006731979,1.2039585e-05,466953,0.00096163445,0.0034724586,-0.016436938,0.5,1.6657468e-05,1.6788264e-05,0.00029564713,1,1,1,0,1,1
274234387,274043647,3407890,-0.0022558637,-0.0033827196,0.00074350566,0.15,2.1792314e-07,2.1687103e-07,5.26617e-07,3407890,-0.032795068,-0.0047553494,0.010238986,0.4,0.0006499524,0.0006574674,1.2014561e-05,466953,0.000976868,0.003413564,-0.016414348,0.5,1.6334541e-05,1.6386668e-05,0.0002956236,1,1,1,0,1,1
274334159,274143648,3407890,-0.0022536395,-0.0033831652,0.00074553536,0.15,2.1886095e-07,2.1781563e-07,5.2698397e-07,3407890,-0.03376647,-0.0041499096,0.010253696,0.4,0.0006359305,0.0006430571,1.1991811e-05,466953,0.0009779565,0.0033689907,-0.016400754,0.5,1.619293e-05,1.6207418e-05,0.00029560964,1,1,1,0,1,1
274734442,274543647,3407890,-0.0022509047,-0.003385962,0.0007583628,0.15,2.2258483e-07,2.2157762e-07,5.268775e-07,3407890,-0.033465546,-0.0029821529,0.0102187265,0.4,0.00059497036,0.00060087343,1.1927654e-05,466953,0.001025917,0.0031999827,-0.016370947,0.5,1.5613707e-05,1.5442789e-05,0.00029556168,1,1,1,0,1,1
275034124,274843648,3407890,-0.0022511294,-0.0033882267,0.0007698838,0.15,2.2536052e-07,2.243792e-07,5.2674926e-07,3407890,-0.032474473,-0.0026899702,0.010175656,0.4,0.00057268084,0.0005778844,1.1892715e-05,466953,0.0010477435,0.0031143054,-0.016345724,0.5,1.5422624e-05,1.51644645e-05,0.00029550568,1,1,1,0,1,1
275634124,275443648,3407890,-0.0022487547,-0.0033822744,0.0008127606,0.15,2.3086336e-07,2.2992828e-07,5.256476e-07,3407890,-0.03330423,-0.0039351084,0.010014992,0.4,0.00054098683,0.00054511277,1.1835821e-05,466953,0.0010409696,0.0028972137,-0.016296245,0.5,1.528444e-05,1.49483185e-05,0.00029537728,1,1,1,0,1,1
275934129,275743647,3407890,-0.002250309,-0.0033781505,0.0008371682,0.15,2.3364767e-07,2.3273381e-07,5.249623e-07,3407890,-0.033547346,-0.004956072,0.009906917,0.4,0.00053277594,0.0005365171,1.1821539e-05,466953,0.0010236053,0.0028610397,-0.016301582,0.5,1.5240247e-05,1.4913328e-05,0.000295346,1,1,1,0,1,1
276934128,276743648,3407890,-0.0022531315,-0.003374852,0.0009096988,0.15,2.430137e-07,2.4215262e-07,5.2395177e-07,3407890,-0.03339194,-0.00597664,0.009613017,0.4,0.00051727495,0.0005200607,1.17843765e-05,466953,0.0007646387,0.0031312061,-0.016396603,0.5,1.458503e-05,1.44683e-05,0.0002951119,1,1,1,0,1,1
277834152,277643647,3407890,-0.0022565986,-0.0033685318,0.0009564853,0.15,2.5164735e-07,2.5081164e-07,5.273324e-07,3407890,-0.03456705,-0.0056775515,0.009428219,0.4,0.00050504925,0.0005077573,1.1748181e-05,466953,0.00067723636,0.0036095483,-0.016371576,0.5,1.2960039e-05,1.3105263e-05,0.00029478985,1,1,1,0,1,1
278234125,278043647,3407890,-0.0022531964,-0.0033665076,0.00096803374,0.15,2.5549753e-07,2.5467446e-07,5.297783e-07,3407890,-0.034596644,-0.004532564,0.009395611,0.4,0.0004971001,0.00049985864,1.1730426e-05,466953,0.00068429246,0.0037290489,-0.016428623,0.5,1.230862e-05,1.25286815e-05,0.00029464564,1,1,1,0,1,1
278834160,278643647,3407890,-0.0022495966,-0.0033648412,0.0009820088,0.15,2.6107145e-07,2.602648e-07,5.335074e-07,3407890,-0.035042804,-0.0035143753,0.00938692,0.4,0.00048092072,0.000483755,1.1699091e-05,466953,0.00064168253,0.003926806,-0.016568491,0.5,1.1326951e-05,1.1671236e-05,0.00029411647,1,1,1,0,1,1
279334162,279143648,3407890,-0.0022436425,-0.0033628098,0.0009949345,0.15,2.6531552e-07,2.6451457e-07,5.365846e-07,3407890,-0.03549735,-0.0022838418,0.00942029,0.4,0.00046448174,0.0004674572,1.166851e-05,466953,0.0006206789,0.0041027144,-0.016675739,0.5,1.0704425e-05,1.1147397e-05,0.00029381795,1,1,1,0,1,1
280144122,279953648,3407890,-0.0022398098,-0.0033569075,0.0010114169,0.15,2.7096155e-07,2.7017387e-07,5.4189644e-07,3407890,-0.03622775,-0.0015365969,0.009344403,0.4,0.00043825316,0.00044139606,1.16228775e-05,466953,0.0005736005,0.00430368,-0.016758177,0.5,9.888681e-06,1.0473182e-05,0.00029364496,1,1,1,0,1,1
280834125,280643648,3407890,-0.0022322382,-0.0033674107,0.0010217088,0.15,2.7398124e-07,2.732411e-07,5.4651804e-07,3407890,-0.035452455,-0.00086562865,0.009217044,0.4,0.0004185967,0.00042180566,1.1586394e-05,466953,0.00055138394,0.004427535,-0.016730169,0.5,9.28873e-06,9.986315e-06,0.00029344327,1,1,1,0,1,1
281144245,280953648,3407890,-0.0022333662,-0.0033843995,0.0010249483,0.15,2.7484802e-07,2.7413682e-07,5.4873476e-07,3407890,-0.034424234,-0.0009150849,0.00913595,0.4,0.00041151742,0.00041476247,1.1573873e-05,466953,0.000549629,0.004455099,-0.016695308,0.5,9.079952e-06,9.817733e-06,0.00029329956,1,1,1,0,1,1
282153943,281963648,3407890,-0.0022423705,-0.0033823452,0.0010347918,0.15,2.752557e-07,2.7464228e-07,5.558281e-07,3407890,-0.034179173,-0.0010055752,0.008917907,0.4,0.0003943486,0.00039786033,1.1543393e-05,466953,0.0005020169,0.0045937356,-0.016677184,0.5,8.4467365e-06,9.311065e-06,0.0002928796,1,1,1,0,1,1
282634121,282443647,3407890,-0.0022195196,-0.0034034417,0.0010449222,0.15,2.7408035e-07,2.735244e-07,5.5913904e-07,3407890,-0.033483505,-0.00013711891,0.008844157,0.4,0.00038856867,0.00039230706,1.15307985e-05,466953,0.0005126453,0.0046459753,-0.016654965,0.5,8.176862e-06,9.100264e-06,0.0002927116,1,1,1,0,1,1
283104125,282913648,3407890,-0.0022023327,-0.0034315328,0.0010540092,0.15,2.7371016e-07,2.73178e-07,5.624649e-07,3407890,-0.03271289,0.00050403934,0.008793374,0.4,0.00038522668,0.00038917232,1.15317425e-05,466953,0.00053016964,0.004686099,-0.016610255,0.5,7.9315305e-06,8.909347e-06,0.0002925389,1,1,1,1,1,1
283934128,283743647,3407890,-0.0022175547,-0.0034854696,0.0010470751,0.15,2.6870086e-07,2.6834314e-07,5.6746876e-07,3407890,-0.031576123,0.00061805215,0.008704879,0.4,0.0003794649,0.00038398764,1.1514337e-05,466953,0.00050373183,0.004715305,-0.016626736,0.5,7.589382e-06,8.659005e-06,0.00029245476,1,1,1,1,1,1
284734126,284543648,3407890,-0.0022914233,-0.0035124412,0.0010392073,0.15,2.6547647e-07,2.6519982e-07,5.63728e-07,3407890,-0.030486975,0.0007213759,0.008652239,0.4,0.00037465733,0.00037981468,1.1518432e-05,466953,0.00038461186,0.0046384805,-0.01674084,0.5,7.4752816e-06,8.572893e-06,0.00029213628,1,1,1,1,1,1
285744138,285553648,3407890,-0.0023097289,-0.003523861,0.0011090368,0.15,2.7387802e-07,2.7336267e-07,5.550711e-07,3407890,-0.02992545,0.0014742578,0.008672185,0.4,0.00037052124,0.00037653127,1.1591069e-05,466953,0.00024387702,0.0044167144,-0.01597501,0.5,7.385544e-06,8.352825e-06,0.00028994118,1,1,1,1,1,1
286753942,286563648,3407890,-0.0023196978,-0.0035374155,0.0011626575,0.15,2.8229744e-07,2.817034e-07,5.4981405e-07,3407890,-0.029572798,0.002075389,0.008651885,0.4,0.0003670065,0.000374002,1.1651298e-05,466953,0.00014635864,0.004249481,-0.01543901,0.5,7.31377e-06,8.186603e-06,0.0002874837,1,1,1,1,1,1
287763937,287573650,3407890,-0.0023212566,-0.0035528815,0.0012056502,0.15,2.9036667e-07,2.8989436e-07,5.469335e-07,3407890,-0.029432341,0.002609538,0.00857942,0.4,0.00036392477,0.0003719196,1.169883e-05,466953,8.6455606e-05,0.0041197534,-0.015776053,0.5,7.259684e-06,8.061368e-06,0.0002849123,1,1,1,1,1,1
288774019,288583648,3407890,-0.0023212626,-0.0035688644,0.0012441225,0.15,2.9785014e-07,2.9774506e-07,5.452791e-07,3407890,-0.02930797,0.0030772602,0.008508962,0.4,0.0003610251,0.0003701086,1.1727414e-05,466953,3.799903e-05,0.0040037995,-0.01608668,0.5,7.2117873e-06,7.945408e-06,0.000283143,1,1,1,1,1,1
289783963,289593648,3407890,-0.0023214093,-0.0035857987,0.0012794234,0.15,3.0462652e-07,3.0516102e-07,5.445807e-07,3407890,-0.029170007,0.0034929628,0.008456454,0.4,0.0003583081,0.0003685314,1.1741801e-05,466953,-9.301325e-06,0.0038954723,-0.016204407,0.5,7.1675477e-06,7.836129e-06,0.0002821667,1,1,1,1,1,1
290793960,290603648,3407890,-0.002321065,-0.0036029655,0.0013104203,0.15,3.1047156e-07,3.1208464e-07,5.446826e-07,3407890,-0.029047536,0.0038710262,0.008384543,0.4,0.00035569837,0.00036715725,1.1751994e-05,466953,-4.5310626e-05,0.0037941663,-0.016286189,0.5,7.128066e-06,7.73186e-06,0.0002813607,1,1,1,1,1,1
291803990,291613648,3407890,-0.0023225346,-0.0036180287,0.0013344083,0.15,3.1545488e-07,3.18492e-07,5.454091e-07,3407890,-0.028870149,0.0041984688,0.008214766,0.4,0.0003532792,0.0003659802,1.17517975e-05,466953,-8.304648e-05,0.0037173256,-0.01636096,0.5,7.091361e-06,7.633631e-06,0.00028089,1,1,1,1,1,1
292813953,292623648,3407890,-0.0023240147,-0.003635196,0.00135752,0.15,3.1960678e-07,3.2433866e-07,5.468143e-07,3407890,-0.028718153,0.004487475,0.008107314,0.4,0.0003511182,0.00036501035,1.17552745e-05,466953,-0.00011845098,0.003645633,-0.016407397,0.5,7.059259e-06,7.548247e-06,0.00028015586,1,1,1,1,1,1
293824102,293633648,3407890,-0.002326503,-0.0036504224,0.0013748272,0.15,3.224111e-07,3.29162e-07,5.4845253e-07,3407890,-0.028582959,0.004708703,0.007996609,0.4,0.0003491654,0.00036421654,1.1752658e-05,466953,-0.00014737133,0.003598505,-0.016439136,0.5,7.0342326e-06,7.482779e-06,0.00027967372,1,1,1,1,1,1
294833939,294643648,3407890,-0.0023276627,-0.0036655418,0.0013915257,0.15,3.2482558e-07,3.33672e-07,5.5138617e-07,3407890,-0.028488798,0.004941635,0.007812564,0.4,0.00034758166,0.00036364046,1.17560485e-05,466953,-0.00016911566,0.0035528867,-0.016563406,0.5,7.0149554e-06,7.4308414e-06,0.00027889156,1,1,1,1,1,1
295843942,295653647,3407890,-0.0023297796,-0.003680053,0.0014066484,0.15,3.2644607e-07,3.3745474e-07,5.5485094e-07,3407890,-0.028402146,0.005158684,0.0075695966,0.4,0.00034624277,0.00036320288,1.1754128e-05,466953,-0.00018702664,0.0035139306,-0.016616486,0.5,6.999844e-06,7.390342e-06,0.00027839813,1,1,1,1,1,1
296853938,296663647,3407890,-0.0023271893,-0.0036764427,0.0014051917,0.15,3.2778297e-07,3.4051467e-07,5.5978575e-07,3407890,-0.02844562,0.005181686,0.0073737004,0.4,0.00034521788,0.00036290538,1.175845e-05,466953,-0.00016800988,0.0035404952,-0.017091744,0.5,6.984336e-06,7.3499796e-06,0.00025682434,1,1,1,1,1,1
297863921,297673648,3407890,-0.0023130893,-0.0036764941,0.0014160903,0.15,3.2940335e-07,3.422501e-07,5.6485345e-07,3407890,-0.02864615,0.0051604696,0.00745831,0.4,0.00034442983,0.000362585,1.1758618e-05,466953,-0.00020510616,0.0035047738,-0.017820254,0.5,6.9238913e-06,7.292306e-06,0.0002347409,1,1,1,1,1,1
298873980,298683647,3407890,-0.0023124102,-0.003679733,0.0014287092,0.15,3.295183e-07,3.4309846e-07,5.695938e-07,3407890,-0.028742883,0.005123493,0.0075773215,0.4,0.00034365448,0.00036220104,1.1760997e-05,466953,-0.0002791384,0.003439498,-0.01786036,0.5,6.8463523e-06,7.2349467e-06,0.00022922458,1,1,1,1,1,1
299884046,299693648,3407890,-0.0023147997,-0.0036862558,0.001433817,0.15,3.2894368e-07,3.436289e-07,5.750607e-07,3407890,-0.028830316,0.0052015157,0.0075207306,0.4,0.00034301222,0.00036187057,1.1770748e-05,466953,-0.00035489636,0.0033953986,-0.017775267,0.5,6.7757833e-06,7.1869276e-06,0.00022318511,1,1,1,1,1,1
300893950,300703648,3407890,-0.0023000373,-0.003682731,0.0014417251,0.15,3.2737452e-07,3.4363526e-07,5.814398e-07,3407890,-0.029085146,0.0052990313,0.007349939,0.4,0.00034235994,0.0003615888,1.1776701e-05,466953,-0.00041799608,0.0033491931,-0.017653592,0.5,6.712653e-06,7.142692e-06,0.00022089721,1,1,1,1,1,1
301904170,301713647,3407890,-0.0022848237,-0.003698961,0.0014564869,0.15,3.2326145e-07,3.4178407e-07,5.875721e-07,3407890,-0.029177662,0.005254678,0.0073872507,0.4,0.00034160816,0.00036127726,1.1789157e-05,466953,-0.0004892493,0.0032873128,-0.017551241,0.5,6.6503703e-06,7.098024e-06,0.00021874395,1,1,1,1,1,1
302913918,302723648,3407890,-0.002272553,-0.003708483,0.0014718912,0.15,3.2027225e-07,3.405211e-07,5.940754e-07,3407890,-0.029259363,0.005195832,0.0073877824,0.4,0.0003410161,0.00036102798,1.1797356e-05,466953,-0.0005550807,0.0032328907,-0.017455567,0.5,6.597039e-06,7.06144e-06,0.0002171274,1,1,1,1,1,1
303923914,303733648,3407890,-0.0022669411,-0.0037175438,0.0014815702,0.15,3.1777105e-07,3.3945545e-07,6.0099546e-07,3407890,-0.02932342,0.005164866,0.0073945248,0.4,0.00034055996,0.00036086034,1.1810815e-05,466953,-0.00060920726,0.0031892096,-0.017399166,0.5,6.548084e-06,7.030777e-06,0.00021541426,1,1,1,1,1,1
304933935,304743648,3407890,-0.0022661625,-0.0037366194,0.0014893058,0.15,3.153448e-07,3.3851992e-07,6.080735e-07,3407890,-0.029371858,0.0051863194,0.007394637,0.4,0.00034017058,0.00036072923,1.1818511e-05,466953,-0.0006609421,0.0031478116,-0.01743257,0.5,6.5024865e-06,7.0006727e-06,0.00021165781,1,1,1,1,1,1
305943922,305753648,3407890,-0.0022645497,-0.0037520856,0.0014959686,0.15,3.132929e-07,3.373262e-07,6.1528885e-07,3407890,-0.02943787,0.0052103084,0.007395585,0.4,0.00033992474,0.00036063488,1.1830241e-05,466953,-0.00070477586,0.003113067,-0.01739458,0.5,6.4612645e-06,6.9775106e-06,0.00021056729,1,1,1,1,1,1
306953930,306763647,3407890,-0.0022633278,-0.003764054,0.0015054448,0.15,3.1126996e-07,3.3589347e-07,6.225575e-07,3407890,-0.029475909,0.0051810704,0.0073945597,0.4,0.0003397472,0.00036055132,1.183498e-05,466953,-0.0007526932,0.0030793254,-0.01738223,0.5,6.422292e-06,6.9566563e-06,0.00020988476,1,1,1,1,1,1
307963937,307773648,3407890,-0.0022806616,-0.0037757112,0.001514736,0.15,3.069547e-07,3.305291e-07,6.254905e-07,3407890,-0.029446408,0.0051605473,0.007384343,0.4,0.0003396085,0.00036000906,1.18866765e-05,466953,-0.0007760227,0.0030508412,-0.017467579,0.5,6.3992325e-06,6.93657e-06,0.00020939388,1,1,1,1,1,1
308934138,308743650,3407890,-0.0021824827,-0.0038638872,0.0013900789,0.15,2.8106143e-07,2.896667e-07,5.728637e-07,3407890,-0.029714772,0.0063132285,0.007381377,0.4,0.0003389811,0.00035472127,1.1966733e-05,466953,-0.00076181325,0.0032137746,-0.017772432,0.5,6.367096e-06,6.8389704e-06,0.00020259432,1,1,1,1,1,1
309344120,309153648,3407890,-0.001967299,-0.0039014001,0.0013037323,0.15,2.6850557e-07,2.7093552e-07,5.277037e-07,3407890,-0.030445104,0.0069746464,0.0073455074,0.4,0.00033878518,0.00035202713,1.2000379e-05,466953,-0.00081724947,0.003439458,-0.018850548,0.5,6.351977e-06,6.781451e-06,0.0001948156,1,1,1,1,1,1
309704150,309513683,3407890,-0.001847416,-0.003873653,0.0013443837,0.15,2.5872836e-07,2.5957164e-07,4.961649e-07,3407890,-0.030917387,0.0066602253,0.0072447374,0.4,0.0003386719,0.00035034455,1.2030226e-05,466953,-0.0008906498,0.0035058102,-0.01985535,0.5,6.341322e-06,6.7421697e-06,0.00018957879,1,1,1,1,1,1
310144139,309953648,3407890,-0.001987119,-0.003807712,0.0014247763,0.15,2.38653e-07,2.4256505e-07,4.594478e-07,3407890,-0.03074279,0.005699928,0.006853835,0.4,0.00033850936,0.00034831013,1.2063613e-05,466953,-0.0009116025,0.003350756,-0.019890869,0.5,6.3252687e-06,6.690663e-06,0.00018856267,1,1,1,1,1,1
