timestamp,rollspeed_integ,pitchspeed_integ,yawspeed_integ,wheel_rate_integ
200066838,0.0,0.0,0.0,0.0
200068081,0.0,0.0,0.0,0.0
200086826,0.0,0.0,0.0,0.0
200226827,0.0,0.0,0.0,0.0
200246829,0.0,0.0,0.0,0.0
200266826,0.0,0.0,0.0,0.0
200286827,0.0,0.0,0.0,0.0
200306827,0.0,0.0,0.0,0.0
200326826,0.0,0.0,0.0,0.0
200346829,0.0,0.0,0.0,0.0
200386831,0.0,0.0,0.0,0.0
200406827,0.0,0.0,0.0,0.0
200426826,0.0,0.0,0.0,0.0
200446830,0.0,0.0,0.0,0.0
200466827,0.0,0.0,0.0,0.0
200486827,0.0,0.0,0.0,0.0
200506826,0.0,0.0,0.0,0.0
200526828,0.0,0.0,0.0,0.0
200546827,0.0,0.0,0.0,0.0
200566826,0.0,0.0,0.0,0.0
200586828,0.0,0.0,0.0,0.0
200606827,0.0,0.0,0.0,0.0
200626827,0.0,0.0,0.0,0.0
200646827,0.0,0.0,0.0,0.0
200666829,0.0,0.0,0.0,0.0
200686827,0.0,0.0,0.0,0.0
200706827,0.0,0.0,0.0,0.0
200726827,0.0,0.0,0.0,0.0
200746829,0.0,0.0,0.0,0.0
200766827,0.0,0.0,0.0,0.0
200786827,0.0,0.0,0.0,0.0
200806829,0.0,0.0,0.0,0.0
200826827,0.0,0.0,0.0,0.0
200846829,0.0,0.0,0.0,0.0
200866829,0.0,0.0,0.0,0.0
200886827,0.0,0.0,0.0,0.0
200906827,0.0,0.0,0.0,0.0
200926827,0.0,0.0,0.0,0.0
200946830,0.0,0.0,0.0,0.0
200966829,0.0,0.0,0.0,0.0
200986828,0.0,0.0,0.0,0.0
201006825,0.0,0.0,0.0,0.0
201026824,0.0,0.0,0.0,0.0
201046824,0.0,0.0,0.0,0.0
201066826,0.0,0.0,0.0,0.0
201086825,0.0,0.0,0.0,0.0
201106825,0.0,0.0,0.0,0.0
201126824,0.0,0.0,0.0,0.0
201146827,0.0,0.0,0.0,0.0
201166825,0.0,0.0,0.0,0.0
201186826,0.0,0.0,0.0,0.0
201206823,0.0,0.0,0.0,0.0
201226824,0.0,0.0,0.0,0.0
201246826,0.0,0.0,0.0,0.0
201266824,0.0,0.0,0.0,0.0
201286823,0.0,0.0,0.0,0.0
201306828,0.0,0.0,0.0,0.0
201326823,0.0,0.0,0.0,0.0
201346824,0.0,0.0,0.0,0.0
201366824,0.0,0.0,0.0,0.0
201386824,0.0,0.0,0.0,0.0
201406826,0.0,0.0,0.0,0.0
201426825,0.0,0.0,0.0,0.0
201446825,0.0,0.0,0.0,0.0
201466826,0.0,0.0,0.0,0.0
201486824,0.0,0.0,0.0,0.0
201506824,0.0,0.0,0.0,0.0
201526824,0.0,0.0,0.0,0.0
201546824,0.0,0.0,0.0,0.0
201566826,0.0,0.0,0.0,0.0
201586826,0.0,0.0,0.0,0.0
201606825,0.0,0.0,0.0,0.0
201626827,0.0,0.0,0.0,0.0
201646823,0.0,0.0,0.0,0.0
201666832,0.0,0.0,0.0,0.0
201686824,0.0,0.0,0.0,0.0
201706824,0.0,0.0,0.0,0.0
201726824,0.0,0.0,0.0,0.0
201746828,0.0,0.0,0.0,0.0
201766824,0.0,0.0,0.0,0.0
201786824,0.0,0.0,0.0,0.0
201806833,0.0,0.0,0.0,0.0
201826825,0.0,0.0,0.0,0.0
201846825,0.0,0.0,0.0,0.0
201866823,0.0,0.0,0.0,0.0
201886824,0.0,0.0,0.0,0.0
201906824,0.0,0.0,0.0,0.0
201926824,0.0,0.0,0.0,0.0
201946833,0.0,0.0,0.0,0.0
201966824,0.0,0.0,0.0,0.0
201986825,0.0,0.0,0.0,0.0
202006825,0.0,0.0,0.0,0.0
202026824,0.0,0.0,0.0,0.0
202045575,0.0,0.0,0.0,0.0
202066827,0.0,0.0,0.0,0.0
202086834,0.0,0.0,0.0,0.0
202106824,0.0,0.0,0.0,0.0
202126824,0.0,0.0,0.0,0.0
202146826,0.0,0.0,0.0,0.0
202166826,0.0,0.0,0.0,0.0
202186825,0.0,0.0,0.0,0.0
202206825,0.0,0.0,0.0,0.0
202226831,0.0,0.0,0.0,0.0
202246824,0.0,0.0,0.0,0.0
202266826,0.0,0.0,0.0,0.0
202286824,0.0,0.0,0.0,0.0
202306825,0.0,0.0,0.0,0.0
202326824,0.0,0.0,0.0,0.0
202346824,0.0,0.0,0.0,0.0
202366831,0.0,0.0,0.0,0.0
202386825,0.0,0.0,0.0,0.0
202406824,0.0,0.0,0.0,0.0
202426825,0.0,0.0,0.0,0.0
202446828,0.0,0.0,0.0,0.0
202466824,0.0,0.0,0.0,0.0
202486825,0.0,0.0,0.0,0.0
202506831,0.0,0.0,0.0,0.0
202526825,0.0,0.0,0.0,0.0
202546827,0.0,0.0,0.0,0.0
202566825,0.0,0.0,0.0,0.0
202586824,0.0,0.0,0.0,0.0
202606825,0.0,0.0,0.0,0.0
202626829,0.0,0.0,0.0,0.0
202646831,0.0,0.0,0.0,0.0
202666825,0.0,0.0,0.0,0.0
202686825,0.0,0.0,0.0,0.0
202706824,0.0,0.0,0.0,0.0
202726824,0.0,0.0,0.0,0.0
202746826,0.0,0.0,0.0,0.0
202766826,0.0,0.0,0.0,0.0
202786832,0.0,0.0,0.0,0.0
202806826,0.0,0.0,0.0,0.0
202826824,0.0,0.0,0.0,0.0
202846827,0.0,0.0,0.0,0.0
202866826,0.0,0.0,0.0,0.0
202886825,0.0,0.0,0.0,0.0
202906824,0.0,0.0,0.0,0.0
202926825,0.0,0.0,0.0,0.0
202946826,0.0,0.0,0.0,0.0
202966824,0.0,0.0,0.0,0.0
202986824,0.0,0.0,0.0,0.0
203006824,0.0,0.0,0.0,0.0
203026826,0.0,0.0,0.0,0.0
203046824,0.0,0.0,0.0,0.0
203066826,0.0,0.0,0.0,0.0
203086825,0.0,0.0,0.0,0.0
203106825,0.0,0.0,0.0,0.0
203126823,0.0,0.0,0.0,0.0
203146826,0.0,0.0,0.0,0.0
203166826,0.0,0.0,0.0,0.0
203186824,0.0,0.0,0.0,0.0
203206824,0.0,0.0,0.0,0.0
203226824,0.0,0.0,0.0,0.0
203246823,0.0,0.0,0.0,0.0
203266823,0.0,0.0,0.0,0.0
203286823,0.0,0.0,0.0,0.0
203306826,0.0,0.0,0.0,0.0
203326824,0.0,0.0,0.0,0.0
203346826,0.0,0.0,0.0,0.0
203366824,0.0,0.0,0.0,0.0
203386825,0.0,0.0,0.0,0.0
203406825,0.0,0.0,0.0,0.0
203426823,0.0,0.0,0.0,0.0
203446826,0.0,0.0,0.0,0.0
203466830,0.0,0.0,0.0,0.0
203486824,0.0,0.0,0.0,0.0
203506824,0.0,0.0,0.0,0.0
203526825,0.0,0.0,0.0,0.0
203546826,0.0,0.0,0.0,0.0
203566825,0.0,0.0,0.0,0.0
203586825,0.0,0.0,0.0,0.0
203606824,0.0,0.0,0.0,0.0
203626823,0.0,0.0,0.0,0.0
203646827,0.0,0.0,0.0,0.0
203666825,0.0,0.0,0.0,0.0
203686825,0.0,0.0,0.0,0.0
203706825,0.0,0.0,0.0,0.0
203726824,0.0,0.0,0.0,0.0
203746825,0.0,0.0,0.0,0.0
203766826,0.0,0.0,0.0,0.0
203786823,0.0,0.0,0.0,0.0
203806827,0.0,0.0,0.0,0.0
203826825,0.0,0.0,0.0,0.0
203846827,0.0,0.0,0.0,0.0
203866824,0.0,0.0,0.0,0.0
203886826,0.0,0.0,0.0,0.0
203906824,0.0,0.0,0.0,0.0
203926824,0.0,0.0,0.0,0.0
203946826,0.0,0.0,0.0,0.0
203966824,0.0,0.0,0.0,0.0
203986826,0.0,0.0,0.0,0.0
204006825,0.0,0.0,0.0,0.0
204026825,0.0,0.0,0.0,0.0
204046825,0.0010797973,0.00038067656,-1.5475583e-06,0.0
204066830,0.0025031546,0.0008750063,-7.4188965e-06,0.0
204086824,0.003974885,0.0014090607,-6.288486e-06,0.0
204106828,0.0054561086,0.0018843713,-4.11346e-06,0.0
204126825,0.0069432543,0.0023498896,-1.0224271e-05,0.0
204146826,0.008328065,0.0028881005,-1.1418621e-05,0.0
204166827,0.009878465,0.0034564796,-9.198212e-06,0.0
204186829,0.011454406,0.0039542853,-1.0376774e-05,0.0
204206825,0.012958141,0.0044161924,-1.9655397e-05,0.0
204226825,0.014370017,0.0048493375,-2.0612004e-05,0.0
204246828,0.015897786,0.00535208,-1.3379413e-05,0.0
204266825,0.017339138,0.0058142752,-1.922962e-05,0.0
204286825,0.018838067,0.006288697,-2.4008772e-05,0.0
204306828,0.020341959,0.006684894,-1.9110867e-05,0.0
204326825,0.021826938,0.0070894416,-1.8932262e-05,0.0
204346825,0.023433153,0.007598403,-2.6293132e-05,0.0
204366825,0.024996506,0.008062405,-2.830686e-05,0.0
204386825,0.026494797,0.008439153,-3.0181347e-05,0.0
204406825,0.028118318,0.00878792,-3.125484e-05,0.0
204426826,0.029636137,0.0091635985,-2.7856568e-05,0.0
204446829,0.031102052,0.009637303,-3.0701223e-05,0.0
204466825,0.03268804,0.01008065,-4.5831443e-05,0.0
204486825,0.034017123,0.010379345,-4.2105246e-05,0.0
204506826,0.035638038,0.010725822,-2.9819632e-05,0.0
204526826,0.037100084,0.011145331,-5.0024708e-05,0.0
204546825,0.03857613,0.011746067,-6.0555758e-05,0.0
204566824,0.040140007,0.012102527,-5.334221e-05,0.0
204586825,0.04162042,0.012492323,-4.900606e-05,0.0
204606827,0.043221153,0.012757914,-6.294512e-05,0.0
204626825,0.044655476,0.013211155,-7.046713e-05,0.0
204646825,0.046144146,0.013751068,-7.0879236e-05,0.0
204666826,0.047691952,0.0141040515,-8.2219885e-05,0.0
204686825,0.049160834,0.014395033,-8.28319e-05,0.0
204706826,0.050740905,0.014853357,-8.1564445e-05,0.0
204726823,0.052209288,0.01522257,-0.00010364915,0.0
204746827,0.053675205,0.015572963,-9.895329e-05,0.0
204766824,0.055104975,0.015823346,-9.5157615e-05,0.0
204786825,0.056574855,0.016225817,-0.0001023765,0.0
204806827,0.058052137,0.016543195,-0.00011717015,0.0
204826824,0.059556596,0.016814515,-0.00011597204,0.0
204846828,0.061065283,0.01723054,-0.0001130226,0.0
204886824,0.06410015,0.017849337,-0.00014637607,0.0
204906826,0.065612316,0.018233474,-0.00014349382,0.0
204926824,0.06694728,0.018651808,-0.00014050299,0.0
204946825,0.06855695,0.019135913,-0.0001509818,0.0
204966825,0.06996567,0.019627634,-0.00017815565,0.0
204986824,0.07150402,0.019952932,-0.00018127206,0.0
205006825,0.072962485,0.020404553,-0.000171621,0.0
205026826,0.07458952,0.020720763,-0.00018175763,0.0
205046825,0.07614086,0.020940293,-0.00020984514,0.0
205066824,0.077726655,0.021205997,-0.00020109946,0.0
205087102,0.07926324,0.021593435,-0.00021337766,0.0
205106826,0.08071128,0.022297576,-0.00023863441,0.0
205126824,0.08212416,0.022770053,-0.0002451652,0.0
205146828,0.083680175,0.022790892,-0.0002574464,0.0
205166827,0.08519548,0.023019342,-0.00028098264,0.0
205186825,0.08670779,0.023407327,-0.00029880708,0.0
205206825,0.08825714,0.023940032,-0.00029916601,0.0
205226825,0.08976508,0.024351014,-0.00033793933,0.0
205246825,0.09114227,0.024670757,-0.0003657878,0.0
205266824,0.09221312,0.02494942,-0.00038102744,0.0
205286826,0.093283035,0.025130441,-0.00039006726,0.0
205306826,0.09404726,0.024904728,-0.0004348957,0.0
205326825,0.09450524,0.02464588,-0.00050595123,0.0
205346827,0.09427837,0.024591057,-0.0005747634,0.0
205366823,0.09379863,0.024697894,-0.00061902526,0.0
205386826,0.09309883,0.025131885,-0.0006419927,0.0
205406827,0.09194837,0.025701547,-0.00062957744,0.0
205426824,0.09038903,0.02605438,-0.0006228201,0.0
205446825,0.08848475,0.026264306,-0.0006292408,0.0
205466829,0.085995376,0.02622623,-0.0006627219,0.0
205486824,0.08300699,0.02633883,-0.0007208388,0.0
205506834,0.07933699,0.026309181,-0.0007929177,0.0
205526826,0.07504306,0.025828453,-0.0009054315,0.0
205546826,0.07041943,0.025418393,-0.0010596917,0.0
205566823,0.06570933,0.025070079,-0.0012460363,0.0
205586824,0.060993664,0.024379281,-0.001491562,0.0
205606826,0.05650683,0.023223113,-0.0017816328,0.0
205626818,0.052999407,0.021561526,-0.0020843027,0.0
205646826,0.050177734,0.019721584,-0.0024052032,0.0
205666825,0.047566906,0.0177703,-0.002767601,0.0
205686825,0.044812176,0.01632588,-0.0031527875,0.0
205706825,0.04193286,0.014477042,-0.0035593938,0.0
205726824,0.038410936,0.012537669,-0.004003174,0.0
205746824,0.034925155,0.010815646,-0.004440564,0.0
205766825,0.032641362,0.009291686,-0.0048782756,0.0
205786824,0.031290185,0.007879382,-0.0053506535,0.0
205806827,0.030348571,0.006765571,-0.0058367457,0.0
205826824,0.029262124,0.0059553655,-0.0063247643,0.0
205846825,0.028028475,0.0050252522,-0.006830873,0.0
205866825,0.027462123,0.004086931,-0.0073525696,0.0
205886826,0.027155764,0.0033781084,-0.007888752,0.0
205906825,0.026833916,0.0031386178,-0.008431788,0.0
205926824,0.026224671,0.002940452,-0.009012213,0.0
205946824,0.025267405,0.0027061154,-0.00962129,0.0
205966825,0.024086827,0.0025920887,-0.010223927,0.0
205986825,0.023240577,0.0023627176,-0.010808391,0.0
206006825,0.022247521,0.001922682,-0.011411389,0.0
206026828,0.021122778,0.0013148674,-0.012039039,0.0
206046825,0.020063838,0.0007251856,-0.012696815,0.0
206066824,0.018823033,0.00024211155,-0.013372847,0.0
206086826,0.01739119,-0.0005554432,-0.014091193,0.0
206103095,0.016094867,-0.001165962,-0.014689864,0.0
206126825,0.014409206,-0.0018425662,-0.015549328,0.0
206146828,0.013201188,-0.0019860838,-0.01625688,0.0
206166826,0.012362994,-0.0019482911,-0.016954027,0.0
206186825,0.011657054,-0.0020869493,-0.017644718,0.0
206206826,0.010984573,-0.0022566142,-0.018318668,0.0
206226825,0.009876339,-0.0023477487,-0.018973557,0.0
206246825,0.008874265,-0.0021601017,-0.01963041,0.0
206266824,0.008242781,-0.002070445,-0.020289367,0.0
206286825,0.0073451283,-0.0014089053,-0.020945873,0.0
206306827,0.0061666714,-0.0004416815,-0.021616928,0.0
206326824,0.0053856107,0.00023716521,-0.022287712,0.0
206346824,0.0052717687,0.00053866376,-0.022961902,0.0
206626824,0.004535311,-0.0051290914,-0.029675117,0.0
206646824,0.0044608694,-0.0055916724,-0.029854566,0.0
206666826,0.004400501,-0.0057738926,-0.030028287,0.0
206686825,0.0042060325,-0.005857698,-0.030190079,0.0
206706826,0.0038875313,-0.005977058,-0.030365558,0.0
206726824,0.0035987366,-0.0057848985,-0.03055159,0.0
206746826,0.0030117903,-0.00568197,-0.030716643,0.0
206766825,0.0025174748,-0.005574652,-0.030880244,0.0
206786825,0.0022231801,-0.0052589113,-0.031056304,0.0
206806827,0.0020370835,-0.005014001,-0.031228254,0.0
206826826,0.0020485355,-0.004503604,-0.031386897,0.0
206846825,0.0020373343,-0.0037996366,-0.031541243,0.0
206866824,0.0017370547,-0.0033727367,-0.031706482,0.0
206886826,0.0012420272,-0.003055427,-0.031880714,0.0
206906830,0.00065250945,-0.0025566765,-0.032039706,0.0
206926825,-0.00020561472,-0.0024874366,-0.03221539,0.0
206946826,-0.0009242163,-0.0026528612,-0.032410752,0.0
206966826,-0.0014268943,-0.0029747584,-0.032612044,0.0
206986824,-0.0021406352,-0.0034955763,-0.03282397,0.0
207006826,-0.0027823516,-0.004198266,-0.03305491,0.0
207026828,-0.0031927116,-0.0049228393,-0.033288207,0.0
207046824,-0.003471679,-0.0055889767,-0.03349226,0.0
207066828,-0.0034111566,-0.005973763,-0.033677492,0.0
207086825,-0.0031531432,-0.006410421,-0.03386594,0.0
207106825,-0.0029782627,-0.006691652,-0.03405815,0.0
207126831,-0.003026058,-0.0070965393,-0.03424379,0.0
207146827,-0.0029560796,-0.0075355973,-0.03441537,0.0
207166826,-0.002999249,-0.007870335,-0.03459096,0.0
207186825,-0.0031457294,-0.008221958,-0.034748614,0.0
207206826,-0.0031380309,-0.008154751,-0.03486331,0.0
207226826,-0.0029653274,-0.00798385,-0.034962602,0.0
207246825,-0.002778024,-0.007919396,-0.035049852,0.0
207266824,-0.002592362,-0.007887096,-0.035112537,0.0
207286824,-0.0023972215,-0.007895401,-0.035144135,0.0
207306826,-0.0022661905,-0.008049379,-0.035150085,0.0
207326825,-0.0018209935,-0.008276335,-0.03514803,0.0
207346824,-0.0012727372,-0.008467278,-0.035132304,0.0
207366824,-0.00074841187,-0.008949135,-0.035083175,0.0
207386826,-0.0001296742,-0.009409916,-0.035032447,0.0
207406824,0.0005372997,-0.009971493,-0.034966365,0.0
207426825,0.0013707905,-0.010428949,-0.03487441,0.0
207446826,0.0021648926,-0.010849488,-0.034749873,0.0
207466824,0.0031089818,-0.0112033,-0.034595415,0.0
207486825,0.0038460223,-0.011662937,-0.034422766,0.0
207506824,0.00473178,-0.012218682,-0.03422132,0.0
207526826,0.005482078,-0.012720438,-0.033975035,0.0
207546826,0.006304361,-0.013354217,-0.033720966,0.0
207566826,0.0070759114,-0.013939169,-0.03345847,0.0
207586825,0.008000873,-0.014203283,-0.033158507,0.0
207606825,0.00867955,-0.014213565,-0.032822046,0.0
207626824,0.009532214,-0.014019594,-0.03245838,0.0
207646825,0.010151072,-0.013765573,-0.032057315,0.0
207666827,0.010647368,-0.013609865,-0.031623077,0.0
207686824,0.0109735485,-0.0135405585,-0.031159423,0.0
207706825,0.011157822,-0.013606841,-0.030679293,0.0
207726825,0.011176157,-0.013751471,-0.03018547,0.0
207746826,0.0110594705,-0.0137278745,-0.029664477,0.0
207766824,0.010695159,-0.013784074,-0.029142631,0.0
207786825,0.010550644,-0.0138076935,-0.0286227,0.0
207806825,0.0103179915,-0.013858655,-0.028088078,0.0
207826824,0.010156741,-0.013547512,-0.027537419,0.0
207846825,0.010049197,-0.013235927,-0.026975514,0.0
207866825,0.009937965,-0.012920508,-0.026393322,0.0
207886826,0.010597034,-0.012425294,-0.025789468,0.0
207906824,0.011918725,-0.011789962,-0.02515817,0.0
207926825,0.013244036,-0.011091032,-0.024507858,0.0
207946824,0.013985954,-0.010767341,-0.023852607,0.0
207966826,0.013972948,-0.010594872,-0.023184167,0.0
207986825,0.013349752,-0.01066198,-0.022511698,0.0
208006824,0.012504959,-0.011109776,-0.021833913,0.0
208026826,0.011621404,-0.011560066,-0.02114482,0.0
208046824,0.010824668,-0.012047254,-0.020442905,0.0
208066825,0.010152243,-0.012533103,-0.019730667,0.0
208086825,0.009457152,-0.0129163,-0.019001046,0.0
208106824,0.009089971,-0.01301414,-0.018266141,0.0
208126823,0.008806525,-0.0131357955,-0.017520849,0.0
208146834,0.008497087,-0.0132639175,-0.016761431,0.0
208166826,0.0082276575,-0.013342059,-0.016005041,0.0
208186825,0.007991024,-0.013615476,-0.0152340885,0.0
208206826,0.007589616,-0.013923147,-0.014470239,0.0
208226824,0.007127825,-0.014265611,-0.013703814,0.0
208246825,0.0069289263,-0.01461762,-0.0129219415,0.0
208266825,0.006674803,-0.0146983955,-0.012135413,0.0
208286832,0.0063706734,-0.014759668,-0.011349804,0.0
208306825,0.006045005,-0.014728818,-0.010567727,0.0
208326824,0.0059901522,-0.014760056,-0.009856121,0.0
208346828,0.0055761104,-0.014819843,-0.009059793,0.0
208366824,0.0050845286,-0.014988636,-0.008267475,0.0
208386825,0.0044730124,-0.015452278,-0.0075016534,0.0
208406824,0.003405224,-0.01586614,-0.006737917,0.0
208426831,0.0023023703,-0.016245648,-0.0059927832,0.0
208446828,0.001259187,-0.016905542,-0.0052737263,0.0
208466824,0.00030571193,-0.017591171,-0.004560282,0.0
208486825,-0.0004952819,-0.018116102,-0.003843076,0.0
208506825,-0.0011221659,-0.01839283,-0.0031447583,0.0
208526826,-0.001526008,-0.01891296,-0.0024640083,0.0
208546825,-0.0019553837,-0.019338349,-0.0017872354,0.0
208566830,-0.0020726307,-0.019758444,-0.0011240941,0.0
208586825,-0.0025040691,-0.019563597,-0.00047955842,0.0
208606825,-0.0030390394,-0.01953206,0.00013941065,0.0
208626824,-0.0035058004,-0.01927382,0.0007464302,0.0
208646826,-0.003794736,-0.019205311,0.0013509871,0.0
208666825,-0.0039198245,-0.019203179,0.0019540328,0.0
208686824,-0.0036419558,-0.019307077,0.0025662328,0.0
208706832,-0.0033676405,-0.018928252,0.003199806,0.0
208726824,-0.0027595304,-0.018947218,0.0038413068,0.0
208746828,-0.00223466,-0.018803956,0.0044853585,0.0
208766825,-0.0019264702,-0.018688453,0.00511606,0.0
208786824,-0.0015208576,-0.018939387,0.0057362914,0.0
208806825,-0.0013958574,-0.018829565,0.006339721,0.0
208826824,-0.0011464192,-0.019100701,0.006932406,0.0
208846834,-0.000918021,-0.018931882,0.0075156647,0.0
208866825,-0.00050049816,-0.018547159,0.0081002,0.0
208886826,-0.00015509027,-0.018030737,0.008670618,0.0
208906825,9.6984375e-05,-0.017527647,0.009226225,0.0
208926824,0.0004568198,-0.0174677,0.009757464,0.0
208946830,0.0006534151,-0.017324606,0.010264794,0.0
208966825,0.0008079789,-0.01720788,0.010744463,0.0
208986833,0.001132775,-0.017286792,0.011196277,0.0
209006825,0.0014905002,-0.017213749,0.011631692,0.0
209026826,0.0017229189,-0.017221266,0.012066815,0.0
209046825,0.0023173597,-0.01729103,0.012485829,0.0
209066827,0.00276143,-0.017164117,0.012889971,0.0
209086825,0.003270956,-0.016908634,0.013282075,0.0
209106825,0.0036869617,-0.016293831,0.013648932,0.0
209126831,0.0042682867,-0.015932553,0.013989302,0.0
209146828,0.004695237,-0.015578582,0.0142897265,0.0
209166826,0.005005254,-0.0150906565,0.014567694,0.0
209186825,0.005297642,-0.0150225805,0.014815874,0.0
209206825,0.0054991245,-0.014735115,0.015026931,0.0
209226824,0.0055979006,-0.014426518,0.015218204,0.0
209246826,0.005834264,-0.014402839,0.015393312,0.0
209266825,0.005916275,-0.0144843515,0.015526678,0.0
209286824,0.0060218824,-0.014799997,0.015612907,0.0
209306825,0.0058278493,-0.015483929,0.01564376,0.0
209326825,0.00541109,-0.01630155,0.01563756,0.0
209346827,0.0052213715,-0.01705476,0.01557579,0.0
209366824,0.005137736,-0.01831339,0.015474369,0.0
209386827,0.005220228,-0.019316446,0.015352499,0.0
209406824,0.005573528,-0.02032486,0.015212213,0.0
209426824,0.00582449,-0.021362636,0.015034511,0.0
209446826,0.0062115127,-0.022482209,0.014820183,0.0
209466825,0.006383815,-0.023946473,0.014570464,0.0
209486824,0.0066051167,-0.024816116,0.014287706,0.0
209506826,0.0070523727,-0.026149793,0.013962749,0.0
209526825,0.0075842952,-0.027195564,0.013602023,0.0
209546825,0.008163215,-0.027767578,0.013223869,0.0
209566825,0.00892797,-0.02788803,0.012814767,0.0
209586825,0.009475103,-0.028036745,0.012381004,0.0
209606824,0.009772104,-0.028308017,0.011919497,0.0
209626824,0.009940192,-0.028404156,0.011420742,0.0
209646826,0.009981962,-0.028286839,0.010886111,0.0
209666826,0.009694539,-0.027547609,0.010305924,0.0
209686825,0.009347946,-0.027167635,0.009688429,0.0
209706824,0.009118212,-0.02626794,0.009050728,0.0
209726824,0.009203004,-0.025387608,0.008406982,0.0
209746827,0.009124571,-0.024437968,0.0077525754,0.0
209766825,0.009186013,-0.023564663,0.007097815,0.0
209786824,0.009359399,-0.022730228,0.0064414963,0.0
209806825,0.009669673,-0.022114528,0.005784207,0.0
209826825,0.010119491,-0.02182368,0.005123103,0.0
209846826,0.010549707,-0.021734312,0.0044540134,0.0
209866826,0.010974703,-0.021486802,0.0038039892,0.0
209886825,0.0115953935,-0.021536322,0.0031815942,0.0
209906824,0.012322204,-0.021368125,0.0025650328,0.0
209926825,0.012874015,-0.021225419,0.0019644059,0.0
209946825,0.013129003,-0.021481019,0.0013707357,0.0
209966828,0.013347405,-0.021941721,0.00077572383,0.0
209986824,0.013533596,-0.022383561,0.00017545045,0.0
210006831,0.013458102,-0.02309828,-0.00042703457,0.0
210026825,0.013597084,-0.023592753,-0.0010055822,0.0
210046825,0.013808741,-0.0240386,-0.0015706456,0.0
210066825,0.014046116,-0.02459706,-0.002111653,0.0
210086829,0.013988458,-0.025159437,-0.0026319658,0.0
210106825,0.01382256,-0.02571844,-0.003140191,0.0
210126825,0.013542918,-0.026357565,-0.0036411788,0.0
210145579,0.013263307,-0.027037557,-0.0041012797,0.0
210166825,0.012750456,-0.027769385,-0.004621591,0.0
210186825,0.011985724,-0.028422672,-0.005099942,0.0
210206824,0.011378082,-0.028830038,-0.0055537345,0.0
210226828,0.011221633,-0.02913515,-0.0059788753,0.0
210246825,0.011172553,-0.029349877,-0.0063779247,0.0
210266827,0.011400314,-0.029296497,-0.0067701153,0.0
210286824,0.011483511,-0.02935464,-0.007147872,0.0
210306825,0.0113234725,-0.02956178,-0.007503228,0.0
210326825,0.011078041,-0.029688658,-0.007851872,0.0
210346831,0.011201649,-0.029577272,-0.008195019,0.0
210366825,0.011515307,-0.02949278,-0.008523021,0.0
210386826,0.012077675,-0.029280525,-0.008842583,0.0
210406824,0.012619092,-0.02894752,-0.009149151,0.0
210426825,0.012793764,-0.028682167,-0.009447643,0.0
210446827,0.012819526,-0.028109567,-0.009753764,0.0
210466824,0.012593701,-0.027695775,-0.010061809,0.0
210486827,0.012099623,-0.027292976,-0.010372772,0.0
210506825,0.011977076,-0.027047802,-0.010280364,0.0
210526825,0.011839598,-0.027004713,-0.010266771,0.0
210546828,0.011453859,-0.026931588,-0.01031389,0.0
210566825,0.010655127,-0.02666025,-0.010380643,0.0
210586824,0.009434743,-0.026651764,-0.010450894,0.0
210606825,0.008214383,-0.027106743,-0.010537598,0.0
210626825,0.0067379368,-0.02783142,-0.01064701,0.0
210646825,0.005136207,-0.028617296,-0.010777363,0.0
210666825,0.0035901575,-0.029399425,-0.010911773,0.0
210686824,0.0019512231,-0.030246073,-0.011068497,0.0
210706824,0.00020295163,-0.030870695,-0.0112416055,0.0
210726825,-0.0014843061,-0.0312278,-0.011395953,0.0
210746826,-0.0028656777,-0.031364772,-0.011552032,0.0
210766824,-0.0038488437,-0.031485785,-0.011715234,0.0
210786825,-0.0047703953,-0.031895008,-0.011901837,0.0
210806825,-0.005592726,-0.032052625,-0.012100355,0.0
210826824,-0.0065669743,-0.032341212,-0.012312891,0.0
210846826,-0.0076040737,-0.033134405,-0.012536578,0.0
210866825,-0.0086412765,-0.03409486,-0.012768292,0.0
210886825,-0.009387581,-0.0350214,-0.012979227,0.0
210906825,-0.009759246,-0.035941117,-0.013182852,0.0
210926824,-0.009622656,-0.03669211,-0.013378208,0.0
210946825,-0.009075051,-0.03670327,-0.01355314,0.0
210966825,-0.008394355,-0.036829278,-0.013715092,0.0
210986824,-0.0076191644,-0.03705488,-0.013877954,0.0
211146826,-0.0025959066,-0.041781932,-0.014998072,0.0
211246828,-0.003334824,-0.041428562,-0.0153370425,0.0
211266824,-0.0033922426,-0.04119067,-0.015395321,0.0
211286824,-0.0032825847,-0.041032977,-0.015447288,0.0
211306826,-0.0026878878,-0.040529903,-0.015488289,0.0
211326823,-0.0020781634,-0.040241912,-0.015521445,0.0
211346828,-0.0015764743,-0.04008967,-0.015556648,0.0
211366825,-0.0010704615,-0.03987584,-0.015603122,0.0
211386829,-0.00074371276,-0.039825648,-0.015645318,0.0
211406825,-0.0009217217,-0.040215775,-0.01569546,0.0
211426825,-0.0013631223,-0.04074173,-0.015757317,0.0
211446825,-0.0021104836,-0.04120934,-0.015805477,0.0
211466825,-0.0031722188,-0.041837864,-0.015824446,0.0
211486828,-0.004179787,-0.042591456,-0.015826168,0.0
211506825,-0.005213928,-0.043227013,-0.015803145,0.0
211526824,-0.005883723,-0.0436324,-0.015758347,0.0
211546827,-0.0064816307,-0.043840073,-0.015694257,0.0
211566825,-0.0069493824,-0.043947347,-0.015621889,0.0
211586824,-0.007394827,-0.043989394,-0.015556335,0.0
211606826,-0.0078464635,-0.044119768,-0.015476978,0.0
211626825,-0.0080566,-0.044620704,-0.015384458,0.0
211646827,-0.008157618,-0.045251783,-0.0153017575,0.0
211666824,-0.008056983,-0.04593284,-0.015211649,0.0
211686825,-0.008096007,-0.04628492,-0.015098729,0.0
211706825,-0.008288255,-0.046846643,-0.014965582,0.0
211726824,-0.008583452,-0.047508307,-0.01481936,0.0
211746829,-0.008913486,-0.048143633,-0.014659089,0.0
211766823,-0.009155721,-0.048504982,-0.014489925,0.0
211786824,-0.009200189,-0.049152203,-0.014311846,0.0
211806825,-0.009327021,-0.0493732,-0.014142005,0.0
211826824,-0.009402353,-0.049734157,-0.013983036,0.0
211846825,-0.009335898,-0.04981836,-0.013809396,0.0
211866826,-0.009069128,-0.049657024,-0.013640354,0.0
211886825,-0.008804962,-0.049560882,-0.0134812975,0.0
211906825,-0.0085121235,-0.049140755,-0.013321253,0.0
211926826,-0.008452388,-0.048546452,-0.013155955,0.0
211946824,-0.008380224,-0.04817806,-0.012977892,0.0
211966825,-0.008425307,-0.048131987,-0.0127922855,0.0
211986825,-0.008281667,-0.048077136,-0.012615746,0.0
212006827,-0.008242193,-0.04791937,-0.012449155,0.0
212026826,-0.008469311,-0.047568936,-0.012284204,0.0
212046824,-0.008394325,-0.047159143,-0.012125482,0.0
212066826,-0.008319508,-0.047011673,-0.011973174,0.0
212086824,-0.008221492,-0.04702494,-0.011820435,0.0
212106830,-0.008036498,-0.047208432,-0.011662717,0.0
212126824,-0.007958189,-0.047394935,-0.011508845,0.0
212146827,-0.008141571,-0.04759118,-0.011363996,0.0
212166825,-0.008405036,-0.047558308,-0.011222656,0.0
212186826,-0.008428298,-0.047315426,-0.011067558,0.0
212206827,-0.008794677,-0.047258444,-0.010913628,0.0
212226825,-0.009331272,-0.04729337,-0.010784761,0.0
212246826,-0.00982906,-0.04764539,-0.01066781,0.0
212266824,-0.010442129,-0.04833086,-0.010534549,0.0
212286826,-0.0107507445,-0.04896277,-0.010407934,0.0
212306828,-0.0108670555,-0.049173463,-0.010289835,0.0
212326825,-0.010904733,-0.04907514,-0.010173974,0.0
212346826,-0.0110982,-0.049062997,-0.010050169,0.0
212366824,-0.011539023,-0.04910143,-0.009936077,0.0
212386825,-0.011703922,-0.04901849,-0.009860288,0.0
212406828,-0.012097936,-0.049105678,-0.009814011,0.0
212426825,-0.0130126225,-0.049352404,-0.009760532,0.0
212446827,-0.013970918,-0.049302466,-0.009721047,0.0
212466825,-0.0146452915,-0.049748886,-0.009705933,0.0
212486824,-0.015447648,-0.050587144,-0.009675861,0.0
212506828,-0.01589565,-0.05106657,-0.009635341,0.0
212526826,-0.016061567,-0.05153799,-0.009609692,0.0
212546825,-0.016612113,-0.05196729,-0.009592532,0.0
212566825,-0.017223943,-0.05297939,-0.009589882,0.0
212586825,-0.017963642,-0.053186413,-0.009587212,0.0
212606828,-0.01853938,-0.053433307,-0.009597793,0.0
212626824,-0.018973337,-0.05315283,-0.009615221,0.0
212646825,-0.019696312,-0.053451765,-0.009636418,0.0
212666824,-0.020387817,-0.054155298,-0.009644673,0.0
212686825,-0.020863995,-0.055272046,-0.009639799,0.0
212706827,-0.02140952,-0.056683637,-0.00961374,0.0
212726824,-0.022113593,-0.05807461,-0.009593022,0.0
212746826,-0.022977455,-0.059752423,-0.009594239,0.0
212766824,-0.023786575,-0.061230298,-0.009590397,0.0
212786824,-0.024319042,-0.06284396,-0.009563109,0.0
212806828,-0.024853256,-0.06382485,-0.00952022,0.0
212826823,-0.025174754,-0.06473426,-0.009459108,0.0
212846825,-0.02588422,-0.06583482,-0.0093776025,0.0
212986825,-0.028912686,-0.06840903,-0.008790212,0.0
213006830,-0.028925966,-0.06822627,-0.008737334,0.0
213026824,-0.029308517,-0.068163075,-0.008715269,0.0
213046824,-0.02985818,-0.06811278,-0.008710554,0.0
213066826,-0.030187506,-0.06817741,-0.008704679,0.0
213086824,-0.0302985,-0.06765025,-0.008698213,0.0
213126825,-0.030304201,-0.06741799,-0.008692818,0.0
213146827,-0.030130442,-0.067380816,-0.008712204,0.0
213166825,-0.0299322,-0.066753335,-0.008737041,0.0
213186824,-0.029884942,-0.06670822,-0.008763094,0.0
213206828,-0.029831905,-0.066564314,-0.008814649,0.0
213226824,-0.029907104,-0.06644569,-0.008890753,0.0
213246826,-0.030134276,-0.06634378,-0.008970807,0.0
213266824,-0.030218998,-0.06634171,-0.009075206,0.0
213286823,-0.030318739,-0.065899864,-0.009193808,0.0
213306828,-0.03047733,-0.06547007,-0.00931851,0.0
213326824,-0.030221263,-0.06510833,-0.009439888,0.0
213346825,-0.029892467,-0.06466763,-0.009571298,0.0
213366825,-0.029890394,-0.06415492,-0.009720131,0.0
213386825,-0.029601213,-0.06356147,-0.009878909,0.0
213406827,-0.029592015,-0.06289961,-0.010036858,0.0
213426824,-0.029490223,-0.06264442,-0.010211432,0.0
213446825,-0.029277304,-0.06198114,-0.010390428,0.0
213466825,-0.029220881,-0.06134825,-0.01054846,0.0
213486826,-0.028853675,-0.060588848,-0.010692621,0.0
213506828,-0.028422674,-0.059374496,-0.010839391,0.0
213526824,-0.028049296,-0.058496,-0.010992463,0.0
213546825,-0.027636893,-0.057781547,-0.011153585,0.0
213566825,-0.027309537,-0.05702125,-0.011317039,0.0
213586824,-0.02693043,-0.05600755,-0.011481105,0.0
213606828,-0.02668116,-0.05478606,-0.01164353,0.0
213626824,-0.02647023,-0.053886104,-0.0117998095,0.0
213646826,-0.026061619,-0.05301056,-0.011963655,0.0
213666825,-0.025862064,-0.052078873,-0.012131502,0.0
213686825,-0.025651531,-0.051474378,-0.012298208,0.0
213706827,-0.025446037,-0.051159054,-0.012490902,0.0
213726825,-0.0252817,-0.050672352,-0.012699999,0.0
213746827,-0.025163257,-0.050378054,-0.01290047,0.0
213766824,-0.025111012,-0.049736407,-0.013102438,0.0
213786825,-0.025059763,-0.04917769,-0.013305739,0.0
213806827,-0.025049279,-0.048732843,-0.013511476,0.0
213826824,-0.025103372,-0.04796811,-0.013710737,0.0
213846826,-0.025167637,-0.047519445,-0.013909227,0.0
213866826,-0.025456412,-0.04719826,-0.014130038,0.0
213886826,-0.02581495,-0.04650961,-0.0143614495,0.0
213906827,-0.026161503,-0.045985144,-0.014578292,0.0
213926825,-0.026454289,-0.04533703,-0.014795703,0.0
213946826,-0.026480623,-0.044600084,-0.015006889,0.0
213966825,-0.026632052,-0.044073,-0.015209138,0.0
213986825,-0.026828751,-0.04339048,-0.015410586,0.0
214006826,-0.027137788,-0.042642076,-0.015625354,0.0
214026825,-0.027527915,-0.042078834,-0.015830765,0.0
214046826,-0.027885402,-0.04167781,-0.016048312,0.0
214066827,-0.02823555,-0.04141198,-0.016284298,0.0
214086829,-0.028649263,-0.041054707,-0.01651399,0.0
214106829,-0.02894535,-0.040399194,-0.016722849,0.0
214126824,-0.029087197,-0.039917238,-0.016929088,0.0
214146826,-0.029031942,-0.039453037,-0.017131584,0.0
214166825,-0.029236285,-0.039070915,-0.017332656,0.0
214186824,-0.029458048,-0.038944222,-0.017542247,0.0
214206831,-0.0296742,-0.038548894,-0.017755382,0.0
214226825,-0.02978468,-0.038422268,-0.017956976,0.0
214246826,-0.029673874,-0.03837994,-0.018172678,0.0
214266825,-0.029636715,-0.03818375,-0.018393617,0.0
214286826,-0.029553507,-0.037872687,-0.018602686,0.0
214306826,-0.029459324,-0.037209608,-0.018796256,0.0
214326827,-0.02924918,-0.036803212,-0.018998705,0.0
214346825,-0.028931057,-0.036450006,-0.019206805,0.0
214366825,-0.028933179,-0.036081217,-0.019422775,0.0
214386825,-0.029110705,-0.035722483,-0.019634975,0.0
214406827,-0.029002193,-0.035284292,-0.019838272,0.0
214426831,-0.028691571,-0.03497813,-0.020035334,0.0
214446828,-0.028323682,-0.034387235,-0.020214684,0.0
214466825,-0.028201725,-0.034098163,-0.020385066,0.0
214486825,-0.027758075,-0.033670876,-0.020544335,0.0
214506827,-0.027402619,-0.03320785,-0.020700006,0.0
214526824,-0.027407177,-0.033061128,-0.020866208,0.0
214546825,-0.027419358,-0.033050828,-0.021050153,0.0
214566825,-0.027577043,-0.033184327,-0.02125148,0.0
214586825,-0.027794456,-0.033340175,-0.021462651,0.0
214606829,-0.028248947,-0.033340104,-0.0216629,0.0
214626825,-0.028637437,-0.03304378,-0.021857444,0.0
214646824,-0.028643979,-0.032595977,-0.022042315,0.0
214666824,-0.028979557,-0.032111097,-0.022218453,0.0
214686824,-0.029277008,-0.03127922,-0.02238648,0.0
214726824,-0.029820474,-0.029838031,-0.022739438,0.0
214746826,-0.03026845,-0.029400984,-0.022937689,0.0
214766825,-0.030969739,-0.028979935,-0.02313544,0.0
214786824,-0.031516045,-0.02841595,-0.023326032,0.0
214806824,-0.031980302,-0.027869653,-0.023493351,0.0
214826825,-0.03223945,-0.02724242,-0.023658268,0.0
214846827,-0.032803223,-0.027052054,-0.023818268,0.0
214866824,-0.033695053,-0.027466435,-0.0239778,0.0
214886825,-0.034448534,-0.027449109,-0.024119956,0.0
214906825,-0.035421357,-0.0277492,-0.024264386,0.0
214926825,-0.036408763,-0.02842973,-0.024410693,0.0
214946826,-0.03686467,-0.02888933,-0.024547251,0.0
214966826,-0.037431546,-0.029171953,-0.024665428,0.0
214986826,-0.037641894,-0.029013136,-0.024753187,0.0
215006824,-0.03747842,-0.028964087,-0.024821011,0.0
215026826,-0.037214085,-0.028872197,-0.024876177,0.0
215046826,-0.036960308,-0.028971994,-0.024914594,0.0
215066825,-0.036678694,-0.029134352,-0.024930336,0.0
215086824,-0.03645074,-0.029271698,-0.024937969,0.0
215106827,-0.03616655,-0.030028662,-0.024955338,0.0
215126824,-0.036113888,-0.030898914,-0.024965964,0.0
215146824,-0.03590321,-0.03189165,-0.024954684,0.0
215166824,-0.035502635,-0.033078972,-0.02489567,0.0
215186832,-0.035100814,-0.034621,-0.024807967,0.0
215206825,-0.03412178,-0.036139697,-0.024717793,0.0
215226825,-0.033106968,-0.03754596,-0.024611609,0.0
215246828,-0.032194015,-0.03902718,-0.024503382,0.0
215266824,-0.031035906,-0.040448695,-0.024410551,0.0
215286825,-0.029773075,-0.042370487,-0.024331536,0.0
215306825,-0.02904361,-0.043850716,-0.024267182,0.0
215326831,-0.028871123,-0.04558405,-0.024232853,0.0
215346825,-0.028762516,-0.047572184,-0.024221858,0.0
215366825,-0.029231614,-0.049098507,-0.024248337,0.0
215386826,-0.030136557,-0.05075414,-0.024315888,0.0
215406825,-0.031240726,-0.05202781,-0.024426373,0.0
215426825,-0.03247338,-0.052847803,-0.024564557,0.0
215446825,-0.0335566,-0.053310156,-0.024708055,0.0
215466833,-0.03436098,-0.053334158,-0.024829106,0.0
215486826,-0.034946017,-0.053580076,-0.024946041,0.0
215506824,-0.035342015,-0.053641453,-0.02506409,0.0
215526825,-0.035800792,-0.05363221,-0.025171455,0.0
215546828,-0.035872605,-0.053512692,-0.02529083,0.0
215566825,-0.036516756,-0.05322243,-0.025432143,0.0
215586825,-0.037255734,-0.05287191,-0.025578925,0.0
215606833,-0.037670493,-0.05299334,-0.025740365,0.0
215626824,-0.037589554,-0.051982105,-0.025906282,0.0
215646826,-0.037404053,-0.05099824,-0.026071796,0.0
215666824,-0.037650228,-0.050594572,-0.02623568,0.0
215686824,-0.038690522,-0.050686713,-0.026390601,0.0
215706824,-0.039887957,-0.05109813,-0.026490938,0.0
215726826,-0.040313706,-0.051162448,-0.02654646,0.0
215746833,-0.040321097,-0.051511623,-0.026536034,0.0
215766825,-0.039742764,-0.05110232,-0.026435968,0.0
215786824,-0.03852896,-0.050621636,-0.026260827,0.0
215806824,-0.03700845,-0.051564924,-0.026047232,0.0
215826825,-0.035223585,-0.05290179,-0.025809173,0.0
215846826,-0.03343493,-0.055004198,-0.025554923,0.0
215866825,-0.031948734,-0.05641971,-0.025278851,0.0
215886832,-0.030513067,-0.058494553,-0.025000578,0.0
215906825,-0.028727215,-0.059955396,-0.024708182,0.0
215926824,-0.02702071,-0.060593273,-0.02440101,0.0
215946826,-0.025202448,-0.060988873,-0.024095034,0.0
215966826,-0.023199359,-0.06058261,-0.023801416,0.0
215986824,-0.021510137,-0.060109213,-0.023523165,0.0
216006827,-0.020486834,-0.059049092,-0.023263311,0.0
216026830,-0.02011723,-0.057980172,-0.023028718,0.0
216046824,-0.020279275,-0.056928333,-0.022813786,0.0
216066827,-0.020987747,-0.05555597,-0.022602253,0.0
216086824,-0.021649987,-0.054255266,-0.022407198,0.0
216106825,-0.022489367,-0.05326338,-0.022238096,0.0
216126825,-0.023533186,-0.05307952,-0.022117529,0.0
216146827,-0.024662433,-0.053171422,-0.02204092,0.0
216166831,-0.02591299,-0.05382859,-0.021969788,0.0
216186826,-0.02745665,-0.054459546,-0.021890994,0.0
216206824,-0.028934244,-0.054882597,-0.021821253,0.0
216226824,-0.030011868,-0.05539543,-0.021748958,0.0
216246826,-0.030880803,-0.055245087,-0.021665437,0.0
216266825,-0.03146138,-0.05459029,-0.021590905,0.0
216286825,-0.0312551,-0.054047354,-0.02150672,0.0
216306834,-0.030693943,-0.05324103,-0.021407695,0.0
216326825,-0.030056415,-0.052362435,-0.02131783,0.0
216346830,-0.029163871,-0.051840816,-0.021234423,0.0
216366825,-0.028463518,-0.051628932,-0.021145914,0.0
216386825,-0.028111644,-0.051339917,-0.021074068,0.0
216406826,-0.02761926,-0.051337585,-0.021005604,0.0
216426825,-0.02733666,-0.051156245,-0.020930367,0.0
216446834,-0.026817564,-0.051261775,-0.020864539,0.0
216466826,-0.025823336,-0.05138464,-0.02079851,0.0
216486824,-0.024883889,-0.051610455,-0.020740185,0.0
216506825,-0.023955727,-0.052087903,-0.020673865,0.0
216526824,-0.022929426,-0.05237655,-0.020609906,0.0
216546826,-0.022000212,-0.05256465,-0.020544335,0.0
216566825,-0.021057859,-0.052886926,-0.020475136,0.0
216586824,-0.020024193,-0.05279496,-0.020400576,0.0
216606828,-0.019138014,-0.052200697,-0.020319216,0.0
216626824,-0.018257039,-0.051677216,-0.02024899,0.0
216646824,-0.017569764,-0.050947826,-0.020211322,0.0
216666825,-0.017108308,-0.050439205,-0.02019819,0.0
216686825,-0.016955687,-0.049544714,-0.020176705,0.0
216706824,-0.016766312,-0.048764527,-0.020167496,0.0
216726824,-0.016776672,-0.048392273,-0.020169012,0.0
216746826,-0.016719237,-0.0482262,-0.020153826,0.0
216766824,-0.016700262,-0.048398994,-0.020132998,0.0
216786825,-0.016471585,-0.049285937,-0.020125175,0.0
216806827,-0.01627387,-0.04969674,-0.020119151,0.0
216826824,-0.01608282,-0.05026908,-0.020109994,0.0
216846825,-0.015863143,-0.050759032,-0.020102711,0.0
216866825,-0.015766714,-0.051611736,-0.02008738,0.0
216886824,-0.015818661,-0.05288747,-0.020060554,0.0
216906827,-0.016011475,-0.054309398,-0.020024383,0.0
216926824,-0.016398748,-0.055908427,-0.01997977,0.0
216946825,-0.016795475,-0.05728832,-0.01993248,0.0
216966825,-0.016753495,-0.058480218,-0.019883195,0.0
216986825,-0.016791064,-0.059830997,-0.019837415,0.0
217006826,-0.017119493,-0.061564982,-0.019801045,0.0
217026825,-0.017263008,-0.06259441,-0.019773237,0.0
217046826,-0.017539205,-0.06344644,-0.01975381,0.0
217066824,-0.01788997,-0.06469705,-0.019737717,0.0
217086824,-0.01801201,-0.065657,-0.019731252,0.0
217106828,-0.018273741,-0.066589385,-0.019734625,0.0
217126824,-0.018779453,-0.06741853,-0.01973944,0.0
217146826,-0.018837266,-0.067872085,-0.019726286,0.0
217166825,-0.018817749,-0.06838912,-0.019721512,0.0
217186824,-0.018764816,-0.06881938,-0.019751508,0.0
217206826,-0.018567564,-0.068753496,-0.019791065,0.0
217226825,-0.018312475,-0.06858317,-0.019840036,0.0
217244330,-0.018403996,-0.06871344,-0.019884476,0.0
217266825,-0.018373845,-0.068584435,-0.019960942,0.0
217286827,-0.01861163,-0.06865265,-0.020037998,0.0
217306826,-0.01886898,-0.06878666,-0.020126801,0.0
217326825,-0.018925583,-0.06900243,-0.020206077,0.0
217346825,-0.018910496,-0.06941064,-0.020281555,0.0
217366827,-0.01894933,-0.06961643,-0.020354234,0.0
217386825,-0.018582648,-0.06974244,-0.020408185,0.0
217406825,-0.018474495,-0.06960766,-0.020461587,0.0
217426825,-0.018219022,-0.0698254,-0.020520547,0.0
217446826,-0.017876597,-0.07026594,-0.020574814,0.0
217466830,-0.017469466,-0.07043952,-0.02062208,0.0
217486824,-0.017159116,-0.07191237,-0.020673102,0.0
217506827,-0.016878122,-0.073643744,-0.020736733,0.0
217526824,-0.016737927,-0.07524728,-0.020803375,0.0
217546825,-0.016769974,-0.07687158,-0.020867588,0.0
217566825,-0.01663833,-0.077674374,-0.020941969,0.0
217586824,-0.016204933,-0.07850286,-0.02102275,0.0
217606830,-0.01606908,-0.07932366,-0.021113021,0.0
217626825,-0.016006142,-0.080242276,-0.021194916,0.0
217646828,-0.015781855,-0.08062411,-0.021279119,0.0
217666824,-0.015577698,-0.0805903,-0.021372657,0.0
217686825,-0.015369144,-0.0809599,-0.021457106,0.0
217706829,-0.015279544,-0.0807914,-0.02154959,0.0
217726825,-0.014994096,-0.081027634,-0.021660404,0.0
217746828,-0.014781469,-0.08139652,-0.02175684,0.0
217766824,-0.014860509,-0.08126323,-0.021852769,0.0
217786826,-0.01494946,-0.080164224,-0.021950807,0.0
217806828,-0.015124607,-0.07971693,-0.022066696,0.0
217826826,-0.01483592,-0.0791291,-0.022177845,0.0
217846825,-0.014631197,-0.078742586,-0.02230237,0.0
217866825,-0.014173104,-0.07767183,-0.022412805,0.0
217886827,-0.014303307,-0.0772282,-0.02253091,0.0
217906827,-0.014719565,-0.07716576,-0.022664959,0.0
217926824,-0.015445474,-0.076796226,-0.022821158,0.0
217946825,-0.016761644,-0.07556156,-0.02297002,0.0
217966824,-0.017968295,-0.07373337,-0.023127368,0.0
217986825,-0.019676995,-0.07196827,-0.02328467,0.0
218006828,-0.021031866,-0.06996754,-0.02344286,0.0
218026825,-0.02235876,-0.06766277,-0.023580879,0.0
218046824,-0.023497863,-0.065195255,-0.023697173,0.0
218066826,-0.024092788,-0.061953794,-0.02378471,0.0
218086825,-0.024162056,-0.05882154,-0.023870291,0.0
218106829,-0.024139581,-0.05563578,-0.023948662,0.0
218126824,-0.024012838,-0.05296937,-0.024025472,0.0
218146829,-0.024301816,-0.05091102,-0.024087122,0.0
218166825,-0.024395848,-0.049054466,-0.024132961,0.0
218186824,-0.024626417,-0.04776125,-0.02414657,0.0
218206829,-0.02428042,-0.04661407,-0.024152799,0.0
218226825,-0.0239915,-0.045903824,-0.024163507,0.0
218246827,-0.023158405,-0.045307256,-0.024165558,0.0
218266824,-0.022475012,-0.045026682,-0.024164353,0.0
218286825,-0.021568928,-0.045443512,-0.024156256,0.0
218306828,-0.021138273,-0.045810685,-0.024141392,0.0
218326825,-0.020478819,-0.04641434,-0.024138436,0.0
218346827,-0.020016868,-0.046948113,-0.02415367,0.0
218366825,-0.019867774,-0.047787223,-0.024171598,0.0
218386824,-0.01999713,-0.048511773,-0.024183873,0.0
218406829,-0.020182429,-0.04914944,-0.02419483,0.0
218426824,-0.020576779,-0.049842373,-0.024201617,0.0
218446827,-0.020832391,-0.04982703,-0.024191912,0.0
218466826,-0.02075068,-0.050474204,-0.024188245,0.0
218486824,-0.020545121,-0.050622076,-0.02416915,0.0
218506828,-0.020042099,-0.05122351,-0.024139805,0.0
218526826,-0.019197553,-0.051577546,-0.024126817,0.0
218546825,-0.018504178,-0.05143173,-0.024122955,0.0
218566825,-0.018316234,-0.052204255,-0.02410339,0.0
218586825,-0.01804673,-0.05285589,-0.024065446,0.0
218606828,-0.017652603,-0.053408917,-0.024010815,0.0
218626826,-0.017086808,-0.053684022,-0.023958607,0.0
218646825,-0.01678254,-0.054894876,-0.023913525,0.0
218666825,-0.016939128,-0.05650153,-0.023870092,0.0
218686825,-0.017033115,-0.05804941,-0.023835912,0.0
218706829,-0.01755456,-0.0600218,-0.02380799,0.0
218726825,-0.018266654,-0.062224746,-0.023773119,0.0
218746827,-0.018920418,-0.06448887,-0.023735432,0.0
218766828,-0.019480484,-0.06720886,-0.023700008,0.0
218786825,-0.020083569,-0.06951668,-0.023659604,0.0
218806827,-0.020603905,-0.071863264,-0.023601232,0.0
218826826,-0.021060424,-0.07388011,-0.023519611,0.0
218846826,-0.021255005,-0.07576869,-0.023415806,0.0
218866825,-0.02154426,-0.07786106,-0.023290817,0.0
218886829,-0.021361303,-0.07910399,-0.023142466,0.0
218906828,-0.02105565,-0.08043643,-0.022975419,0.0
218926826,-0.02065977,-0.08140418,-0.022794658,0.0
218946827,-0.020703213,-0.08229039,-0.022603765,0.0
218966829,-0.020852746,-0.08260753,-0.022409396,0.0
218986828,-0.020929955,-0.08300309,-0.022208102,0.0
219006828,-0.02122736,-0.08305166,-0.021973928,0.0
219026824,-0.021125538,-0.08299168,-0.021724395,0.0
219046825,-0.020905195,-0.08242135,-0.021464802,0.0
219066826,-0.0201718,-0.08157388,-0.021197764,0.0
219086825,-0.019144516,-0.08102924,-0.020923832,0.0
219106827,-0.018078623,-0.08027756,-0.020650936,0.0
219126825,-0.016885899,-0.07983719,-0.020417675,0.0
219146829,-0.01645151,-0.079283535,-0.020215673,0.0
219166825,-0.01599147,-0.07896795,-0.020019324,0.0
219186826,-0.015909843,-0.079206176,-0.019848883,0.0
219206828,-0.015562745,-0.079270236,-0.019709801,0.0
219226824,-0.015376017,-0.0796284,-0.019581912,0.0
219246825,-0.015245993,-0.079743825,-0.019441973,0.0
219266825,-0.015189255,-0.08039268,-0.01932159,0.0
219287052,-0.015211799,-0.0805687,-0.019209517,0.0
219306829,-0.015343454,-0.080821425,-0.019083051,0.0
219326826,-0.0151164,-0.08125061,-0.018959679,0.0
219346827,-0.015162726,-0.08144414,-0.018839618,0.0
219366824,-0.015364012,-0.081749916,-0.018716512,0.0
219386825,-0.015931671,-0.081378184,-0.018600496,0.0
219406827,-0.016877055,-0.081608236,-0.01850125,0.0
219426825,-0.01737056,-0.08193177,-0.01838667,0.0
219446828,-0.017786238,-0.08183072,-0.018300781,0.0
219466827,-0.018162586,-0.08219901,-0.018256914,0.0
219486825,-0.018333556,-0.0818992,-0.018232867,0.0
219506829,-0.01890633,-0.08165609,-0.018217772,0.0
219526824,-0.019446403,-0.08111459,-0.018212324,0.0
219546825,-0.01976251,-0.081551105,-0.01822516,0.0
219566826,-0.019878486,-0.08134821,-0.0182281,0.0
219586824,-0.019903086,-0.08120036,-0.018231299,0.0
219606829,-0.020322159,-0.08080369,-0.018240575,0.0
219626825,-0.020664876,-0.081234604,-0.01824506,0.0
219646825,-0.020946195,-0.08158771,-0.018237786,0.0
219666825,-0.021146985,-0.08225104,-0.018231606,0.0
219686826,-0.021588104,-0.08262701,-0.018214082,0.0
219706828,-0.02208286,-0.08289177,-0.018213557,0.0
219726825,-0.022667862,-0.083443925,-0.018225841,0.0
219746827,-0.023199838,-0.083194606,-0.018232908,0.0
219766825,-0.023903102,-0.084073275,-0.01821628,0.0
219786825,-0.024362866,-0.08501726,-0.018177843,0.0
219806829,-0.024432648,-0.08516327,-0.01813763,0.0
219826825,-0.024427049,-0.08573344,-0.01808886,0.0
219846825,-0.02435504,-0.08566858,-0.018010212,0.0
219866825,-0.024350988,-0.08537774,-0.017919544,0.0
219886823,-0.024452174,-0.084452495,-0.017841008,0.0
219906828,-0.024126321,-0.08321012,-0.017765483,0.0
219926825,-0.023686556,-0.081639305,-0.017670684,0.0
219946825,-0.022907339,-0.08008376,-0.01759413,0.0
219966825,-0.021699559,-0.079218134,-0.017543595,0.0
219986825,-0.020878877,-0.07836614,-0.017507186,0.0
220006828,-0.020098774,-0.07730965,-0.01748779,0.0
220026825,-0.019100122,-0.07672879,-0.017507043,0.0
220046824,-0.018193506,-0.07551943,-0.017549902,0.0
220066825,-0.017768929,-0.074877955,-0.017611636,0.0
220086824,-0.017684942,-0.07499723,-0.0177001,0.0
220106826,-0.017407805,-0.074856706,-0.017782299,0.0
220126824,-0.017057689,-0.07463146,-0.017859258,0.0
220146828,-0.016971827,-0.07428626,-0.01794723,0.0
220166826,-0.017059602,-0.07389756,-0.018050252,0.0
220186826,-0.017389111,-0.07369404,-0.018149069,0.0
220206825,-0.017642446,-0.0738754,-0.018246446,0.0
220226825,-0.018043417,-0.074811175,-0.018343182,0.0
220246824,-0.01864272,-0.07543613,-0.018437589,0.0
220266826,-0.01958852,-0.07584571,-0.018524997,0.0
220286825,-0.020461664,-0.07675028,-0.018603431,0.0
220306824,-0.021241356,-0.07732099,-0.018671516,0.0
220326825,-0.022072842,-0.07803658,-0.018711597,0.0
220346828,-0.023007208,-0.077956125,-0.01870188,0.0
220366824,-0.023755567,-0.07851131,-0.018658888,0.0
220386825,-0.023890786,-0.07892483,-0.018603569,0.0
220406828,-0.024006953,-0.078890644,-0.018534858,0.0
220426824,-0.024357427,-0.07926325,-0.0184408,0.0
220446825,-0.02449993,-0.07931216,-0.018342886,0.0
220466826,-0.02450637,-0.079199016,-0.018248655,0.0
220626825,-0.024366284,-0.081272654,-0.017322944,0.0
220646825,-0.024584828,-0.08143734,-0.017180054,0.0
220666825,-0.024719672,-0.08131699,-0.017014515,0.0
220686825,-0.024676692,-0.08122372,-0.016838469,0.0
220706824,-0.024215793,-0.08132928,-0.016651433,0.0
220726824,-0.023919942,-0.08168029,-0.016496046,0.0
220926825,-0.025108378,-0.08434009,-0.015509341,0.0
220986825,-0.022947429,-0.08472617,-0.015326061,0.0
221006825,-0.02181427,-0.084799826,-0.015343621,0.0
221026825,-0.021194175,-0.084507704,-0.015385502,0.0
221046825,-0.021212136,-0.08481221,-0.015453321,0.0
221066825,-0.02137113,-0.08456981,-0.015531764,0.0
221086825,-0.02211293,-0.084158994,-0.015617124,0.0
221106826,-0.02247645,-0.08325036,-0.015714955,0.0
221126824,-0.022751851,-0.082004845,-0.015824009,0.0
221146827,-0.02259519,-0.08103607,-0.015945645,0.0
221166824,-0.02261419,-0.08007935,-0.0161011,0.0
221186825,-0.02226575,-0.07855146,-0.016276563,0.0
221206825,-0.02199631,-0.07728841,-0.016473584,0.0
221226825,-0.021992976,-0.07643946,-0.016709344,0.0
221246831,-0.02186588,-0.07616547,-0.016965166,0.0
221266825,-0.02210014,-0.07585363,-0.017248806,0.0
221286824,-0.022306727,-0.075605124,-0.0175497,0.0
221307102,-0.022820676,-0.075691685,-0.017867006,0.0
221326826,-0.023520902,-0.07539952,-0.018172551,0.0
221346824,-0.024083454,-0.07541585,-0.018488165,0.0
221366824,-0.02501984,-0.075411044,-0.018803773,0.0
221386824,-0.025866669,-0.075576484,-0.019089269,0.0
221406824,-0.025910158,-0.075953566,-0.019351097,0.0
221426823,-0.025612595,-0.07607254,-0.01958141,0.0
221446826,-0.025031999,-0.07613733,-0.019798888,0.0
221466825,-0.02441276,-0.075657584,-0.020012224,0.0
221486824,-0.023752876,-0.07501946,-0.020214103,0.0
221506825,-0.023152199,-0.07463935,-0.020403782,0.0
221526824,-0.022872724,-0.0745224,-0.020607816,0.0
221546825,-0.022543056,-0.074186325,-0.020808825,0.0
221566824,-0.022552196,-0.07414273,-0.020994967,0.0
221586824,-0.022665616,-0.07410566,-0.0211749,0.0
221606825,-0.023109302,-0.07431765,-0.021339094,0.0
221626824,-0.023318939,-0.074539736,-0.021502282,0.0
221646825,-0.02337199,-0.07442999,-0.021662984,0.0
221666826,-0.023781622,-0.074626535,-0.021825038,0.0
221686824,-0.023891475,-0.07460764,-0.021995457,0.0
221706825,-0.023615617,-0.07441873,-0.022183541,0.0
221726824,-0.023136249,-0.07409397,-0.022370271,0.0
221746824,-0.022958394,-0.07417427,-0.022576967,0.0
221766825,-0.022688426,-0.07431318,-0.02281168,0.0
221786826,-0.022145648,-0.07457502,-0.023058072,0.0
221806824,-0.021871837,-0.07432103,-0.023302926,0.0
221826826,-0.021645512,-0.074092984,-0.023563888,0.0
221846825,-0.021476883,-0.07379514,-0.023856645,0.0
221866824,-0.021280933,-0.073611595,-0.024174651,0.0
221886825,-0.02135544,-0.07374354,-0.024514623,0.0
221906824,-0.021701155,-0.07441487,-0.024858415,0.0
221926826,-0.022287019,-0.07452472,-0.025224563,0.0
221946825,-0.023398805,-0.074581034,-0.025612364,0.0
221966827,-0.024734756,-0.07444484,-0.025985142,0.0
221986825,-0.026534272,-0.0746484,-0.026360516,0.0
222006830,-0.028307807,-0.07434765,-0.026736706,0.0
222026827,-0.030045884,-0.07470813,-0.027104719,0.0
222046826,-0.03185284,-0.07464176,-0.027454954,0.0
222066827,-0.033458423,-0.074840136,-0.02779579,0.0
222086825,-0.03444945,-0.074563906,-0.028124511,0.0
222106825,-0.035361845,-0.07386814,-0.028446795,0.0
222126825,-0.03628757,-0.07315449,-0.028753784,0.0
222146826,-0.03683569,-0.072210945,-0.029037692,0.0
222166825,-0.03699628,-0.070770524,-0.029313134,0.0
222186826,-0.03714909,-0.06944074,-0.029586656,0.0
222206824,-0.03701832,-0.06819731,-0.029844869,0.0
222226826,-0.036108434,-0.066930026,-0.030096764,0.0
222246825,-0.03538444,-0.06580776,-0.030335903,0.0
222266825,-0.034680326,-0.06445667,-0.03056515,0.0
222286825,-0.033872962,-0.06340454,-0.03078606,0.0
222306825,-0.032880004,-0.061819423,-0.030988459,0.0
222326826,-0.032232307,-0.06022559,-0.031172372,0.0
222346827,-0.03180589,-0.058928147,-0.03133795,0.0
222366825,-0.03136881,-0.057760842,-0.03149529,0.0
222386824,-0.030694768,-0.056496564,-0.03162093,0.0
222406824,-0.030112479,-0.05537506,-0.03172394,0.0
222426826,-0.02967979,-0.05451222,-0.03181604,0.0
222446825,-0.029059848,-0.05378491,-0.031891312,0.0
222466825,-0.028684737,-0.05327574,-0.031952266,0.0
222486825,-0.028367987,-0.052879725,-0.031981234,0.0
222506825,-0.028235877,-0.052496567,-0.031980615,0.0
222526823,-0.027844867,-0.052332968,-0.031974368,0.0
222566824,-0.027527768,-0.05141603,-0.031888027,0.0
222586825,-0.027255874,-0.051061567,-0.03181049,0.0
222606825,-0.026940944,-0.050580364,-0.03172859,0.0
222626825,-0.02661789,-0.05035685,-0.031634487,0.0
222646822,-0.026400808,-0.049997713,-0.03153033,0.0
222666824,-0.02634356,-0.049855914,-0.031429958,0.0
222686826,-0.026461845,-0.049880978,-0.031333674,0.0
222706824,-0.026599828,-0.049677156,-0.031229014,0.0
222726825,-0.027040858,-0.04961871,-0.031121671,0.0
222746824,-0.027630351,-0.049712196,-0.03100893,0.0
222766826,-0.027835164,-0.04967025,-0.030890718,0.0
222786825,-0.02789748,-0.049518216,-0.030767633,0.0
222806824,-0.02784182,-0.049310185,-0.030635564,0.0
222826826,-0.027309828,-0.049258675,-0.03050984,0.0
222846826,-0.026667658,-0.049132723,-0.030397775,0.0
222866824,-0.025905592,-0.04893321,-0.030285789,0.0
222886825,-0.024935381,-0.048805986,-0.030162223,0.0
222906824,-0.023800112,-0.04850311,-0.030062178,0.0
222926833,-0.022221943,-0.04811166,-0.029974889,0.0
222946825,-0.020389002,-0.047436062,-0.029880421,0.0
222966827,-0.018576669,-0.046674006,-0.029785533,0.0
222986825,-0.016620394,-0.046282217,-0.02969575,0.0
223006825,-0.014815263,-0.04582959,-0.029605709,0.0
223026824,-0.013038362,-0.04540348,-0.029514475,0.0
223046827,-0.011631326,-0.04507116,-0.02942569,0.0
223066832,-0.0105047515,-0.045116644,-0.02934061,0.0
223086825,-0.009706897,-0.04496052,-0.029266313,0.0
223106825,-0.0089981295,-0.04459974,-0.029192401,0.0
223126825,-0.008515312,-0.044461515,-0.029121973,0.0
223146833,-0.008137,-0.044392202,-0.029063802,0.0
223166825,-0.007514662,-0.04442923,-0.029010808,0.0
223186825,-0.0067424322,-0.044424906,-0.028955638,0.0
223206832,-0.0059494786,-0.044732615,-0.028896311,0.0
223226826,-0.005326952,-0.044617224,-0.028841179,0.0
223246819,-0.0045959847,-0.044301856,-0.028800461,0.0
223266825,-0.0037881108,-0.043561663,-0.028774591,0.0
223286826,-0.0031136042,-0.042732496,-0.02876824,0.0
223306824,-0.0023674467,-0.041674744,-0.028790766,0.0
223326825,-0.0015280382,-0.04055133,-0.02883749,0.0
223346832,-0.000778384,-0.039645225,-0.028905362,0.0
223366824,-7.581412e-05,-0.038913358,-0.029009474,0.0
223386825,0.00044986545,-0.03830018,-0.029152509,0.0
223406825,0.0010169231,-0.037656315,-0.029342657,0.0
223426824,0.0014283495,-0.03696209,-0.029570607,0.0
223446830,0.0016160018,-0.036419317,-0.029829072,0.0
223466826,0.0019879644,-0.03580156,-0.03012594,0.0
223486833,0.0021464506,-0.035170738,-0.030457934,0.0
223506824,0.0019727293,-0.034646947,-0.030799571,0.0
223526825,0.0017906538,-0.034412414,-0.03116916,0.0
223546825,0.0018849742,-0.034034725,-0.03156501,0.0
223566825,0.0018653566,-0.033691667,-0.03197921,0.0
223586824,0.001682814,-0.03324056,-0.032407567,0.0
223606824,0.0012957159,-0.032926388,-0.032862846,0.0
223626833,0.0005728489,-0.033096958,-0.03333694,0.0
223646827,-0.00016338531,-0.033670504,-0.03382344,0.0
223666824,-0.00081947685,-0.03440811,-0.034314755,0.0
223686825,-0.001601967,-0.035511687,-0.03479838,0.0
223706824,-0.002778137,-0.036762677,-0.035271693,0.0
223726825,-0.0040622014,-0.038305882,-0.035734672,0.0
223746825,-0.005415135,-0.03973018,-0.03617465,0.0
223766832,-0.0065222643,-0.04100285,-0.036568843,0.0
223786824,-0.0076516513,-0.04202017,-0.036934994,0.0
223806825,-0.0087063955,-0.0428014,-0.03726829,0.0
223826826,-0.009684478,-0.0428648,-0.037552025,0.0
223846825,-0.010638276,-0.043055303,-0.037783783,0.0
223866826,-0.011246503,-0.042975478,-0.037981156,0.0
223886825,-0.011619449,-0.042851716,-0.038149383,0.0
223906832,-0.011757122,-0.042496756,-0.038288992,0.0
223926825,-0.011712682,-0.04222103,-0.03839866,0.0
223946818,-0.011878704,-0.042081866,-0.03847645,0.0
223966826,-0.011856056,-0.042095356,-0.038538698,0.0
223986824,-0.01198134,-0.04208247,-0.03859683,0.0
224006825,-0.012238268,-0.04232756,-0.038634904,0.0
224026825,-0.012616256,-0.04265684,-0.03865794,0.0
224046826,-0.012724223,-0.043205354,-0.038662195,0.0
224066825,-0.013146975,-0.043674324,-0.038646694,0.0
224086823,-0.013285417,-0.044482436,-0.03860001,0.0
224106824,-0.013124111,-0.045249946,-0.03853561,0.0
224126824,-0.013011849,-0.046091072,-0.03844941,0.0
224146827,-0.0129739195,-0.046857186,-0.038360152,0.0
224166824,-0.012712149,-0.046928074,-0.038284868,0.0
224186832,-0.0122557925,-0.046707958,-0.038207863,0.0
224206824,-0.012204608,-0.04587856,-0.038138203,0.0
224226825,-0.0125259785,-0.04514442,-0.038080975,0.0
224246829,-0.013076484,-0.04398703,-0.03803025,0.0
224266824,-0.013828664,-0.042782083,-0.037966557,0.0
224286825,-0.014866215,-0.04188795,-0.037876606,0.0
224306824,-0.015610082,-0.04100263,-0.03776692,0.0
224326834,-0.016378801,-0.04041,-0.037645057,0.0
224346825,-0.017288502,-0.0399797,-0.037497226,0.0
224366824,-0.01791166,-0.039606407,-0.03731166,0.0
224386825,-0.018441567,-0.039584976,-0.037103105,0.0
224406825,-0.018784935,-0.039875958,-0.036881052,0.0
224426824,-0.018715788,-0.04020952,-0.036649253,0.0
224446831,-0.018731194,-0.04037539,-0.03639662,0.0
224466824,-0.018823508,-0.040736437,-0.036122542,0.0
224486825,-0.018515939,-0.04118743,-0.035844076,0.0
224506825,-0.01824003,-0.04152612,-0.03555325,0.0
224526825,-0.017879725,-0.04200627,-0.035241608,0.0
224546827,-0.01737191,-0.04259679,-0.034911253,0.0
224566825,-0.01691651,-0.04323027,-0.03456736,0.0
224586826,-0.016467683,-0.043816086,-0.03422317,0.0
224606824,-0.015766526,-0.04441451,-0.03385976,0.0
224626824,-0.015130833,-0.044942796,-0.03347196,0.0
224646822,-0.014409264,-0.045701154,-0.033088505,0.0
224666825,-0.013528659,-0.046261244,-0.032707192,0.0
224686825,-0.012707623,-0.046608258,-0.03231315,0.0
224706825,-0.011905925,-0.046863504,-0.03190877,0.0
224726825,-0.010872546,-0.0471306,-0.031508625,0.0
224746825,-0.0100545855,-0.047357537,-0.031126061,0.0
224766824,-0.009314661,-0.047482908,-0.03073953,0.0
224786824,-0.008751157,-0.047419153,-0.030348416,0.0
224806829,-0.008300402,-0.047335356,-0.029952731,0.0
224826826,-0.007920608,-0.047341894,-0.029566137,0.0
224846826,-0.0076447367,-0.047201432,-0.029185466,0.0
224866824,-0.007474937,-0.046959363,-0.028796664,0.0
224886825,-0.0073768958,-0.046812218,-0.028417462,0.0
224906824,-0.007436331,-0.046668515,-0.028050985,0.0
224926825,-0.007395228,-0.046479348,-0.02769232,0.0
224946825,-0.007417167,-0.0463038,-0.027344134,0.0
224966827,-0.007405932,-0.046128534,-0.027002556,0.0
224986825,-0.007396957,-0.045846723,-0.026689297,0.0
225006825,-0.0073393113,-0.045892198,-0.026405068,0.0
225026824,-0.007438778,-0.045715507,-0.02613362,0.0
225046827,-0.0075671966,-0.04559181,-0.02589016,0.0
225066826,-0.007708503,-0.04564846,-0.025675662,0.0
225086825,-0.007923092,-0.045527298,-0.02547491,0.0
225106825,-0.008082383,-0.045168385,-0.025293836,0.0
225126824,-0.007986992,-0.04487677,-0.025129395,0.0
225146828,-0.007964888,-0.044232775,-0.025003145,0.0
225166827,-0.007985996,-0.043481294,-0.02491147,0.0
225186826,-0.008194212,-0.04268444,-0.024838986,0.0
225206824,-0.008561854,-0.041862987,-0.024798064,0.0
225226825,-0.008829093,-0.04120614,-0.024785757,0.0
225246829,-0.00919366,-0.04052514,-0.02478532,0.0
225266824,-0.009472276,-0.040287934,-0.02479981,0.0
225286825,-0.010048789,-0.040071532,-0.024840582,0.0
225306824,-0.010621045,-0.039909564,-0.024891896,0.0
225326824,-0.011383785,-0.039871283,-0.024946108,0.0
225346819,-0.012416187,-0.039874196,-0.025019275,0.0
225366825,-0.013498482,-0.03998946,-0.025104757,0.0
225386824,-0.01468878,-0.03991365,-0.025183607,0.0
225406825,-0.016130272,-0.039913867,-0.025266897,0.0
225426828,-0.017456293,-0.03999527,-0.025354644,0.0
225446826,-0.018810568,-0.039550904,-0.025439443,0.0
225466824,-0.019958261,-0.039201673,-0.02551382,0.0
225586825,-0.021400766,-0.037800636,-0.025723891,0.0
225606825,-0.02066312,-0.03794281,-0.02568711,0.0
225626824,-0.019515622,-0.038045865,-0.025627384,0.0
225646828,-0.017632566,-0.03783327,-0.025541559,0.0
225666826,-0.015429047,-0.037134703,-0.025450673,0.0
225686825,-0.013246754,-0.03612462,-0.025359653,0.0
225706825,-0.01114208,-0.0353092,-0.025268838,0.0
225726825,-0.009168916,-0.034480743,-0.025174007,0.0
225746828,-0.0070855683,-0.033737537,-0.02506976,0.0
225766825,-0.0052667274,-0.033156537,-0.024965595,0.0
225786825,-0.003219866,-0.03281433,-0.024848655,0.0
225806824,-0.0011491921,-0.032437965,-0.024712455,0.0
225826826,0.0008002711,-0.032529403,-0.024562914,0.0
225846826,0.0025264085,-0.032517284,-0.02441822,0.0
225866825,0.003926518,-0.032388754,-0.02427288,0.0
225886825,0.005038769,-0.03224866,-0.024109058,0.0
225906825,0.006211939,-0.032466378,-0.02396341,0.0
225926825,0.007543646,-0.032910407,-0.023854617,0.0
225946825,0.0090708975,-0.033053346,-0.023770133,0.0
225966824,0.010367819,-0.03324834,-0.023707982,0.0
225986825,0.011529768,-0.032959394,-0.023674484,0.0
226006824,0.013682688,-0.029944865,-0.022695962,0.0
226026824,0.014539753,-0.031822927,-0.022749463,0.0
226046826,0.0152512295,-0.037381433,-0.022801487,0.0
226066825,0.01587345,-0.04362446,-0.022879982,0.0
226086825,0.016285714,-0.048573542,-0.022990536,0.0
226106824,0.016310368,-0.05155809,-0.023116095,0.0
226126824,0.015722819,-0.053047612,-0.023244327,0.0
226146826,0.014969956,-0.053534586,-0.023394035,0.0
226166825,0.01410632,-0.05295442,-0.023552336,0.0
226186825,0.01347793,-0.052098338,-0.023709297,0.0
