timestamp,timestamp_sample,gps_hvel[0],gps_hvel[1],gps_vvel,gps_hpos[0],gps_hpos[1],gps_vpos,ev_hvel[0],ev_hvel[1],ev_vvel,ev_hpos[0],ev_hpos[1],ev_vpos,rng_vpos,baro_vpos,aux_hvel[0],aux_hvel[1],flow[0],flow[1],terr_flow[0],terr_flow[1],heading,mag_field[0],mag_field[1],mag_field[2],gravity[0],gravity[1],gravity[2],drag[0],drag[1],airspeed,beta,hagl,hagl_rate
200516315,200325671,0.013576109,-0.040602542,0.0039233193,0.01206246,0.05102974,-0.16764021,0.0,0.0,0.0,0.0,0.0,0.0,0.0,0.14791656,0.0,0.0,0.0,0.0,0.0,0.0,0.0004029274,-0.00055893615,-0.00413201,0.0004029274,0.009151659,0.0043326057,-1.23381615e-05,0.0,0.0,0.0,0.0,0.0,0.0
201016202,200825671,-0.0092191845,-0.04426329,-0.0012838244,-0.0012875125,0.05043423,-0.1587596,0.0,0.0,0.0,0.0,0.0,0.0,0.0,0.2653234,0.0,0.0,0.0,0.0,0.0,0.0,0.0008030236,-0.00073947146,-0.0042126626,0.0008030236,0.010861128,0.0022516623,-0.0001282692,0.0,0.0,0.0,0.0,0.0,0.0
201516287,201325671,0.04864564,-0.01699033,0.0056052916,0.016953463,0.047158837,-0.16474795,0.0,0.0,0.0,0.0,0.0,0.0,0.0,0.005557537,0.0,0.0,0.0,0.0,0.0,0.0,0.00095909834,-0.0013208601,-0.0033126697,0.00095909834,0.0052671395,-0.008790258,-0.00047665834,0.0,0.0,0.0,0.0,0.0,0.0
202016239,201825671,-0.06939017,0.045143615,0.062828794,-0.00042572245,0.052434564,-0.11229992,0.0,0.0,0.0,0.0,0.0,0.0,0.0,0.26697183,0.0,0.0,0.0,0.0,0.0,0.0,0.0014095008,-0.0003264625,-0.0039469525,0.0014095008,-0.000715822,-0.0012278184,-3.8981438e-05,0.0,0.0,0.0,0.0,0.0,0.0
202516241,202325671,0.06582703,-0.017304644,0.03873519,0.020706158,0.035546362,-0.120144844,0.0,0.0,0.0,0.0,0.0,0.0,0.0,0.16729784,0.0,0.0,0.0,0.0,0.0,0.0,0.00022518635,-0.001928959,-0.0028491542,0.00022518635,0.003829604,0.006570991,0.00017619133,0.0,0.0,0.0,0.0,0.0,0.0
203015994,202825671,0.00031120516,0.09406016,-0.024960905,0.009251298,0.04377079,-0.14573622,0.0,0.0,0.0,0.0,0.0,0.0,0.0,0.23193812,0.0,0.0,0.0,0.0,0.0,0.0,0.00073587894,-0.0016026326,-0.003356889,0.00073587894,0.0071928734,0.0028882325,-2.169609e-05,0.0,0.0,0.0,0.0,0.0,0.0
203515980,203325671,0.047481287,-0.023115477,0.011599115,0.021672841,0.025459409,-0.13004684,0.0,0.0,0.0,0.0,0.0,0.0,0.0,0.14077759,0.0,0.0,0.0,0.0,0.0,0.0,-2.4735928e-06,-0.0021045522,-0.0031779483,-2.4735928e-06,0.0069491854,-0.0011528991,-0.00017476082,0.0,0.0,0.0,0.0,0.0,0.0
204015979,203825671,0.017867422,-0.016957952,-0.056189716,0.020801164,0.01609397,-0.15215063,0.0,0.0,0.0,0.0,0.0,0.0,0.0,0.06161952,0.0,0.0,0.0,0.0,0.0,0.0,0.0011324286,-0.0012732793,-0.0027367324,0.0011324286,-0.008843066,0.031737477,0.00085133314,0.0,0.0,0.0,0.0,0.0,0.0
204515966,204325675,-0.006465895,0.059057645,-0.042028353,0.015803158,0.018350482,-0.13648415,0.0,0.0,0.0,0.0,0.0,0.0,0.0,0.3038714,0.0,0.0,0.0,0.0,0.0,0.0,0.0022900105,-0.0019269406,-0.0032929108,0.0022900105,-0.013418302,-0.011022501,-0.00039166212,0.0,0.0,0.0,0.0,0.0,0.0
205015965,204825671,-0.009539599,0.010187358,-0.01150975,0.00056159217,0.015326619,-0.13355088,0.0,0.0,0.0,0.0,0.0,0.0,0.0,0.45081115,0.0,0.0,0.0,0.0,0.0,0.0,0.0047287047,-0.00075408875,-0.00446596,0.0047287047,0.028720802,0.0072894692,-0.0005554557,0.0,0.0,0.0,0.0,0.0,0.0
205515984,205325671,0.05311439,-0.0031825528,0.02639523,0.012570263,0.016762495,-0.09382248,0.0,0.0,0.0,0.0,0.0,0.0,0.0,0.23611069,0.0,0.0,0.0,0.0,0.0,0.0,0.01142773,-0.0008338295,-0.006587863,0.01142773,-0.008126654,-0.07622989,-0.0054401755,0.0,0.0,0.0,0.0,0.0,0.0
206015983,205825671,-0.031613678,-0.055352874,-0.086618565,-0.027070621,0.017193556,-0.036715984,0.0,0.0,0.0,0.0,0.0,0.0,0.0,0.23556066,0.0,0.0,0.0,0.0,0.0,0.0,0.014755428,-0.0022695486,-0.0032601357,0.014755428,0.031946264,0.07388498,-0.003504455,0.0,0.0,0.0,0.0,0.0,0.0
207015966,206825671,0.07961967,0.076648675,-0.20869833,-0.00079509616,0.020880818,0.041018486,0.0,0.0,0.0,0.0,0.0,0.0,0.0,0.39547896,0.0,0.0,0.0,0.0,0.0,0.0,0.015797526,-0.0009746286,-0.0032386035,0.015797526,0.14234878,0.010645801,-0.013264775,0.0,0.0,0.0,0.0,0.0,0.0
207515981,207325685,0.02066376,-0.061409153,-0.12664813,-0.010211453,0.008652568,0.09064889,0.0,0.0,0.0,0.0,0.0,0.0,0.0,0.2487104,0.0,0.0,0.0,0.0,0.0,0.0,0.015178502,-0.0016143923,-0.0028071404,0.015178502,0.14653867,0.019472854,-0.011999309,0.0,0.0,0.0,0.0,0.0,0.0
208016015,207825671,-0.043924183,0.052222498,-0.105774105,-0.0010241643,0.016286612,0.11984539,0.0,0.0,0.0,0.0,0.0,0.0,0.0,0.3091836,0.0,0.0,0.0,0.0,0.0,0.0,0.0138989985,-0.0011117829,-0.0042861253,0.0138989985,-0.05155759,0.0040173423,-0.00063085556,0.0,0.0,0.0,0.0,0.0,0.0
208515966,208325671,0.04335521,-0.0754043,-0.09336245,-0.0045546163,0.003216982,0.15859127,0.0,0.0,0.0,0.0,0.0,0.0,0.0,0.20906448,0.0,0.0,0.0,0.0,0.0,0.0,0.006102383,0.0003982322,-0.00033402443,0.006102383,-0.08330086,-0.0042972397,-0.0016722083,0.0,0.0,0.0,0.0,0.0,0.0
209015976,208825671,0.10833436,0.039773658,-0.05786717,0.014175782,0.019045591,0.20119333,0.0,0.0,0.0,0.0,0.0,0.0,0.0,0.39229965,0.0,0.0,0.0,0.0,0.0,0.0,0.0012650788,-1.1750526e-06,-0.0010007694,0.0012650788,-0.05676956,0.0047186203,0.0036785007,0.0,0.0,0.0,0.0,0.0,0.0
209515978,209325671,0.09621751,-0.020161211,-0.0392704,0.03073749,0.035420537,0.2124939,0.0,0.0,0.0,0.0,0.0,0.0,0.0,0.07775211,0.0,0.0,0.0,0.0,0.0,0.0,0.00096324086,-0.00055982254,-0.00042130798,0.00096324086,-0.10995978,-0.03410078,0.007786393,0.0,0.0,0.0,0.0,0.0,0.0
210015983,209825671,-0.032411754,0.03708887,-0.045065165,0.030271918,0.06520367,0.22575712,0.0,0.0,0.0,0.0,0.0,0.0,0.0,0.30810976,0.0,0.0,0.0,0.0,0.0,0.0,0.0012264138,0.0012264138,0.00047160685,0.00087577105,-0.07454231,-0.007100434,0.011769891,0.0,0.0,0.0,0.0,0.0,0.0
210515965,210325671,-0.038682163,-0.039611816,-0.0990082,0.041745245,0.078877926,0.18926477,0.0,0.0,0.0,0.0,0.0,0.0,0.0,0.47014427,0.0,0.0,0.0,0.0,0.0,0.0,0.00058759935,0.00058759935,-0.0007863268,0.00030303,-0.10333799,-0.032505054,0.009421885,0.0,0.0,0.0,0.0,0.0,0.0
211515990,211325671,0.0081938505,0.04487014,-0.050632358,0.046923876,0.101667404,0.1751442,0.0,0.0,0.0,0.0,0.0,0.0,0.0,0.2746992,0.0,0.0,0.0,0.0,0.0,0.0,0.0016801655,0.0007474045,0.00028192997,0.0016801655,0.25495246,0.077661976,-0.05906725,0.0,0.0,0.0,0.0,0.0,0.0
212015986,211825671,-0.014525652,0.009008646,-0.0741719,0.037815332,0.08148384,0.18792248,0.0,0.0,0.0,0.0,0.0,0.0,0.0,0.13053703,0.0,0.0,0.0,0.0,0.0,0.0,0.0017457232,0.0016306485,0.0017457232,-0.0028799176,-0.08256856,-0.06675516,-0.0033923388,0.0,0.0,0.0,0.0,0.0,0.0
212515964,212325671,-0.0077352524,0.078749895,0.21888632,0.033624887,0.076734066,0.006362915,0.0,0.0,0.0,0.0,0.0,0.0,0.0,0.60663986,0.0,0.0,0.0,0.0,0.0,0.0,0.001790911,0.00065983133,0.001790911,-6.4492226e-05,0.12944424,0.021484833,-0.010926485,0.0,0.0,0.0,0.0,0.0,0.0
213015995,212825670,0.053764522,0.121527195,0.13376588,0.025146723,0.038599014,-0.028536797,0.0,0.0,0.0,0.0,0.0,0.0,0.0,0.48681927,0.0,0.0,0.0,0.0,0.0,0.0,0.003510058,-0.00015389873,0.0027570054,0.003510058,0.09286454,-0.24152526,-0.022248805,0.0,0.0,0.0,0.0,0.0,0.0
213515983,213325671,-0.11031762,0.12147176,0.07988328,-0.029635906,-0.0302248,-0.10499191,0.0,0.0,0.0,0.0,0.0,0.0,0.0,0.093188286,0.0,0.0,0.0,0.0,0.0,0.0,0.0038568676,0.0019826265,0.002774626,0.0038568676,0.2904718,-0.04481443,-0.009539306,0.0,0.0,0.0,0.0,0.0,0.0
214015979,213825671,-0.09545208,0.053643763,0.036871433,-0.041590214,-0.08001232,-0.11058617,0.0,0.0,0.0,0.0,0.0,0.0,0.0,-0.0,0.0,0.0,0.0,0.0,0.0,0.0,0.0024391413,0.0010808106,0.0023175478,0.0024391413,0.2949084,0.015521798,-0.021256804,0.0,0.0,0.0,0.0,0.0,0.0
214515964,214325671,0.2256764,-0.08720654,0.051873863,-0.0076413155,-0.12593174,-0.11622715,0.0,0.0,0.0,0.0,0.0,0.0,0.0,-0.0,0.0,0.0,0.0,0.0,0.0,0.0,0.0025014193,0.0025014193,0.0011652857,0.0020992458,0.0551481,0.021856012,0.0007132292,0.0,0.0,0.0,0.0,0.0,0.0
215015975,214825671,-0.0076172426,0.03302364,-0.104358435,-0.024943829,-0.1111145,-0.25504017,0.0,0.0,0.0,0.0,0.0,0.0,0.0,-0.0,0.0,0.0,0.0,0.0,0.0,0.0,0.0019382164,0.0015683253,0.0019382164,0.0010173023,0.017043006,-0.023207758,-0.0016098022,0.0,0.0,0.0,0.0,0.0,0.0
215515990,215325671,-0.17019708,-0.04021182,-0.12058848,-0.033792496,-0.11007023,-0.3003292,0.0,0.0,0.0,0.0,0.0,0.0,0.0,-0.0,0.0,0.0,0.0,0.0,0.0,0.0,0.0011017919,8.053891e-05,5.364418e-06,0.0011017919,0.12273254,0.033342313,-0.0079987645,0.0,0.0,0.0,0.0,0.0,0.0
216015979,215825671,-0.054448217,-0.02151309,-0.09506923,-0.018329144,-0.098739624,-0.32262325,0.0,0.0,0.0,0.0,0.0,0.0,0.0,-0.0,0.0,0.0,0.0,0.0,0.0,0.0,0.0007785489,0.0007785489,-0.0006304607,8.5532665e-06,0.12982324,-0.031039126,-0.019019067,0.0,0.0,0.0,0.0,0.0,0.0
216515961,216325671,-0.060633913,0.034544487,-0.091016054,-0.005428791,-0.07220459,-0.3312788,0.0,0.0,0.0,0.0,0.0,0.0,0.0,-0.5346174,0.0,0.0,0.0,0.0,0.0,0.0,0.0022293944,0.0022293944,-0.0015429035,-0.00063052773,0.15659535,-0.069679216,-0.04366225,0.0,0.0,0.0,0.0,0.0,0.0
217015962,216825671,0.056191638,-0.13898858,-0.08971107,0.05261898,-0.057146072,-0.41996098,0.0,0.0,0.0,0.0,0.0,0.0,0.0,-0.21744537,0.0,0.0,0.0,0.0,0.0,0.0,0.002045989,-0.0028306078,-0.00025125593,0.002045989,0.025818534,0.093813166,-0.0054768324,0.0,0.0,0.0,0.0,0.0,0.0
217515981,217325671,0.19270644,-0.02290076,-0.14147413,0.064079285,-0.05172634,-0.47552013,0.0,0.0,0.0,0.0,0.0,0.0,0.0,-0.10845089,0.0,0.0,0.0,0.0,0.0,0.0,0.0022131205,-7.417798e-05,0.0011963546,0.0022131205,-0.02988742,-0.080763325,-0.0048359632,0.0,0.0,0.0,0.0,0.0,0.0
218016016,217825671,0.044930078,-0.06057795,-0.05357361,0.048757076,-0.06521797,-0.37593937,0.0,0.0,0.0,0.0,0.0,0.0,0.0,-0.18618393,0.0,0.0,0.0,0.0,0.0,0.0,0.003431648,0.0029073209,-0.0016845018,0.003431648,0.0388494,0.066654116,-0.010241687,0.0,0.0,0.0,0.0,0.0,0.0
218515971,218325671,-0.014749467,-0.121194005,-0.07055363,0.095837116,0.013422966,-0.34577656,0.0,0.0,0.0,0.0,0.0,0.0,0.0,0.072945595,0.0,0.0,0.0,0.0,0.0,0.0,0.0014443696,-0.005657838,-0.0039031208,0.0014443696,0.07159081,0.11559747,-0.028981984,0.0,0.0,0.0,0.0,0.0,0.0
219015967,218825671,-0.04823357,0.26604354,-0.20050749,0.09133577,0.06498337,-0.38184166,0.0,0.0,0.0,0.0,0.0,0.0,0.0,0.6137161,0.0,0.0,0.0,0.0,0.0,0.0,0.0023139417,-0.0038619535,0.0023139417,0.0009306669,0.2387137,0.0014429018,-0.031986833,0.0,0.0,0.0,0.0,0.0,0.0
219515984,219325671,0.18709832,0.11173844,-0.15898189,0.12029219,0.014861107,-0.40272808,0.0,0.0,0.0,0.0,0.0,0.0,0.0,0.2071085,0.0,0.0,0.0,0.0,0.0,0.0,0.0010207072,-0.00019344874,0.0010207072,0.001003027,0.09265772,-0.013176955,-0.0121619105,0.0,0.0,0.0,0.0,0.0,0.0
220015988,219825671,0.047013253,-0.017303944,-0.104564846,0.11188078,-0.0040779114,-0.40188313,0.0,0.0,0.0,0.0,0.0,0.0,0.0,0.49044895,0.0,0.0,0.0,0.0,0.0,0.0,0.00037164986,-0.0008888878,0.00037164986,-1.013279e-05,0.0823834,0.2032909,-0.02897489,0.0,0.0,0.0,0.0,0.0,0.0
221015967,220825671,0.0066937506,0.040637493,-0.19579062,0.082799435,-0.02648449,-0.4861908,0.0,0.0,0.0,0.0,0.0,0.0,0.0,0.269145,0.0,0.0,0.0,0.0,0.0,0.0,0.0006626472,-0.00073307613,0.0006626472,9.173155e-05,-0.06370808,-0.12865235,-0.014467835,0.0,0.0,0.0,0.0,0.0,0.0
221515988,221325671,-0.031748727,0.07566702,-0.18146229,0.06763792,-0.051608086,-0.511611,0.0,0.0,0.0,0.0,0.0,0.0,0.0,0.05593586,0.0,0.0,0.0,0.0,0.0,0.0,0.0024697185,-0.0011442024,0.0014712587,0.0024697185,0.2046685,-0.06391093,-0.022913158,0.0,0.0,0.0,0.0,0.0,0.0
222015984,221825671,-0.05267237,0.02648732,-0.24350902,0.05578184,-0.07149029,-0.5426264,0.0,0.0,0.0,0.0,0.0,0.0,0.0,0.20166683,0.0,0.0,0.0,0.0,0.0,0.0,0.0013714656,-3.4787692e-05,0.0013714656,0.0012869537,0.22995406,0.07000079,-0.030035317,0.0,0.0,0.0,0.0,0.0,0.0
222515965,222325671,-0.05806873,0.044104442,-0.15284795,0.066233635,-0.059365273,-0.5006132,0.0,0.0,0.0,0.0,0.0,0.0,0.0,0.06679058,0.0,0.0,0.0,0.0,0.0,0.0,0.00040611625,0.00014566537,-0.0003938079,0.00040611625,-0.14870092,0.012130622,0.0018921494,0.0,0.0,0.0,0.0,0.0,0.0
223015999,222825671,-0.13209838,0.013776071,-0.17245948,0.06534529,-0.040162086,-0.49877167,0.0,0.0,0.0,0.0,0.0,0.0,0.0,0.26599693,0.0,0.0,0.0,0.0,0.0,0.0,0.0010619685,-0.00013140775,0.0010619685,0.00057023764,-0.13479334,0.07279376,-0.0043759346,0.0,0.0,0.0,0.0,0.0,0.0
223515984,223325671,-0.00531438,-0.03496761,-0.19592297,0.103915215,-0.0349741,-0.4755535,0.0,0.0,0.0,0.0,0.0,0.0,0.0,-0.08049488,0.0,0.0,0.0,0.0,0.0,0.0,0.0009307326,0.0009307326,-4.798174e-05,0.0001488626,-0.033886414,0.06931773,-0.0010640025,0.0,0.0,0.0,0.0,0.0,0.0
224015981,223825671,0.07004923,-0.06018166,-0.21586713,0.10345745,-0.03699684,-0.45753193,0.0,0.0,0.0,0.0,0.0,0.0,0.0,-0.085092545,0.0,0.0,0.0,0.0,0.0,0.0,0.001727283,0.0004774034,0.001727283,0.0013992786,0.039565213,-0.01408303,-0.00025880337,0.0,0.0,0.0,0.0,0.0,0.0
224516001,224325671,-0.028700836,0.0829847,-0.09110895,0.08726215,-0.028101921,-0.42185974,0.0,0.0,0.0,0.0,0.0,0.0,0.0,-0.15684032,0.0,0.0,0.0,0.0,0.0,0.0,0.0020926297,0.0020926297,0.00123059,-0.00017464161,-0.076329164,0.025566723,-0.0009841919,0.0,0.0,0.0,0.0,0.0,0.0
225015964,224825671,-0.07263815,-0.006245613,-0.18860826,0.086419106,-0.03528595,-0.40779972,0.0,0.0,0.0,0.0,0.0,0.0,0.0,-0.25007057,0.0,0.0,0.0,0.0,0.0,0.0,0.0017203791,0.0017203791,0.00047760457,-0.00040006638,-0.110154025,-0.054405443,-0.0055758357,0.0,0.0,0.0,0.0,0.0,0.0
226015982,225825671,-0.102103546,0.032586925,-0.1815441,0.08573532,-0.01987362,-0.3697996,0.0,0.0,0.0,0.0,0.0,0.0,0.0,-0.04590988,0.0,0.0,0.0,0.0,0.0,0.0,0.0004384457,0.0004384457,-0.00036609918,-6.9737434e-06,-0.09055662,0.117546245,-0.0009857416,0.0,0.0,0.0,0.0,0.0,0.0
226515962,226325671,-0.08254559,0.005086556,-0.18457685,0.10411644,-0.026402473,-0.36277008,0.0,0.0,0.0,0.0,0.0,0.0,0.0,0.113155365,0.0,0.0,0.0,0.0,0.0,0.0,0.0018762574,0.0018762574,0.0007160008,-9.030104e-06,-0.16426136,-0.0056088204,-0.0049270988,0.0,0.0,0.0,0.0,0.0,0.0
227015964,226825671,0.052109927,0.04548383,-0.11493239,0.10976601,-0.016378403,-0.34435463,0.0,0.0,0.0,0.0,0.0,0.0,0.0,-0.059741974,0.0,0.0,0.0,0.0,0.0,0.0,0.0033416129,0.0033416129,0.00037293136,0.00017273426,0.035095535,-0.054812815,-0.0028117895,0.0,0.0,0.0,0.0,0.0,0.0
227515986,227325671,0.09613538,0.05961945,-0.11802144,0.11363649,-0.01654625,-0.36587524,0.0,0.0,0.0,0.0,0.0,0.0,0.0,0.40995026,0.0,0.0,0.0,0.0,0.0,0.0,0.002459208,0.002459208,-0.002079025,-0.00077983737,0.020230524,0.029759048,-0.0027204156,0.0,0.0,0.0,0.0,0.0,0.0
228016013,227825671,0.064556465,0.02871944,-0.11768398,0.109816074,-0.0066804886,-0.33676147,0.0,0.0,0.0,0.0,0.0,0.0,0.0,0.007051468,0.0,0.0,0.0,0.0,0.0,0.0,0.0037991307,0.0037991307,-0.00095151365,-0.0019151866,-0.12380781,-0.072022334,0.0018057823,0.0,0.0,0.0,0.0,0.0,0.0
228515964,228325671,0.075924054,-0.0029518306,-0.16501915,0.09597206,-0.004242897,-0.3487091,0.0,0.0,0.0,0.0,0.0,0.0,0.0,-0.25551414,0.0,0.0,0.0,0.0,0.0,0.0,0.0019891858,0.0019841595,0.0019891858,0.00047263503,-0.108441144,-0.17131083,-0.0014858842,0.0,0.0,0.0,0.0,0.0,0.0
229015969,228825671,0.008793741,0.06670123,-0.15551631,0.08613348,0.008444786,-0.29434013,0.0,0.0,0.0,0.0,0.0,0.0,0.0,-0.2810669,0.0,0.0,0.0,0.0,0.0,0.0,0.0018675597,0.0018675597,-0.000625737,-0.0011724532,-0.0064170845,0.12619753,-0.0043218136,0.0,0.0,0.0,0.0,0.0,0.0
229516010,229325671,0.035350874,-0.0065263286,-0.15113099,0.10189438,-0.009176254,-0.30408096,0.0,0.0,0.0,0.0,0.0,0.0,0.0,0.10524368,0.0,0.0,0.0,0.0,0.0,0.0,0.0014681965,0.0012281635,0.0014681965,0.001408875,-0.025172627,-0.01574623,0.00094777346,0.0,0.0,0.0,0.0,0.0,0.0
230016035,229825671,0.0017533526,0.01591362,-0.13154812,0.095984936,-0.012486458,-0.28694725,0.0,0.0,0.0,0.0,0.0,0.0,0.0,0.17163658,0.0,0.0,0.0,0.0,0.0,0.0,0.0029779267,0.0029779267,0.0009327978,-0.00058722496,0.14718428,-0.0014903522,-0.01804018,0.0,0.0,0.0,0.0,0.0,0.0
230515962,230325671,0.019055732,-0.064136475,-0.12422535,0.09836388,-0.029734612,-0.3157196,0.0,0.0,0.0,0.0,0.0,0.0,0.0,-0.013399124,0.0,0.0,0.0,0.0,0.0,0.0,0.00088868896,0.00088868896,0.0005935654,-0.0006669462,-0.013888564,0.035445604,-0.00020688772,0.0,0.0,0.0,0.0,0.0,0.0
231015966,230825671,-0.0073415227,0.019213824,-0.14674112,0.104512215,-0.026257515,-0.30561638,0.0,0.0,0.0,0.0,0.0,0.0,0.0,0.1604557,0.0,0.0,0.0,0.0,0.0,0.0,0.0012076129,0.0012076129,0.0005339086,-0.0021705925,0.09380925,0.04548394,-0.008537829,0.0,0.0,0.0,0.0,0.0,0.0
231515984,231325671,0.063811064,-0.0009805225,-0.13951495,0.10927057,-0.031417847,-0.29955292,0.0,0.0,0.0,0.0,0.0,0.0,0.0,0.040769577,0.0,0.0,0.0,0.0,0.0,0.0,0.00058479747,0.00058479747,8.910894e-06,-0.0012238622,0.06472137,0.016073072,-0.006364405,0.0,0.0,0.0,0.0,0.0,0.0
232015982,231825671,0.0023488626,-0.021311492,-0.08465877,0.10107374,-0.025233269,-0.29306602,0.0,0.0,0.0,0.0,0.0,0.0,0.0,0.4036522,0.0,0.0,0.0,0.0,0.0,0.0,0.00082006305,9.5259864e-05,0.00082006305,-0.0007932484,0.11026531,-0.015174976,-0.009786606,0.0,0.0,0.0,0.0,0.0,0.0
232515966,232325671,-0.023373414,-0.054755494,-0.13754335,0.08948469,-0.03556347,-0.30183792,0.0,0.0,0.0,0.0,0.0,0.0,0.0,0.3359375,0.0,0.0,0.0,0.0,0.0,0.0,0.0013083145,0.0012256396,0.0013083145,0.00036519766,-0.08251485,0.0076706596,-0.00080126524,0.0,0.0,0.0,0.0,0.0,0.0
233015999,232825671,-0.0048173554,-0.022811089,-0.130983,0.086648464,-0.03600502,-0.27508736,0.0,0.0,0.0,0.0,0.0,0.0,0.0,-0.44444084,0.0,0.0,0.0,0.0,0.0,0.0,0.0007016249,0.0007016249,-0.0008214861,-0.00068846345,-0.05614327,0.1338847,-0.00044739246,0.0,0.0,0.0,0.0,0.0,0.0
233515979,233325671,-0.029187828,-0.03806277,-0.10444303,0.09400892,-0.03815651,-0.2580719,0.0,0.0,0.0,0.0,0.0,0.0,0.0,-0.1866169,0.0,0.0,0.0,0.0,0.0,0.0,0.00044091698,0.00044091698,0.00012730062,7.635355e-05,-0.13605526,-0.07263514,-0.0069743395,0.0,0.0,0.0,0.0,0.0,0.0
235015960,234825671,0.10109978,-0.0031818151,-0.09829986,0.07201958,-0.025464058,-0.21407509,0.0,0.0,0.0,0.0,0.0,0.0,0.0,-0.23471832,0.0,0.0,0.0,0.0,0.0,0.0,0.0011245292,0.0011245292,0.0009856522,0.00083979964,0.1650567,-0.12570424,-0.02465123,0.0,0.0,0.0,0.0,0.0,0.0
235515975,235325671,-0.010980412,-0.016317971,-0.08173396,0.05019045,-0.024458885,-0.21907425,0.0,0.0,0.0,0.0,0.0,0.0,0.0,0.024427414,0.0,0.0,0.0,0.0,0.0,0.0,0.00399089,0.00399089,0.0018324405,-0.006441176,-0.010776613,0.037919898,0.00080376863,0.0,0.0,0.0,0.0,0.0,0.0
236515980,236325671,0.040357493,-0.024270162,-0.03258589,0.06263542,-0.0022010803,-0.18483543,0.0,0.0,0.0,0.0,0.0,0.0,0.0,0.073438644,0.0,0.0,0.0,0.0,0.0,0.0,0.0015971744,0.0015971744,-0.001508832,-0.006522298,0.1882486,-0.026966035,-0.02483219,0.0,0.0,0.0,0.0,0.0,0.0
237015973,236825671,0.051789492,-0.020258531,-0.06307733,0.06812143,-0.005689621,-0.20471573,0.0,0.0,0.0,0.0,0.0,0.0,0.0,-0.1798439,0.0,0.0,0.0,0.0,0.0,0.0,0.0013168305,0.00085343467,0.0013168305,-0.00012889504,0.23566146,-0.10193266,-0.039494097,0.0,0.0,0.0,0.0,0.0,0.0
237515965,237325671,0.011805192,-0.09626697,-0.07019168,0.04829693,-0.004989624,-0.20482635,0.0,0.0,0.0,0.0,0.0,0.0,0.0,-0.16837692,0.0,0.0,0.0,0.0,0.0,0.0,0.00088417577,0.00088417577,-0.0011930317,-0.0028670132,-0.041343626,0.012579296,0.0013151169,0.0,0.0,0.0,0.0,0.0,0.0
238016010,237825671,-0.024958469,-0.110152684,-0.12456502,0.043582916,0.0018253326,-0.22097206,0.0,0.0,0.0,0.0,0.0,0.0,0.0,-0.22004318,0.0,0.0,0.0,0.0,0.0,0.0,0.0010417774,-0.00060573034,0.0010417774,-0.0017159581,0.062379867,-0.016766429,-0.003290236,0.0,0.0,0.0,0.0,0.0,0.0
238515980,238325671,0.022910204,-0.088691436,-0.059631646,0.04414177,0.009084702,-0.21181488,0.0,0.0,0.0,0.0,0.0,0.0,0.0,-0.007892609,0.0,0.0,0.0,0.0,0.0,0.0,0.000107256696,0.000107256696,-0.00030770153,-0.009822935,0.05143051,-0.057979926,-0.0060777664,0.0,0.0,0.0,0.0,0.0,0.0
239015959,238825671,0.009905472,-0.052564494,-0.049193263,0.04775715,0.0057172775,-0.21916199,0.0,0.0,0.0,0.0,0.0,0.0,0.0,0.48493004,0.0,0.0,0.0,0.0,0.0,0.0,0.0033887923,-0.0006977152,0.0033887923,-1.1742115e-05,0.08353873,-0.024718214,-0.0029196143,0.0,0.0,0.0,0.0,0.0,0.0
239516000,239325671,-0.047790855,0.09672481,-0.0055502653,0.022004604,0.02859211,-0.26633644,0.0,0.0,0.0,0.0,0.0,0.0,0.0,0.09450531,0.0,0.0,0.0,0.0,0.0,0.0,0.015567198,-0.0015376811,0.015567198,-0.00820151,0.008697947,-0.15884316,0.012040496,0.0,0.0,0.0,0.0,0.0,0.0
240015977,239825671,0.08140719,0.12436859,0.10348201,-0.031588554,0.040719032,-0.38031578,0.0,0.0,0.0,0.0,0.0,0.0,0.0,0.07559967,0.0,0.0,0.0,0.0,0.0,0.0,0.0030791895,0.0030791895,-0.0028874725,0.0012086332,0.061265346,-0.21094902,0.018946886,0.0,0.0,0.0,0.0,0.0,0.0
240515976,240325671,0.106493354,-0.029512905,-0.11465433,-0.07750893,0.034931183,-0.3848896,0.0,0.0,0.0,0.0,0.0,0.0,0.0,-0.02982521,0.0,0.0,0.0,0.0,0.0,0.0,0.0019403286,0.0019403286,-0.004405439,-0.0003168285,-0.06547221,-0.06638721,0.0003222823,0.0,0.0,0.0,0.0,0.0,0.0
241015967,240825671,0.025720596,0.009686485,-0.14571847,-0.06731558,0.046186447,-0.37093735,0.0,0.0,0.0,0.0,0.0,0.0,0.0,0.028121948,0.0,0.0,0.0,0.0,0.0,0.0,0.00014525652,-0.00061686616,-0.0013899878,0.00014525652,-0.102159366,0.026924502,-0.0012034774,0.0,0.0,0.0,0.0,0.0,0.0
241515958,241325671,-0.039768934,0.033546142,-0.15369608,-0.037899256,0.052433014,-0.34762,0.0,0.0,0.0,0.0,0.0,0.0,0.0,0.19950104,0.0,0.0,0.0,0.0,0.0,0.0,6.651878e-05,-0.0014660168,-0.0003188774,6.651878e-05,0.06086405,0.12018114,-0.0017981529,0.0,0.0,0.0,0.0,0.0,0.0
242015978,241825671,0.026319027,-0.010710267,-0.1447235,0.0020258427,0.049061775,-0.31543922,0.0,0.0,0.0,0.0,0.0,0.0,0.0,-0.058502197,0.0,0.0,0.0,0.0,0.0,0.0,0.00031241775,-0.0013806485,-0.00025503337,0.00031241775,-0.16439712,0.081845105,0.00078713894,0.0,0.0,0.0,0.0,0.0,0.0
242515994,242325671,0.0450439,-0.03879149,-0.07447438,0.040494204,0.050216675,-0.30228806,0.0,0.0,0.0,0.0,0.0,0.0,0.0,0.018388748,0.0,0.0,0.0,0.0,0.0,0.0,0.00089889765,-0.00088983215,-0.00061544776,0.00089889765,-0.051089294,0.027536571,0.0036597848,0.0,0.0,0.0,0.0,0.0,0.0
243015962,242825671,0.04338842,0.025947465,-0.0118141025,0.052220345,0.05333996,-0.28484154,0.0,0.0,0.0,0.0,0.0,0.0,0.0,0.07205391,0.0,0.0,0.0,0.0,0.0,0.0,0.0004788339,-0.001332303,-6.259233e-05,0.0004788339,0.012775909,0.06894032,0.0006599426,0.0,0.0,0.0,0.0,0.0,0.0
243515970,243325671,0.2213214,-0.06144109,-0.10969684,0.09360242,0.049290657,-0.26446533,0.0,0.0,0.0,0.0,0.0,0.0,0.0,0.1940155,0.0,0.0,0.0,0.0,0.0,0.0,0.0016979873,-0.003018464,-0.0034021195,0.0016979873,-0.09697159,0.18957713,0.054253876,0.0,0.0,0.0,0.0,0.0,0.0
244015979,243825671,0.069628954,0.016755886,-0.052053012,0.13422275,0.053079605,-0.24929428,0.0,0.0,0.0,0.0,0.0,0.0,0.0,0.32605362,0.0,0.0,0.0,0.0,0.0,0.0,0.0014190935,-0.0029086773,0.0014190935,0.000600636,0.016705334,0.12269774,0.007141292,0.0,0.0,0.0,0.0,0.0,0.0
244516012,244325671,-0.083359,0.036316343,-0.078517474,0.11293173,0.04778385,-0.25712204,0.0,0.0,0.0,0.0,0.0,0.0,0.0,0.31197166,0.0,0.0,0.0,0.0,0.0,0.0,0.0027725548,-0.0005673962,0.0027725548,-0.0020431876,-0.037387393,-0.007019637,-2.0384789e-05,0.0,0.0,0.0,0.0,0.0,0.0
245015961,244825671,-0.034077764,-0.06377767,-0.043065913,0.06454277,0.035769463,-0.26784706,0.0,0.0,0.0,0.0,0.0,0.0,0.0,0.13340187,0.0,0.0,0.0,0.0,0.0,0.0,0.0010608733,0.00019326527,0.0010608733,-0.00018560886,0.14074582,-0.0892422,-0.008121312,0.0,0.0,0.0,0.0,0.0,0.0
246015977,245825671,-0.040906534,-0.04032002,-0.020393874,-0.02900362,0.034420967,-0.24994278,0.0,0.0,0.0,0.0,0.0,0.0,0.0,-0.03842163,0.0,0.0,0.0,0.0,0.0,0.0,2.28961e-05,2.28961e-05,-0.00019794703,-0.00053581595,-0.008208252,-0.121137634,0.00020521879,0.0,0.0,0.0,0.0,0.0,0.0
246515978,246325671,0.0026064962,0.048325866,-0.07246786,-0.0521307,0.0403347,-0.2325306,0.0,0.0,0.0,0.0,0.0,0.0,0.0,0.0820179,0.0,0.0,0.0,0.0,0.0,0.0,0.00015464425,-0.0011341977,-0.0005938858,0.00015464425,0.026392806,-0.045042746,-0.0005904436,0.0,0.0,0.0,0.0,0.0,0.0
247015962,246825671,-0.008759975,0.039949648,-0.11842122,-0.10757065,0.041651726,-0.209898,0.0,0.0,0.0,0.0,0.0,0.0,0.0,-0.11096001,0.0,0.0,0.0,0.0,0.0,0.0,0.0030324995,0.0030324995,-6.407499e-05,-0.00045484304,0.15762159,-0.29160774,0.049660206,0.0,0.0,0.0,0.0,0.0,0.0
248015979,247825671,-0.051844,0.057853732,-0.12841126,-0.1376419,0.032886505,-0.15327072,0.0,0.0,0.0,0.0,0.0,0.0,0.0,-0.1816845,0.0,0.0,0.0,0.0,0.0,0.0,-0.00010386109,-0.0016854475,-0.001398176,-0.00010386109,-0.04867701,0.2136932,0.0037208796,0.0,0.0,0.0,0.0,0.0,0.0
248515983,248325671,-0.02465868,-0.08228674,-0.08104554,-0.0826478,0.014022827,-0.12472534,0.0,0.0,0.0,0.0,0.0,0.0,0.0,-0.15846252,0.0,0.0,0.0,0.0,0.0,0.0,0.0007146299,-0.002987179,-0.0020876862,0.0007146299,-0.12776703,0.15606825,0.010817468,0.0,0.0,0.0,0.0,0.0,0.0
249015965,248825671,0.08717449,-0.044617537,-0.08680993,-0.015334606,0.019327164,-0.11254692,0.0,0.0,0.0,0.0,0.0,0.0,0.0,0.06693268,0.0,0.0,0.0,0.0,0.0,0.0,0.00041341037,-0.0025350838,0.00041341037,6.8068504e-05,-0.07104711,0.09074703,0.008216441,0.0,0.0,0.0,0.0,0.0,0.0
249515991,249325671,-0.1219216,-0.079567686,-0.09083694,-0.0030670166,0.020977974,-0.10505295,0.0,0.0,0.0,0.0,0.0,0.0,0.0,0.18606186,0.0,0.0,0.0,0.0,0.0,0.0,0.0017543957,-0.0024616714,0.0017543957,-0.0010100603,-0.07662704,0.10423174,0.0049633384,0.0,0.0,0.0,0.0,0.0,0.0
250015979,249825671,0.18255925,-0.077634156,-0.063141525,0.04531002,0.022405624,-0.11928177,0.0,0.0,0.0,0.0,0.0,0.0,0.0,0.049463272,0.0,0.0,0.0,0.0,0.0,0.0,0.0006610006,-0.0021038577,0.0006610006,-0.00017911196,0.12009123,0.081100374,-0.009359598,0.0,0.0,0.0,0.0,0.0,0.0
250515979,250325671,0.14806092,0.052576125,-0.0101207495,0.036572456,0.0435791,-0.097929,0.0,0.0,0.0,0.0,0.0,0.0,0.0,0.36394882,0.0,0.0,0.0,0.0,0.0,0.0,0.0005005449,-0.00040879147,0.0005005449,-0.0014706254,0.046737697,-0.054500323,-0.0031266809,0.0,0.0,0.0,0.0,0.0,0.0
251015965,250825671,0.04279095,-0.02353102,0.06094286,-0.00095033646,0.032068253,-0.1552105,0.0,0.0,0.0,0.0,0.0,0.0,0.0,0.5508461,0.0,0.0,0.0,0.0,0.0,0.0,0.00087817013,-0.00022496982,0.00087817013,-0.0015975535,0.08441528,-0.039545245,-0.003121674,0.0,0.0,0.0,0.0,0.0,0.0
251515964,251325671,0.006329179,-0.0009018481,0.050780103,-0.05244589,0.038205147,-0.21814728,0.0,0.0,0.0,0.0,0.0,0.0,0.0,0.531229,0.0,0.0,0.0,0.0,0.0,0.0,0.00033648312,-0.00020987261,0.00033648312,-0.0005979836,0.021637693,-0.10300455,0.00043272972,0.0,0.0,0.0,0.0,0.0,0.0
252015982,251825671,0.08897728,-0.03370545,0.03369184,-0.063966274,0.036522865,-0.24900055,0.0,0.0,0.0,0.0,0.0,0.0,0.0,0.37006378,0.0,0.0,0.0,0.0,0.0,0.0,-3.6641955e-05,-0.0009985003,-3.6641955e-05,-0.00086298585,0.08854515,-0.09359224,-0.006995082,0.0,0.0,0.0,0.0,0.0,0.0
252515981,252325671,0.025579263,-0.015604011,-0.050904654,-0.07929325,0.04909897,-0.27822113,0.0,0.0,0.0,0.0,0.0,0.0,0.0,0.48014832,0.0,0.0,0.0,0.0,0.0,0.0,-0.0012586713,-0.002098382,-0.0012586713,-0.0021603703,-0.13725582,-0.052488398,-0.0044095516,0.0,0.0,0.0,0.0,0.0,0.0
253015962,252825671,-0.0013852566,0.058869865,-0.06398166,-0.08462715,0.056515694,-0.30242157,0.0,0.0,0.0,0.0,0.0,0.0,0.0,0.238657,0.0,0.0,0.0,0.0,0.0,0.0,-0.0011219233,-0.0013183728,-0.0011219233,-0.0013247132,0.037885066,0.03636655,-0.0034855008,0.0,0.0,0.0,0.0,0.0,0.0
253515960,253325671,0.077288955,-0.024521222,0.025176704,-0.09405947,0.052820206,-0.38296318,0.0,0.0,0.0,0.0,0.0,0.0,0.0,0.18381882,0.0,0.0,0.0,0.0,0.0,0.0,0.0007916102,0.0007916102,0.00018538535,-0.0021073818,0.021062309,-0.15160064,0.009810448,0.0,0.0,0.0,0.0,0.0,0.0
254015979,253825671,-0.047810018,0.095986165,0.06682813,-0.14084578,0.07144451,-0.39557457,0.0,0.0,0.0,0.0,0.0,0.0,0.0,-0.029781342,0.0,0.0,0.0,0.0,0.0,0.0,5.4374337e-05,-0.00039421348,5.4374337e-05,-0.00039067864,0.010503059,-0.028577529,-0.0006315708,0.0,0.0,0.0,0.0,0.0,0.0
254516009,254325671,0.043434024,0.026027424,-0.06915867,-0.12515688,0.06170845,-0.44015694,0.0,0.0,0.0,0.0,0.0,0.0,0.0,0.23838615,0.0,0.0,0.0,0.0,0.0,0.0,-0.0006501004,-0.001579917,-0.0006501004,-0.0012375414,-0.13864955,0.027533587,-0.0004248023,0.0,0.0,0.0,0.0,0.0,0.0
255015959,254825671,-0.047034144,0.10429834,-0.13824707,-0.099888325,0.069574356,-0.45477676,0.0,0.0,0.0,0.0,0.0,0.0,0.0,-0.08437157,0.0,0.0,0.0,0.0,0.0,0.0,0.0003963709,-0.0011177063,-0.00070379674,0.0003963709,-0.03543758,0.012130849,0.0035086274,0.0,0.0,0.0,0.0,0.0,0.0
255515962,255325671,-0.0393295,-0.043301024,-0.28754884,-0.0739727,0.05898857,-0.46320915,0.0,0.0,0.0,0.0,0.0,0.0,0.0,0.07953453,0.0,0.0,0.0,0.0,0.0,0.0,0.0009757951,-0.0018964782,0.0009757951,0.00068980455,-0.12899211,-0.14903523,-0.017739654,0.0,0.0,0.0,0.0,0.0,0.0
256016009,255825671,-0.041436642,-0.031310834,-0.27632028,-0.07620573,0.06106949,-0.44086456,0.0,0.0,0.0,0.0,0.0,0.0,0.0,0.114910126,0.0,0.0,0.0,0.0,0.0,0.0,0.0002367273,-0.0010847677,0.0002367273,4.130602e-05,-0.06859322,-0.23691526,-0.03232068,0.0,0.0,0.0,0.0,0.0,0.0
256515998,256325671,-0.0028496683,0.06321784,-0.33444774,-0.06486845,0.07707691,-0.43648338,0.0,0.0,0.0,0.0,0.0,0.0,0.0,0.39930725,0.0,0.0,0.0,0.0,0.0,0.0,0.00029679388,-0.00095408363,0.00029679388,9.265542e-05,-0.32664347,-0.17708178,-0.054748416,0.0,0.0,0.0,0.0,0.0,0.0
257515965,257325671,0.023253098,-0.056991678,-0.13061269,-0.053643703,0.056321144,-0.38755798,0.0,0.0,0.0,0.0,0.0,0.0,0.0,0.14175987,0.0,0.0,0.0,0.0,0.0,0.0,0.0009830892,0.0006404752,-0.00016676635,0.0009830892,0.0697467,-0.042358574,-0.0069873333,0.0,0.0,0.0,0.0,0.0,0.0
258015977,257825671,0.056994222,-0.041467424,-0.050842863,-0.0436821,0.059877396,-0.37226486,0.0,0.0,0.0,0.0,0.0,0.0,0.0,-0.026607513,0.0,0.0,0.0,0.0,0.0,0.0,0.007770717,-0.0012399722,-0.0028725564,0.007770717,-0.09864457,0.0305358,-0.0009134412,0.0,0.0,0.0,0.0,0.0,0.0
258515976,258325671,0.034517854,-0.03766018,-0.23769316,-0.059308052,0.044311523,-0.2971382,0.0,0.0,0.0,0.0,0.0,0.0,0.0,0.09750366,0.0,0.0,0.0,0.0,0.0,0.0,0.0011959593,0.0011959593,-0.0005130768,-0.0015820265,0.073419526,0.02962228,-0.0029833913,0.0,0.0,0.0,0.0,0.0,0.0
259015966,258825671,0.09909907,0.17110258,-0.0135374665,-0.05579853,0.0483284,-0.25779915,0.0,0.0,0.0,0.0,0.0,0.0,0.0,0.14614868,0.0,0.0,0.0,0.0,0.0,0.0,0.0011752173,-0.000605342,0.0011752173,-0.00015431643,-0.14968812,-0.11287363,-0.021299243,0.0,0.0,0.0,0.0,0.0,0.0
259515991,259325671,0.0037572682,-0.0065634847,0.08626883,-0.07435274,0.015951157,-0.2856121,0.0,0.0,0.0,0.0,0.0,0.0,0.0,0.5120506,0.0,0.0,0.0,0.0,0.0,0.0,0.0010535717,0.00048770988,0.0010535717,-0.001673609,-0.06506894,0.06996715,0.00025999546,0.0,0.0,0.0,0.0,0.0,0.0
260015980,259825671,0.04761052,-0.10435593,0.07137124,-0.06024313,9.1552734e-05,-0.31953812,0.0,0.0,0.0,0.0,0.0,0.0,0.0,0.003396988,0.0,0.0,0.0,0.0,0.0,0.0,0.0002443716,-0.00060004415,0.0002443716,-0.0008561313,0.14253964,-0.009092703,-0.016219556,0.0,0.0,0.0,0.0,0.0,0.0
260515978,260325671,0.06250737,-0.068523705,0.10127208,-0.05271101,0.010105133,-0.31391716,0.0,0.0,0.0,0.0,0.0,0.0,0.0,0.11612511,0.0,0.0,0.0,0.0,0.0,0.0,0.00015766174,-2.3155939e-05,0.00015766174,-0.0007673502,-0.091732174,-0.0008908063,0.0011671185,0.0,0.0,0.0,0.0,0.0,0.0
261015996,260825671,0.1083499,0.0015570521,0.06752314,-0.03687048,0.029929161,-0.32808304,0.0,0.0,0.0,0.0,0.0,0.0,0.0,0.8505783,0.0,0.0,0.0,0.0,0.0,0.0,0.0007856684,0.0007856684,0.0002624616,-0.0016454458,-0.26226136,-0.025204629,-0.02431947,0.0,0.0,0.0,0.0,0.0,0.0
261515968,261325671,0.015925199,-0.063200474,0.07210487,-0.030865192,0.022683144,-0.3087368,0.0,0.0,0.0,0.0,0.0,0.0,0.0,0.15082932,0.0,0.0,0.0,0.0,0.0,0.0,0.0011377931,-0.0004260349,0.0011377931,-0.0005649924,-0.083183974,0.015560802,0.0015894771,0.0,0.0,0.0,0.0,0.0,0.0
262015982,261825673,-0.048014253,0.02034086,-0.056105547,-0.023700714,0.035342216,-0.30262566,0.0,0.0,0.0,0.0,0.0,0.0,0.0,0.16335678,0.0,0.0,0.0,0.0,0.0,0.0,0.00072692335,-0.00030540023,0.00072692335,-0.00056004524,0.008397035,-0.009869444,-0.00059074163,0.0,0.0,0.0,0.0,0.0,0.0
262515982,262325671,-0.0040365905,-0.041999012,-0.028132243,-0.019625187,0.04117489,-0.28214836,0.0,0.0,0.0,0.0,0.0,0.0,0.0,0.20614433,0.0,0.0,0.0,0.0,0.0,0.0,0.0013815314,-0.00028210413,0.0013815314,-0.0012118816,-0.016003944,-0.03665999,0.0009871721,0.0,0.0,0.0,0.0,0.0,0.0
263015967,262825671,0.012117796,-0.033019185,-0.01005169,-0.010124207,0.049405098,-0.2604637,0.0,0.0,0.0,0.0,0.0,0.0,0.0,0.05598259,0.0,0.0,0.0,0.0,0.0,0.0,0.00041681528,-0.00025546458,0.00041681528,-0.00055384636,-0.112574965,-0.07090398,0.0017515421,0.0,0.0,0.0,0.0,0.0,0.0
263515967,263325671,0.040845025,0.060701653,0.010481041,-0.0077195168,0.06347847,-0.24206352,0.0,0.0,0.0,0.0,0.0,0.0,0.0,0.38474846,0.0,0.0,0.0,0.0,0.0,0.0,0.0013188198,-0.0007593655,0.0013188198,0.0007881522,0.08688834,-0.0036305934,-0.009553671,0.0,0.0,0.0,0.0,0.0,0.0
264015978,263825671,-0.0965772,-0.0743753,-0.014641017,-0.006477356,0.031309128,-0.23472214,0.0,0.0,0.0,0.0,0.0,0.0,0.0,0.39237595,0.0,0.0,0.0,0.0,0.0,0.0,0.0017674044,-0.0017541973,0.0017674044,-0.00037157536,0.002477087,0.077852845,0.0016981959,0.0,0.0,0.0,0.0,0.0,0.0
264516263,264325671,0.028642133,0.13748348,-0.06539795,0.01924038,0.046118736,-0.25532722,0.0,0.0,0.0,0.0,0.0,0.0,0.0,0.18056107,0.0,0.0,0.0,0.0,0.0,0.0,0.00023475476,0.00023475476,-0.0014544427,-0.0015220344,-0.3525362,-0.2021715,-0.003615439,0.0,0.0,0.0,0.0,0.0,0.0
265016135,264825671,0.002322033,-0.010393441,-6.432831e-05,0.043179035,0.05569172,-0.27337646,0.0,0.0,0.0,0.0,0.0,0.0,0.0,0.37667274,0.0,0.0,0.0,0.0,0.0,0.0,3.7014484e-05,-0.0005395403,3.7014484e-05,-0.0016459525,0.04365945,-0.03656472,-0.007309556,0.0,0.0,0.0,0.0,0.0,0.0
265516128,265325671,0.036006026,-0.05868864,0.012300618,0.07104969,0.06601143,-0.3005867,0.0,0.0,0.0,0.0,0.0,0.0,0.0,0.5575447,0.0,0.0,0.0,0.0,0.0,0.0,0.00029423088,-0.00064547826,0.00029423088,-0.000526011,-0.044623192,0.04987425,0.0024902225,0.0,0.0,0.0,0.0,0.0,0.0
266016207,265825673,-0.032664638,0.022307873,-0.07438211,0.070810795,0.059253693,-0.34394455,0.0,0.0,0.0,0.0,0.0,0.0,0.0,0.5213642,0.0,0.0,0.0,0.0,0.0,0.0,0.0018949285,-0.0015810737,0.0018949285,7.364154e-05,-0.022348091,0.044410825,0.001411736,0.0,0.0,0.0,0.0,0.0,0.0
266516172,266325671,0.07557487,0.035177827,-0.10922128,0.09228611,0.03924656,-0.3455143,0.0,0.0,0.0,0.0,0.0,0.0,0.0,0.51086617,0.0,0.0,0.0,0.0,0.0,0.0,0.002088137,-0.0020888192,0.002088137,0.00026494265,-0.017810829,0.048928697,0.00085181,0.0,0.0,0.0,0.0,0.0,0.0
267016131,266825671,0.015191846,0.063378096,-0.075290054,0.09370947,-0.0012607574,-0.34397507,0.0,0.0,0.0,0.0,0.0,0.0,0.0,0.43717575,0.0,0.0,0.0,0.0,0.0,0.0,0.0020552352,-0.0010252711,0.0020552352,0.00020992756,-0.015908401,-0.060792573,-0.005994439,0.0,0.0,0.0,0.0,0.0,0.0
267516133,267325671,0.023502588,-0.040753454,-0.06254314,0.09203911,-0.052936554,-0.34021568,0.0,0.0,0.0,0.0,0.0,0.0,0.0,0.3054943,0.0,0.0,0.0,0.0,0.0,0.0,0.0013510063,-0.00039691804,0.0013510063,0.00027185678,0.20672491,0.00046595186,-0.0144020915,0.0,0.0,0.0,0.0,0.0,0.0
268016170,267825671,-0.011020726,0.017195769,-0.067810915,0.07913256,-0.06775761,-0.34687424,0.0,0.0,0.0,0.0,0.0,0.0,0.0,0.08371544,0.0,0.0,0.0,0.0,0.0,0.0,0.0013436452,-0.00023509841,0.0013436452,-0.00017824769,-0.10872338,-0.020913836,-0.010230124,0.0,0.0,0.0,0.0,0.0,0.0
268516171,268325671,0.075260386,-0.090982124,-0.096833915,0.08268595,-0.08113575,-0.3454876,0.0,0.0,0.0,0.0,0.0,0.0,0.0,0.40306664,0.0,0.0,0.0,0.0,0.0,0.0,0.0008840114,-8.586561e-05,0.0008840114,-0.0010640919,-0.061711498,0.043740157,-0.0022020936,0.0,0.0,0.0,0.0,0.0,0.0
269016131,268825671,0.003665654,-0.068170264,-0.061635673,0.086658955,-0.07502079,-0.30771637,0.0,0.0,0.0,0.0,0.0,0.0,0.0,0.52253723,0.0,0.0,0.0,0.0,0.0,0.0,0.0014282996,0.0014282996,0.00038091093,-5.981326e-05,0.09692285,0.017514303,-0.005558014,0.0,0.0,0.0,0.0,0.0,0.0
269516128,269325672,0.033669688,0.027865112,-0.041340552,0.09059954,-0.08650875,-0.26148224,0.0,0.0,0.0,0.0,0.0,0.0,0.0,0.26664925,0.0,0.0,0.0,0.0,0.0,0.0,0.0019561965,0.0019561965,-0.0003398955,-0.0011759698,0.030305505,-0.002341099,0.0019637346,0.0,0.0,0.0,0.0,0.0,0.0
270016202,269825671,0.034130313,-0.0014927387,-0.028633326,0.10313177,-0.09712505,-0.23603821,0.0,0.0,0.0,0.0,0.0,0.0,0.0,0.22105789,0.0,0.0,0.0,0.0,0.0,0.0,0.0008624499,0.0008624499,-0.0030055642,-0.00299114,-0.009059195,0.06030105,-0.00028681755,0.0,0.0,0.0,0.0,0.0,0.0
270516172,270325671,0.09028,0.14021909,-0.048487525,0.099767685,-0.055711746,-0.2434845,0.0,0.0,0.0,0.0,0.0,0.0,0.0,0.20383263,0.0,0.0,0.0,0.0,0.0,0.0,-0.0014325678,-0.0025785612,-0.0016912743,-0.0014325678,-0.0933612,0.057137944,-0.001304388,0.0,0.0,0.0,0.0,0.0,0.0
271016205,270825671,-0.04057681,0.08769375,-0.020358495,0.095700264,-0.0374012,-0.21857452,0.0,0.0,0.0,0.0,0.0,0.0,0.0,0.26114082,0.0,0.0,0.0,0.0,0.0,0.0,-0.00049091876,-0.0042405855,-0.00049091876,-0.00091052055,0.14464493,0.06559632,-0.0069510937,0.0,0.0,0.0,0.0,0.0,0.0
272016141,271825671,-0.13934666,0.045868285,-0.057076667,0.06454563,-0.0033922195,-0.24707413,0.0,0.0,0.0,0.0,0.0,0.0,0.0,0.24788094,0.0,0.0,0.0,0.0,0.0,0.0,0.0007069707,-0.0034656,0.0007069707,-0.0010354519,0.11729112,0.031736013,-0.0029968023,0.0,0.0,0.0,0.0,0.0,0.0
272516166,272325671,-0.099582665,0.2232605,-0.05667392,0.061372757,0.0370636,-0.26331902,0.0,0.0,0.0,0.0,0.0,0.0,0.0,0.28119278,0.0,0.0,0.0,0.0,0.0,0.0,0.00090037286,-0.0035138486,0.00090037286,-0.0007433295,-0.045184437,-0.1204064,-0.00965929,0.0,0.0,0.0,0.0,0.0,0.0
273016142,272825671,-0.008286504,0.10502079,0.027025614,0.056173325,0.035140038,-0.20943451,0.0,0.0,0.0,0.0,0.0,0.0,0.0,0.27296066,0.0,0.0,0.0,0.0,0.0,0.0,0.0020257682,-0.002957533,0.0020257682,-1.9669533e-05,-0.05609961,-0.063847885,-0.003396988,0.0,0.0,0.0,0.0,0.0,0.0
274016143,273825671,0.029841663,-0.023926139,-0.019693896,0.03498459,0.010437012,-0.19409561,0.0,0.0,0.0,0.0,0.0,0.0,0.0,0.15744591,0.0,0.0,0.0,0.0,0.0,0.0,0.004726149,-0.0013640007,0.004726149,0.00050103664,0.019844674,-0.03175644,0.0007466078,0.0,0.0,0.0,0.0,0.0,0.0
274515979,274325671,-0.024776254,0.0077230744,-0.010749258,0.027114391,0.022035599,-0.15171051,0.0,0.0,0.0,0.0,0.0,0.0,0.0,-0.09836769,0.0,0.0,0.0,0.0,0.0,0.0,0.0056772754,0.00029875577,0.0056772754,-0.00019177794,-0.029456198,-0.040752795,0.00025129318,0.0,0.0,0.0,0.0,0.0,0.0
275015975,274825671,-0.05231413,0.018717721,0.04724869,0.008573532,0.03267002,-0.079294205,0.0,0.0,0.0,0.0,0.0,0.0,0.0,0.025447845,0.0,0.0,0.0,0.0,0.0,0.0,0.0059001483,0.0018965764,0.0059001483,-0.00023972988,-0.02028466,0.027330482,-0.0010996461,0.0,0.0,0.0,0.0,0.0,0.0
275515961,275325671,0.031134663,0.0723281,-0.049160913,0.024983883,0.031398773,-0.11609268,0.0,0.0,0.0,0.0,0.0,0.0,0.0,0.22738075,0.0,0.0,0.0,0.0,0.0,0.0,0.0070608174,0.0070608174,0.0068693385,-0.00070890784,-0.10440122,-0.062860176,-0.0035636425,0.0,0.0,0.0,0.0,0.0,0.0
276015995,275825671,-0.01772117,0.17372343,-0.031809732,0.022234917,0.04326725,-0.069215775,0.0,0.0,0.0,0.0,0.0,0.0,0.0,0.05186844,0.0,0.0,0.0,0.0,0.0,0.0,0.01021808,0.01021808,0.003215246,-0.0015972257,0.06837306,-0.008321641,-0.0035783052,0.0,0.0,0.0,0.0,0.0,0.0
276515986,276325671,-0.016324578,0.16980605,-0.023503775,0.024954319,0.039138794,-0.041873932,0.0,0.0,0.0,0.0,0.0,0.0,0.0,0.043701172,0.0,0.0,0.0,0.0,0.0,0.0,0.012159238,0.012159238,0.001998365,-0.0017492473,0.022878418,-0.024807937,-0.0009739399,0.0,0.0,0.0,0.0,0.0,0.0
277015975,276825671,-0.022467602,0.11001423,-0.06634354,-0.006916523,0.018489838,-0.04851532,0.0,0.0,0.0,0.0,0.0,0.0,0.0,-0.2940998,0.0,0.0,0.0,0.0,0.0,0.0,0.011209359,0.011209359,-0.002356492,-0.0025508702,-0.08559716,0.015267772,-0.0031967163,0.0,0.0,0.0,0.0,0.0,0.0
277516018,277325671,0.052697677,0.07225236,-0.076097965,-0.013935566,0.008659363,0.0052757263,0.0,0.0,0.0,0.0,0.0,0.0,0.0,-0.21486855,0.0,0.0,0.0,0.0,0.0,0.0,0.0071003553,0.0071003553,-0.005818717,-0.0029642582,0.0847275,-0.014520915,-0.004839003,0.0,0.0,0.0,0.0,0.0,0.0
278015958,277825671,0.03941413,0.07503427,-0.057915848,-0.028152466,0.012573242,0.059360504,0.0,0.0,0.0,0.0,0.0,0.0,0.0,0.176054,0.0,0.0,0.0,0.0,0.0,0.0,0.0047694254,0.0047694254,-0.0062527806,-0.0022241771,0.0042745043,-0.05840825,-0.0019381642,0.0,0.0,0.0,0.0,0.0,0.0
278515977,278325671,-0.03353419,-0.01800286,-0.054422256,-0.046014786,-0.0046100616,0.069244385,0.0,0.0,0.0,0.0,0.0,0.0,0.0,-0.10800362,0.0,0.0,0.0,0.0,0.0,0.0,0.0035666944,0.0035666944,-0.005209949,-0.0022639632,-0.05086556,-0.06998701,-0.006749332,0.0,0.0,0.0,0.0,0.0,0.0
279015978,278825671,-0.07673448,0.015559245,0.0182117,-0.045409203,0.0017290115,0.09199715,0.0,0.0,0.0,0.0,0.0,0.0,0.0,-0.11839104,0.0,0.0,0.0,0.0,0.0,0.0,0.005316389,0.005316389,-0.005283937,-0.00303787,-0.20475174,-0.047263566,-0.028951526,0.0,0.0,0.0,0.0,0.0,0.0
279515964,279325671,0.005643733,-0.027766526,-0.016345339,-0.034727573,0.0025930405,0.10169983,0.0,0.0,0.0,0.0,0.0,0.0,0.0,-0.30723,0.0,0.0,0.0,0.0,0.0,0.0,0.0033539815,0.0033539815,-0.0050033964,-0.0017254353,-0.23238865,0.005317704,-0.03849286,0.0,0.0,0.0,0.0,0.0,0.0
280515973,280325671,-0.008832233,0.08246597,-0.12856208,-0.033866405,0.02113533,0.0703392,0.0,0.0,0.0,0.0,0.0,0.0,0.0,-0.15270042,0.0,0.0,0.0,0.0,0.0,0.0,0.0014370289,0.0014370289,-0.0023906156,0.0005339384,-0.06335277,0.013113022,-0.0043568015,0.0,0.0,0.0,0.0,0.0,0.0
281016008,280825671,-0.0007646829,-0.06373988,-0.12425284,-0.038903236,0.01140213,0.07847786,0.0,0.0,0.0,0.0,0.0,0.0,0.0,-0.2250061,0.0,0.0,0.0,0.0,0.0,0.0,0.0008441076,0.0008441076,-0.0032172725,-0.0015648007,-0.16001463,-0.10408932,-0.032346725,0.0,0.0,0.0,0.0,0.0,0.0
281515976,281325671,0.07056079,-0.01635927,-0.11674096,-0.020991802,0.030483246,0.086704254,0.0,0.0,0.0,0.0,0.0,0.0,0.0,-0.367321,0.0,0.0,0.0,0.0,0.0,0.0,0.0015144115,0.0015144115,-0.0024384633,-0.0016014278,0.37786028,0.103571415,-0.05518514,0.0,0.0,0.0,0.0,0.0,0.0
282015959,281825671,0.0858632,0.009473175,-0.12351067,-0.013475895,0.03423977,0.07216835,0.0,0.0,0.0,0.0,0.0,0.0,0.0,-0.20537949,0.0,0.0,0.0,0.0,0.0,0.0,0.0020400516,0.0020400516,-0.002023343,-0.0020218492,-0.015728611,0.032350846,0.00035607815,0.0,0.0,0.0,0.0,0.0,0.0
282516009,282325671,0.12805991,-0.007937016,-0.11029517,0.0024647713,0.04646492,0.07831192,0.0,0.0,0.0,0.0,0.0,0.0,0.0,-0.20905113,0.0,0.0,0.0,0.0,0.0,0.0,0.001503973,0.001503973,-0.0019220337,-0.0011158288,0.026593778,-0.040255822,-0.0012202859,0.0,0.0,0.0,0.0,0.0,0.0
283016000,282825671,-0.018032337,0.064428285,-0.1878383,0.023373604,0.07767582,0.052639008,0.0,0.0,0.0,0.0,0.0,0.0,0.0,0.024959564,0.0,0.0,0.0,0.0,0.0,0.0,0.0017393247,0.0017393247,-0.0014876239,-0.0018628538,-0.003455624,0.018807322,0.0002965331,0.0,0.0,0.0,0.0,0.0,0.0
283515959,283325671,0.11401384,0.070922986,-0.08441831,0.045053482,0.07764435,0.04259491,0.0,0.0,0.0,0.0,0.0,0.0,0.0,-0.09964752,0.0,0.0,0.0,0.0,0.0,0.0,0.0019746572,0.0019746572,-0.002652023,-0.001735419,-0.11665909,0.055325277,-0.012749493,0.0,0.0,0.0,0.0,0.0,0.0
284015966,283825671,0.110382594,-0.079830885,-0.053669892,0.011671066,0.042801857,-0.054792404,0.0,0.0,0.0,0.0,0.0,0.0,0.0,-0.11982536,0.0,0.0,0.0,0.0,0.0,0.0,0.003304541,0.00086995756,0.0018943772,0.003304541,-0.27154207,-0.106834024,-0.051692605,0.0,0.0,0.0,0.0,0.0,0.0
284515981,284325671,0.05663611,0.06317216,-0.1088418,-0.0064020157,0.04267025,-0.023639679,0.0,0.0,0.0,0.0,0.0,0.0,0.0,0.35469246,0.0,0.0,0.0,0.0,0.0,0.0,0.0058877645,0.0058877645,0.0014538914,-0.00077551603,-0.25365874,-0.08842797,-0.03638953,0.0,0.0,0.0,0.0,0.0,0.0
285015976,284825671,-0.04331121,-0.15079764,-0.09183485,-0.054210663,0.02881813,-0.058094025,0.0,0.0,0.0,0.0,0.0,0.0,0.0,-0.022924423,0.0,0.0,0.0,0.0,0.0,0.0,0.0054126256,0.0054126256,0.0014531612,0.0005853772,0.08288159,0.06434976,-0.011249363,0.0,0.0,0.0,0.0,0.0,0.0
285515967,285325671,-0.023131788,-0.051296234,-0.20344296,-0.0988884,0.042090416,-0.058094025,0.0,0.0,0.0,0.0,0.0,0.0,0.0,0.0033683777,0.0,0.0,0.0,0.0,0.0,0.0,0.00635296,0.00635296,0.0017603189,-0.00018790364,0.1688602,0.071757436,-0.033777952,0.0,0.0,0.0,0.0,0.0,0.0
286015991,285825670,-0.022071958,0.054240555,-0.17668508,-0.0894351,0.07422161,-0.058094025,0.0,0.0,0.0,0.0,0.0,0.0,0.0,0.22580719,0.0,0.0,0.0,0.0,0.0,0.0,0.00453732,0.00453732,0.0022438169,0.00058084726,-0.11223515,-0.013160177,0.004535854,0.0,0.0,0.0,0.0,0.0,0.0
286515976,286325671,-0.030696332,0.033264816,-0.105987534,-0.06745052,0.1342907,-0.058094025,0.0,0.0,0.0,0.0,0.0,0.0,0.0,-0.45864868,0.0,0.0,0.0,0.0,0.0,0.0,0.004632339,0.004632339,0.0010354668,0.0019800365,0.25139958,-0.01097022,-0.057612658,0.0,0.0,0.0,0.0,0.0,0.0
287015977,286825671,-0.023311198,0.08733338,-0.18793458,-0.047776222,0.16865158,-0.058094025,0.0,0.0,0.0,0.0,0.0,0.0,0.0,-0.43361282,0.0,0.0,0.0,0.0,0.0,0.0,0.003915449,0.003915449,0.0036599636,0.0023376942,0.124872,0.12098606,-0.010926247,0.0,0.0,0.0,0.0,0.0,0.0
287515991,287325671,-0.19968843,-0.037914902,-0.16270183,-0.055352926,0.19871712,-0.058094025,0.0,0.0,0.0,0.0,0.0,0.0,0.0,-0.556345,0.0,0.0,0.0,0.0,0.0,0.0,0.003152363,0.0030771804,0.003152363,0.0027270317,-0.33082953,0.010550097,-0.042779565,0.0,0.0,0.0,0.0,0.0,0.0
288015961,287825671,-0.15756735,0.08117351,-0.18948454,-0.093337536,0.19328976,-0.058094025,0.0,0.0,0.0,0.0,0.0,0.0,0.0,-0.5781555,0.0,0.0,0.0,0.0,0.0,0.0,0.0032794476,0.0026598757,0.0023163483,0.0032794476,-0.21725728,0.061957486,-0.011962652,0.0,0.0,0.0,0.0,0.0,0.0
288515983,288325671,-0.303501,0.038112566,-0.22978324,-0.1450193,0.24051857,-0.058094025,0.0,0.0,0.0,0.0,0.0,0.0,0.0,-0.38888168,0.0,0.0,0.0,0.0,0.0,0.0,0.0037866458,0.003127128,0.0037866458,0.0023848116,-0.16015114,0.086307555,-0.0034766793,0.0,0.0,0.0,0.0,0.0,0.0
289015978,288825671,-0.15045115,-0.16500211,-0.3379018,-0.19130039,0.21909809,-0.058094025,0.0,0.0,0.0,0.0,0.0,0.0,0.0,-0.5160103,0.0,0.0,0.0,0.0,0.0,0.0,0.0036098168,0.0036098168,0.0021005645,0.000677675,-0.23435539,-0.030931287,-0.020604432,0.0,0.0,0.0,0.0,0.0,0.0
289515964,289325671,-0.42840332,0.1418862,-0.25651398,-0.3083849,0.26361275,-0.058094025,0.0,0.0,0.0,0.0,0.0,0.0,0.0,-0.4648571,0.0,0.0,0.0,0.0,0.0,0.0,0.0019887313,0.0015893325,0.0019887313,0.0011973679,-0.15683499,0.057371847,-0.005315125,0.0,0.0,0.0,0.0,0.0,0.0
290015956,289825671,0.18456894,0.40100485,-0.19552691,-0.20015025,0.3667221,-0.058094025,0.0,0.0,0.0,0.0,0.0,0.0,0.0,-0.15735626,0.0,0.0,0.0,0.0,0.0,0.0,0.0041162977,0.0041162977,0.0023864508,-0.015820712,0.0009285733,0.06012304,0.002194941,0.0,0.0,0.0,0.0,0.0,0.0
290515974,290325671,0.35374746,0.03663802,-0.4195171,-0.1142509,0.47437954,-0.058094025,0.0,0.0,0.0,0.0,0.0,0.0,0.0,-0.65714836,0.0,0.0,0.0,0.0,0.0,0.0,0.0032625627,0.0032625627,0.0016089678,-0.00018700957,0.06563794,0.005175514,-0.0022204518,0.0,0.0,0.0,0.0,0.0,0.0
291016007,290825671,0.17523807,-0.110694766,-0.2077938,-0.12003517,0.49115753,-0.058094025,0.0,0.0,0.0,0.0,0.0,0.0,0.0,-0.3432331,0.0,0.0,0.0,0.0,0.0,0.0,0.0029666594,0.0029666594,0.0026564747,-0.006696224,-0.099104986,-0.018820561,-0.0038316846,0.0,0.0,0.0,0.0,0.0,0.0
291515963,291325671,-0.1032657,-0.08691853,-0.12370801,-0.14940524,0.51319313,-0.058094025,0.0,0.0,0.0,0.0,0.0,0.0,0.0,-0.805563,0.0,0.0,0.0,0.0,0.0,0.0,0.003625504,0.003625504,0.0005738959,-0.0010553598,0.14565845,-0.017391298,-0.012507498,0.0,0.0,0.0,0.0,0.0,0.0
292015957,291825671,-0.25716484,0.5328889,-0.158827,-0.14187622,0.77502537,-0.058094025,0.0,0.0,0.0,0.0,0.0,0.0,0.0,-0.5971031,0.0,0.0,0.0,0.0,0.0,0.0,0.0027404733,0.0027404733,0.00019647926,0.00062191486,0.022784669,-0.048460886,-0.0021133423,0.0,0.0,0.0,0.0,0.0,0.0
292516007,292325671,-0.16357982,0.07736349,-0.14559728,-0.27601218,0.8449154,-0.058094025,0.0,0.0,0.0,0.0,0.0,0.0,0.0,-0.5528393,0.0,0.0,0.0,0.0,0.0,0.0,0.0040069376,0.0040069376,0.001098603,-7.715821e-05,-0.29706314,-0.12395425,-0.05179864,0.0,0.0,0.0,0.0,0.0,0.0
293015972,292825671,-0.10466766,0.17553154,-0.21848394,-0.23238647,0.95857906,-0.058094025,0.0,0.0,0.0,0.0,0.0,0.0,0.0,-0.8763714,0.0,0.0,0.0,0.0,0.0,0.0,0.002577451,0.002577451,0.0020311326,0.0003517568,-0.014478354,-0.0498125,-0.0012342334,0.0,0.0,0.0,0.0,0.0,0.0
293515956,293325671,-0.35332787,0.22697683,-0.14002061,-0.46015912,1.1984015,-0.058094025,0.0,0.0,0.0,0.0,0.0,0.0,0.0,-0.5737343,0.0,0.0,0.0,0.0,0.0,0.0,0.0034423582,0.0034423582,0.00074800104,-0.000117242336,-0.30743688,-0.08202957,-0.043868005,0.0,0.0,0.0,0.0,0.0,0.0
294015957,293825671,-0.21369922,-0.136429,-0.29474187,-0.5818015,1.1643124,-0.058094025,0.0,0.0,0.0,0.0,0.0,0.0,0.0,-0.60495186,0.0,0.0,0.0,0.0,0.0,0.0,0.0015642027,0.0015642027,0.0010492131,0.0006509423,-0.119076595,0.006383086,-0.009359598,0.0,0.0,0.0,0.0,0.0,0.0
294515979,294325671,-0.10238159,0.2995595,-0.12641107,-0.6717171,1.346055,-0.058094025,0.0,0.0,0.0,0.0,0.0,0.0,0.0,-1.0258884,0.0,0.0,0.0,0.0,0.0,0.0,0.001623204,0.001623204,0.00080222636,-0.0033225417,-0.021370284,-0.0267471,-0.0011199713,0.0,0.0,0.0,0.0,0.0,0.0
295015973,294825671,-0.8935795,0.4046469,-0.1791227,-1.0692009,1.5687609,-0.058094025,0.0,0.0,0.0,0.0,0.0,0.0,0.0,-0.8120842,0.0,0.0,0.0,0.0,0.0,0.0,0.0019688457,0.0002375396,0.0019688457,0.00042900443,-0.0040198285,0.080154054,-0.0033324957,0.0,0.0,0.0,0.0,0.0,0.0
295515956,295325671,-0.6054697,0.41404814,-0.36480495,-1.3425223,1.806243,-0.058094025,0.0,0.0,0.0,0.0,0.0,0.0,0.0,-1.0448437,0.0,0.0,0.0,0.0,0.0,0.0,0.0008641929,0.0008641929,0.00045517832,-5.5909157e-05,0.0062240046,0.06742585,-0.002118826,0.0,0.0,0.0,0.0,0.0,0.0
296015962,295825671,0.05736065,0.36844647,-0.42342335,-1.4350898,1.973566,-0.058094025,0.0,0.0,0.0,0.0,0.0,0.0,0.0,-0.7905407,0.0,0.0,0.0,0.0,0.0,0.0,0.0016393478,0.0016393478,-8.648634e-05,-3.325939e-05,0.12875044,0.012626236,-0.007779062,0.0,0.0,0.0,0.0,0.0,0.0
297015977,296825671,-1.4086466,0.6655364,-0.4238512,-1.8330214,2.2646132,-0.058094025,0.0,0.0,0.0,0.0,0.0,0.0,0.0,-0.3670025,0.0,0.0,0.0,0.0,0.0,0.0,0.0020591915,-0.0058968086,0.0018536672,0.0020591915,-0.18639308,0.3140871,0.050016582,0.0,0.0,0.0,0.0,0.0,0.0
297515971,297325671,-1.628498,0.51659644,-0.1934197,-2.4443572,2.5070248,0.0,0.0,0.0,0.0,0.0,0.0,0.0,0.0,0.56492805,0.0,0.0,0.0,0.0,0.0,0.0,0.001469453,0.001469453,0.00018159673,0.00075513124,-0.14665937,0.08127993,0.02778703,0.0,0.0,0.0,0.0,0.0,0.0
298516089,298325671,-0.8648858,0.26797217,-0.08602528,-2.9292312,2.6389008,0.0,0.0,0.0,0.0,0.0,0.0,0.0,0.0,0.090545654,0.0,0.0,0.0,0.0,0.0,0.0,0.0015075095,-0.0018671746,0.0015075095,-0.0010983348,-0.056301482,0.03222035,0.00887382,0.0,0.0,0.0,0.0,0.0,0.0
299015962,298825671,-0.8433796,0.13497153,-0.10942481,-3.2420642,2.653871,0.0,0.0,0.0,0.0,0.0,0.0,0.0,0.0,0.4363041,0.0,0.0,0.0,0.0,0.0,0.0,0.0005361736,-0.0006758,-0.00010781735,0.0005361736,0.1639207,0.044322994,-0.03678131,0.0,0.0,0.0,0.0,0.0,0.0
299515942,299325671,-0.5881226,0.034974217,-0.143525,-3.4297056,2.6516962,0.0,0.0,0.0,0.0,0.0,0.0,0.0,0.0,-0.24673271,0.0,0.0,0.0,0.0,0.0,0.0,0.0025889874,0.0009564414,-0.00020959228,0.0025889874,-0.26837575,-0.1468834,-0.013846815,0.0,0.0,0.0,0.0,0.0,0.0
300015948,299825671,-0.5867264,0.17754784,-0.35002232,-3.664668,2.7466674,0.0,0.0,0.0,0.0,0.0,0.0,0.0,0.0,-1.0248775,0.0,0.0,0.0,0.0,0.0,0.0,0.0007191226,-0.0018070622,0.0007191226,-0.004924655,0.0025528073,-0.13566545,-0.02538073,0.0,0.0,0.0,0.0,0.0,0.0
300515979,300325671,-0.58353615,0.3004585,-0.31634656,-3.9969382,2.7471848,0.0,0.0,0.0,0.0,0.0,0.0,0.0,0.0,-0.61611557,0.0,0.0,0.0,0.0,0.0,0.0,0.00065340847,-0.0007487484,0.00065340847,-0.0009828806,-0.0327657,-0.26127824,-0.050667763,0.0,0.0,0.0,0.0,0.0,0.0
301016089,300825671,-0.43582845,0.22206384,-0.23278427,-4.289218,2.8299274,0.0,0.0,0.0,0.0,0.0,0.0,0.0,0.0,-0.0,0.0,0.0,0.0,0.0,0.0,0.0,0.0031291172,0.00018948535,0.0031291172,-0.0019133687,-0.12279024,-0.08042715,-0.011069953,0.0,0.0,0.0,0.0,0.0,0.0
301516085,301325671,-0.6116357,0.22963941,-0.17209047,-4.6465983,2.9916077,0.0,0.0,0.0,0.0,0.0,0.0,0.0,0.0,0.32630157,0.0,0.0,0.0,0.0,0.0,0.0,0.0005344376,-0.00028184362,0.0005344376,-0.0015640855,-0.026011942,-0.055106834,-0.002309978,0.0,0.0,0.0,0.0,0.0,0.0
302015947,301825671,-0.5857358,0.4654755,-0.16563475,-4.9340186,3.1955853,0.0,0.0,0.0,0.0,0.0,0.0,0.0,0.0,-0.0,0.0,0.0,0.0,0.0,0.0,0.0,0.000989303,-0.00079294486,0.000989303,0.0006660521,0.40821722,-0.047134496,-0.0877012,0.0,0.0,0.0,0.0,0.0,0.0
302516096,302325671,-0.39921856,0.32871914,-0.25639415,-5.1693597,3.2675667,0.0,0.0,0.0,0.0,0.0,0.0,0.0,0.0,-0.0,0.0,0.0,0.0,0.0,0.0,0.0,0.00043068826,0.00023765146,0.00043068826,-0.0009113848,-0.13240623,-0.035205964,-0.00965333,0.0,0.0,0.0,0.0,0.0,0.0
303015966,302825671,-0.42246902,0.64448893,-0.1968975,-5.4848757,3.4923382,0.0,0.0,0.0,0.0,0.0,0.0,0.0,0.0,-0.0,0.0,0.0,0.0,0.0,0.0,0.0,0.0025276244,-0.0006718621,0.0005039796,0.0025276244,0.108961344,0.10165413,-0.010353208,0.0,0.0,0.0,0.0,0.0,0.0
303516097,303325671,-0.614977,0.53593373,-0.26034153,-5.797797,3.746696,0.0,0.0,0.0,0.0,0.0,0.0,0.0,0.0,-0.0,0.0,0.0,0.0,0.0,0.0,0.0,0.00015047193,-0.00029476738,0.00015047193,-0.000101059675,0.16410679,-0.050418485,-0.014065325,0.0,0.0,0.0,0.0,0.0,0.0
304015965,303825671,-0.3280722,0.82672805,-0.35176623,-5.936474,3.9236436,0.0,0.0,0.0,0.0,0.0,0.0,0.0,0.0,-0.0,0.0,0.0,0.0,0.0,0.0,0.0,-0.000667423,-0.0009313043,-0.002344437,-0.000667423,0.175928,0.08044651,-0.008981168,0.0,0.0,0.0,0.0,0.0,0.0
305015964,304825671,-0.48796356,0.5197244,-0.4533769,-6.2893486,4.2971535,0.0,0.0,0.0,0.0,0.0,0.0,0.0,0.0,-0.0,0.0,0.0,0.0,0.0,0.0,0.0,0.0012606084,-0.0013937154,-0.0010812059,0.0012606084,-0.092447825,0.03838002,-0.005102694,0.0,0.0,0.0,0.0,0.0,0.0
305515959,305325671,-0.69747674,0.62707555,-0.4353255,-6.620796,4.552678,0.0,0.0,0.0,0.0,0.0,0.0,0.0,0.0,-0.0,0.0,0.0,0.0,0.0,0.0,0.0,-3.221631e-05,-0.0010751312,-0.000613749,-3.221631e-05,0.24730222,0.08798456,-0.03703761,0.0,0.0,0.0,0.0,0.0,0.0
306016079,305825671,-0.7588087,0.7621124,-0.39777255,-6.953472,4.7794642,0.0,0.0,0.0,0.0,0.0,0.0,0.0,0.0,-0.0,0.0,0.0,0.0,0.0,0.0,0.0,0.0010176538,0.0010176538,-0.00040832162,-0.00088861585,0.2332896,0.0461796,-0.03182,0.0,0.0,0.0,0.0,0.0,0.0
306515945,306325671,-0.79081106,0.72692144,-0.48075855,-7.2069054,4.985004,0.0,0.0,0.0,0.0,0.0,0.0,0.0,0.0,-0.0,0.0,0.0,0.0,0.0,0.0,0.0,0.0014970899,-0.0014521366,-0.00037921965,0.0014970899,0.3598418,0.07542968,-0.06694251,0.0,0.0,0.0,0.0,0.0,0.0
307015962,306825671,-0.86576235,0.73157156,-0.50949514,-7.5118656,5.244419,0.0,0.0,0.0,0.0,0.0,0.0,0.0,0.0,-0.0,0.0,0.0,0.0,0.0,0.0,0.0,0.0025096238,-0.0003284972,-0.002072066,0.0025096238,0.12014757,-0.11442443,-0.013869286,0.0,0.0,0.0,0.0,0.0,0.0
307516007,307325671,-0.74563396,0.757486,-0.43582165,-7.7653837,5.5215526,-4.9729643,0.0,0.0,0.0,0.0,0.0,0.0,0.0,-0.0,0.0,0.0,0.0,0.0,0.0,0.0,0.0009153187,-0.001408411,-0.0019073412,0.0009153187,-0.043010365,0.010725539,-0.0011983514,0.0,0.0,0.0,0.0,0.0,0.0
308015958,307825671,0.05714941,0.120003775,-0.23000288,0.013240814,-0.0020256042,0.099699974,0.0,0.0,0.0,0.0,0.0,0.0,0.0,-0.0,0.0,0.0,0.0,0.0,0.0,0.0,-0.00049323594,-0.00049323594,-0.00216382,-0.0018873215,-0.18676703,-0.2268437,-0.04026115,0.0,0.0,0.0,0.0,0.0,0.0
308515961,308325671,0.04720211,0.006041974,-0.055935025,0.029055595,-0.036714554,0.15070248,0.0,0.0,0.0,0.0,0.0,0.0,0.0,-0.0,0.0,0.0,0.0,0.0,0.0,0.0,-0.00019428134,-0.0018688773,-0.0049978793,-0.00019428134,0.051311977,-0.07898289,-0.0067107677,0.0,0.0,0.0,0.0,0.0,0.0
309016014,308825671,0.36999547,-0.21405914,-0.55047905,0.020693779,-0.05709076,0.28290462,0.0,0.0,0.0,0.0,0.0,0.0,0.0,-0.0,0.0,0.0,0.0,0.0,0.0,0.0,0.010174066,0.00284705,-0.005196288,0.010174066,-0.048231132,-0.24500808,0.03875196,0.0,0.0,0.0,0.0,0.0,0.0
309515978,309325671,0.5218048,-0.16938734,-1.220192,0.057883263,-0.027809143,0.2816925,0.0,0.0,0.0,0.0,0.0,0.0,0.0,-0.0,0.0,0.0,0.0,0.0,0.0,0.0,0.01028049,0.0026641767,-0.0077669173,0.01028049,-0.09964377,-0.1732094,0.034935713,0.0,0.0,0.0,0.0,0.0,0.0
310015959,309825671,0.02285552,0.09855509,-1.5351757,-0.053581715,0.023147583,0.40176678,0.0,0.0,0.0,0.0,0.0,0.0,0.0,-0.0,0.0,0.0,0.0,0.0,0.0,0.0,0.0043610036,-0.0031402828,-0.01116322,0.0043610036,-0.24662751,0.036160015,-0.016214967,0.0,0.0,0.0,0.0,0.0,0.0
310515958,310325671,-0.22763395,0.1639595,-1.0188651,-0.09584999,-0.037929535,0.655632,0.0,0.0,0.0,0.0,0.0,0.0,0.0,-0.0,0.0,0.0,0.0,0.0,0.0,0.0,0.0007609129,-0.004027374,-0.008980926,0.0007609129,0.024916466,0.19636512,0.0114892125,0.0,0.0,0.0,0.0,0.0,0.0
311015975,310825671,-0.45462644,0.093046784,-0.31771374,-0.10447407,-0.09766388,0.7112198,0.0,0.0,0.0,0.0,0.0,0.0,0.0,-0.0,0.0,0.0,0.0,0.0,0.0,0.0,0.0032478273,-0.0049769673,-0.0052369274,0.0032478273,0.022357365,0.32621273,0.02676779,0.0,0.0,0.0,0.0,0.0,0.0
312015961,311825671,-0.7855564,0.71994,1.7576015,-0.25662208,0.029221535,0.7483797,0.0,0.0,0.0,0.0,0.0,0.0,0.0,-0.0,0.0,0.0,0.0,0.0,0.0,0.0,0.0038425028,-0.003620139,0.0021968363,0.0038425028,0.11328025,0.30089095,0.016257823,0.0,0.0,0.0,0.0,0.0,0.0
312515987,312325671,-0.6716057,0.542621,1.4878145,-0.45054173,0.20226479,0.7483797,0.0,0.0,0.0,0.0,0.0,0.0,0.0,-0.0,0.0,0.0,0.0,0.0,0.0,0.0,0.0024572313,-0.0019423893,0.0024572313,0.0019704401,-0.015800068,0.17091304,0.00032633543,0.0,0.0,0.0,0.0,0.0,0.0
313015981,312825671,-0.27303705,0.01589989,1.3148855,-0.4718628,0.15787125,0.7483797,0.0,0.0,0.0,0.0,0.0,0.0,0.0,0.11841011,0.0,0.0,0.0,0.0,0.0,0.0,0.0063010454,-0.0012397182,0.0026094913,0.0063010454,-0.1360049,0.027224954,-0.00025504827,0.0,0.0,0.0,0.0,0.0,0.0
313515976,313325671,-0.2754958,-0.0032728426,1.1533246,-0.60890055,0.09989643,0.7483797,0.0,0.0,0.0,0.0,0.0,0.0,0.0,0.57446766,0.0,0.0,0.0,0.0,0.0,0.0,0.0021268427,-0.0014885799,0.0021268427,0.0009750426,-0.27742368,0.005896516,-0.02190125,0.0,0.0,0.0,0.0,0.0,0.0
314015989,313825671,-0.049395986,-0.028386973,0.89677835,-0.6445602,0.035064697,0.7483797,0.0,0.0,0.0,0.0,0.0,0.0,0.0,0.809103,0.0,0.0,0.0,0.0,0.0,0.0,0.0036735237,-0.0023200668,0.0036735237,0.0023339093,0.07349089,0.043880854,-0.0017246604,0.0,0.0,0.0,0.0,0.0,0.0
314515965,314325671,0.1854525,-0.14737177,0.73350745,-0.5822871,-0.038609505,0.7483797,0.0,0.0,0.0,0.0,0.0,0.0,0.0,0.95755196,0.0,0.0,0.0,0.0,0.0,0.0,0.0032679886,-0.0019015161,0.0032679886,0.0014168024,-0.22699744,0.12727751,-0.022852302,0.0,0.0,0.0,0.0,0.0,0.0
315015984,314825671,-0.0537338,-0.00097055733,0.70004034,-0.5914717,-0.0868969,0.7483797,0.0,0.0,0.0,0.0,0.0,0.0,0.0,0.8830776,0.0,0.0,0.0,0.0,0.0,0.0,0.0034744143,0.00033542071,0.0027370155,0.0034744143,-0.14019462,-0.042439606,-0.008055031,0.0,0.0,0.0,0.0,0.0,0.0
315515980,315325671,-0.07576522,0.06587851,0.66752374,-0.6223023,-0.08932209,0.7483797,0.0,0.0,0.0,0.0,0.0,0.0,0.0,1.1450357,0.0,0.0,0.0,0.0,0.0,0.0,0.0018241927,-0.0009869061,0.0018241927,0.0003155172,0.17450686,0.02170634,-0.017908216,0.0,0.0,0.0,0.0,0.0,0.0
316015966,315825671,0.01591976,-0.100730374,0.6495771,-0.55962205,-0.17190266,0.7483797,0.0,0.0,0.0,0.0,0.0,0.0,0.0,1.0624313,0.0,0.0,0.0,0.0,0.0,0.0,0.006685227,-0.0023561933,0.0032558143,0.006685227,-0.1827371,0.059691723,-0.014452577,0.0,0.0,0.0,0.0,0.0,0.0
316515953,316325671,-0.004539922,-0.088371456,0.7431681,-0.55189204,-0.24069595,0.7483797,0.0,0.0,0.0,0.0,0.0,0.0,0.0,1.5208435,0.0,0.0,0.0,0.0,0.0,0.0,0.00032882392,-0.0010154087,0.00032882392,-0.0006071925,-0.06604237,-0.048752666,-0.004504025,0.0,0.0,0.0,0.0,0.0,0.0
317015971,316825671,-0.19526769,-0.043011308,0.7056766,-0.5685134,-0.29484558,0.7483797,0.0,0.0,0.0,0.0,0.0,0.0,0.0,1.7153497,0.0,0.0,0.0,0.0,0.0,0.0,0.0019727275,-0.002265628,0.0019727275,0.00040447712,-0.12111041,0.15892749,0.0034600496,0.0,0.0,0.0,0.0,0.0,0.0
317516000,317325671,-0.16501772,-0.01565966,0.7347003,-0.57750154,-0.388175,0.7483797,0.0,0.0,0.0,0.0,0.0,0.0,0.0,1.7956061,0.0,0.0,0.0,0.0,0.0,0.0,0.006054245,-0.0011074549,0.006054245,-0.0004413128,-0.09178287,-0.042117286,-0.006955147,0.0,0.0,0.0,0.0,0.0,0.0
318015962,317825671,-0.0128439665,-0.38260764,0.62673557,-0.556926,-0.5851879,0.7483797,0.0,0.0,0.0,0.0,0.0,0.0,0.0,1.3349943,0.0,0.0,0.0,0.0,0.0,0.0,0.0018973053,-0.00057332875,0.0014021844,0.0018973053,-0.14305869,-0.049005397,-0.011007428,0.0,0.0,0.0,0.0,0.0,0.0
318515956,318325671,0.39066535,-0.041936368,0.39808333,-0.38504124,-0.6862564,0.7483797,0.0,0.0,0.0,0.0,0.0,0.0,0.0,1.8819847,0.0,0.0,0.0,0.0,0.0,0.0,0.0014085695,-0.00022048037,0.0014085695,0.00079131126,0.12949778,-0.09472944,-0.015350699,0.0,0.0,0.0,0.0,0.0,0.0
319016006,318825671,0.04844582,-0.3347745,0.1302005,-0.45787,-0.9834509,0.7483797,0.0,0.0,0.0,0.0,0.0,0.0,0.0,0.9891615,0.0,0.0,0.0,0.0,0.0,0.0,0.002839148,-0.0011908878,0.0025246367,0.002839148,0.061820284,0.29645815,-0.044051886,0.0,0.0,0.0,0.0,0.0,0.0
319515995,319325671,0.20139733,-0.19019498,0.016867638,-0.36911964,-1.140646,0.7483797,0.0,0.0,0.0,0.0,0.0,0.0,0.0,0.7210779,0.0,0.0,0.0,0.0,0.0,0.0,0.0015164018,0.00083610375,-0.00043793023,0.0015164018,-0.013133863,-0.021158729,-0.00045895576,0.0,0.0,0.0,0.0,0.0,0.0
