timestamp,timestamp_sample,ref_timestamp,ref_lat,ref_lon,x,y,z,delta_xy[0],delta_xy[1],delta_z,vx,vy,vz,z_deriv,delta_vxy[0],delta_vxy[1],delta_vz,ax,ay,az,heading,heading_var,unaided_heading,delta_heading,tilt_var,ref_alt,dist_bottom,eph,epv,evh,evv,vxy_max,vz_max,hagl_min,hagl_max,xy_valid,z_valid,v_xy_valid,v_z_valid,xy_reset_counter,z_reset_counter,vxy_reset_counter,vz_reset_counter,heading_reset_counter,heading_good_for_control,xy_global,z_global,dist_bottom_valid,dist_bottom_sensor_bitfield,dead_reckoning
200545989,200545672,42042859,60.1877325,24.832678599999998,0.04340976,-0.9810509,-3.101017,0.1979316,0.09433211,2.0861626e-07,-0.0013302235,-0.0055290502,0.030570652,0.05354184,-0.025199575,0.050895337,0.014763279,0.07378903,0.104314245,-0.11090478,-2.1918807,0.050289325,-0.014267945,0.0075809797,6.492692e-05,-9.696816,0.09488416,0.23999926,0.22709708,0.108340636,0.06463738,inf,inf,inf,inf,1,1,1,1,3,2,3,2,2,0,1,1,1,0,0
201045963,201045671,42042859,60.1877325,24.832678599999998,0.042708874,-0.9876676,-3.0757227,0.1979316,0.09433211,2.0861626e-07,0.0005039675,0.0017482532,0.030468415,0.051815554,-0.025199575,0.050895337,0.014763279,-0.2072343,-0.16180886,-0.07680525,-2.1915383,0.050282795,-0.014280303,0.0075809797,6.4937936e-05,-9.696816,0.09350419,0.2403539,0.2277485,0.1084151,0.06469199,inf,inf,inf,inf,1,1,1,1,3,2,3,2,2,0,1,1,1,0,0
201545965,201545671,42042859,60.1877325,24.832678599999998,0.038095158,-0.9919042,-3.0509014,0.1979316,0.09433211,2.0861626e-07,-0.0012390435,0.008247436,0.030915136,0.050575763,-0.025199575,0.050895337,0.014763279,-0.020631906,0.061996542,-0.20419079,-2.190825,0.050265018,-0.014323656,0.0075809797,6.49353e-05,-9.696816,0.09200573,0.2406757,0.22790715,0.10842317,0.06468999,inf,inf,inf,inf,1,1,1,1,3,2,3,2,2,0,1,1,1,0,0
202045968,202045671,42042859,60.1877325,24.832678599999998,0.034985457,-0.993012,-3.0352302,0.1979316,0.09433211,2.0861626e-07,-0.0003281734,0.013629538,0.026670879,0.039684806,-0.025199575,0.050895337,0.014763279,-0.22049236,0.060064048,0.21354017,-2.190257,0.05024026,-0.014344824,0.0075809797,6.4944456e-05,-9.696816,0.089356184,0.24100749,0.22805357,0.10848816,0.064691834,inf,inf,inf,inf,1,1,1,1,3,2,3,2,2,0,1,1,1,0,0
202546031,202545671,42042859,60.1877325,24.832678599999998,0.028099865,-0.9966375,-3.0209515,0.1979316,0.09433211,2.0861626e-07,-0.00026365876,0.015359927,0.022876764,0.033309203,-0.025199575,0.050895337,0.014763279,-0.13956255,-0.1402174,0.07616486,-2.1894166,0.050210834,-0.014400697,0.0075809797,6.494087e-05,-9.696816,0.09447241,0.2412857,0.22864386,0.108487196,0.06473519,inf,inf,inf,inf,1,1,1,1,3,2,3,2,2,0,1,1,1,0,0
203045955,203045675,42042859,60.1877325,24.832678599999998,0.018218052,-1.001898,-3.0061867,0.1979316,0.09433211,2.0861626e-07,-0.0036455386,0.015676156,0.019498326,0.029001025,-0.025199575,0.050895337,0.014763279,0.22620116,0.20848268,-0.3969976,-2.1885827,0.05018717,-0.014388484,0.0075809797,6.494977e-05,-9.696816,0.09633279,0.24156459,0.22874005,0.108490676,0.06473324,inf,inf,inf,inf,1,1,1,1,3,2,3,2,2,0,1,1,1,0,0
203546008,203545719,42042859,60.1877325,24.832678599999998,0.005435685,-1.0101956,-2.989311,0.1979316,0.09433211,2.0861626e-07,-0.011404753,0.008766508,0.020618169,0.031592175,-0.025199575,0.050895337,0.014763279,-0.0035887042,0.05892657,-0.18370803,-2.1881123,0.05016969,-0.014502273,0.0075809797,6.495247e-05,-9.696816,0.09717965,0.24180964,0.22880992,0.10847873,0.06472478,inf,inf,inf,inf,1,1,1,1,3,2,3,2,2,0,1,1,1,0,0
204045996,204045714,42042859,60.1877325,24.832678599999998,-0.0076841344,-1.0114745,-2.9681323,0.1979316,0.09433211,2.0861626e-07,-0.0147595145,0.010182241,0.021642148,0.0373097,-0.025199575,0.050895337,0.014763279,0.6394674,-0.2943248,0.20064154,-2.1874275,0.050159033,-0.014442917,0.0075809797,6.49615e-05,-9.696816,0.10233188,0.24209309,0.2294033,0.10851269,0.06477572,inf,inf,inf,inf,1,1,1,1,3,2,3,2,2,0,1,1,1,0,0
204545970,204545709,42042859,60.1877325,24.832678599999998,-0.015670897,-1.0015488,-2.9424438,0.1979316,0.09433211,2.0861626e-07,-0.018284878,0.015527564,0.029098244,0.049487416,-0.025199575,0.050895337,0.014763279,-0.35300285,-0.1375344,0.02970302,-2.1869175,0.05015121,-0.014541161,0.0075809797,6.496876e-05,-9.696816,0.09907794,0.24233681,0.22949947,0.108501434,0.064770564,inf,inf,inf,inf,1,1,1,1,3,2,3,2,2,0,1,1,0,0,0
205045973,205045704,42042859,60.1877325,24.832678599999998,-0.01736505,-1.0053998,-2.921162,0.1979316,0.09433211,2.0861626e-07,-0.01358288,0.016402956,0.022465596,0.039569885,-0.025199575,0.050895337,0.014763279,0.08307284,-1.1540332,1.0011785,-2.1861029,0.050143126,-0.014456275,0.0075809797,6.499715e-05,-9.696816,0.09178519,0.24257915,0.22957392,0.108562544,0.06476804,inf,inf,inf,inf,1,1,1,1,3,2,3,2,2,0,1,1,0,0,0
205546023,205545699,42042859,60.1877325,24.832678599999998,-0.00091635494,-1.0200459,-2.9261084,0.1979316,0.09433211,2.0861626e-07,0.10335664,-0.060625605,-0.05660199,-0.049303286,-0.025199575,0.050895337,0.014763279,0.8581396,0.9076929,1.3614309,-2.1805012,0.050079945,-0.009014873,0.0075809797,6.498549e-05,-9.696816,0.103770494,0.24278888,0.22964014,0.10919951,0.06476092,inf,inf,inf,inf,1,1,1,1,3,2,3,2,2,0,1,1,0,0,0
206045981,206045694,42042859,60.1877325,24.832678599999998,0.09030446,-1.0548931,-3.0393908,0.1979316,0.09433211,2.0861626e-07,0.21582073,-0.03720034,-0.36192074,-0.35671252,-0.025199575,0.050895337,0.014763279,-0.73604107,-0.2910505,-2.5772703,-2.1106591,0.047318615,0.053941812,0.0075809797,6.477565e-05,-9.696816,0.21705294,0.24301296,0.23020563,0.114894316,0.06481511,inf,inf,inf,inf,1,1,1,1,3,2,3,2,2,0,1,1,0,0,0
207045959,207045684,42042859,60.1877325,24.832678599999998,0.18779309,-1.035468,-3.5910542,0.1979316,0.09433211,2.0861626e-07,-0.07589356,0.031774376,-0.7762495,-0.7541344,-0.025199575,0.050895337,0.014763279,-2.3176591,-1.110466,2.1340544,-2.0530858,0.04126461,0.099712394,0.0075809797,6.394017e-05,-9.696816,0.76871634,0.24348705,0.23024991,0.11286371,0.06481362,inf,inf,inf,inf,1,1,1,1,3,2,3,2,2,0,1,1,0,0,0
207545975,207545678,42042859,60.1877325,24.832678599999998,0.13388427,-1.0300058,-4.0032864,0.1979316,0.09433211,2.0861626e-07,-0.17137301,0.060914196,-0.9363951,-0.9083584,-0.025199575,0.050895337,0.014763279,-0.7479164,-0.33816645,-0.48348957,-2.0746908,0.03707626,0.07059538,0.0075809797,6.3362735e-05,-9.696816,1.1809485,0.24368982,0.230722,0.11472189,0.064862646,inf,inf,inf,inf,1,1,1,1,3,2,3,2,2,0,1,1,0,0,0
208045967,208045674,42042859,60.1877325,24.832678599999998,0.03970678,-1.009428,-4.4911976,0.1979316,0.09433211,2.0861626e-07,-0.19046651,0.0685048,-1.0824215,-1.0548424,-0.025199575,0.050895337,0.014763279,1.0208442,-1.4940982,-1.3558778,-2.1467798,0.033330604,-0.011382904,0.0075809797,6.315418e-05,-9.696816,1.6688597,0.24393505,0.23069221,0.11531067,0.06487707,inf,inf,inf,inf,1,1,1,1,3,2,3,2,2,0,1,1,0,0,0
208545957,208545672,42042859,60.1877325,24.832678599999998,-0.0116001135,-0.994434,-5.0433903,0.1979316,0.09433211,2.0861626e-07,-0.09299041,-0.016656596,-1.1516752,-1.1326178,-0.025199575,0.050895337,0.014763279,0.9567699,-2.0990474,0.8307873,-2.2255058,0.06621641,-0.059509214,-0.03770409,6.3066895e-05,-9.696816,2.2210524,0.24417894,0.23064192,0.11231791,0.06488498,inf,inf,inf,inf,1,1,1,1,3,2,3,2,3,0,1,1,0,0,0
209045947,209045670,42042859,60.1877325,24.832678599999998,-0.093691535,-1.0572366,-5.654667,0.1979316,0.09433211,2.0861626e-07,-0.28752172,-0.3094901,-1.251953,-1.2533112,-0.025199575,0.050895337,0.014763279,0.40859365,-1.1407638,-1.7407516,-2.2058947,0.060854357,-0.050335713,-0.03770409,6.32181e-05,-9.696816,2.832329,0.24441123,0.23107098,0.11943548,0.06495102,inf,inf,inf,inf,1,1,1,1,3,2,3,2,3,0,1,1,0,0,0
209545966,209545671,42042859,60.1877325,24.832678599999998,-0.3014231,-1.3464717,-6.3342156,0.1979316,0.09433211,2.0861626e-07,-0.572503,-0.80024064,-1.3845017,-1.4034152,-0.025199575,0.050895337,0.014763279,-0.89018095,-2.0091026,-1.4425853,-2.0972185,0.03797374,0.028923184,-0.03770409,6.412029e-05,-9.696816,3.5118778,0.2446101,0.2309809,0.15367483,0.06500315,inf,inf,inf,inf,1,1,1,1,3,2,3,2,3,1,1,1,0,0,0
210045967,210045671,42042859,60.1877325,24.832678599999998,-0.65371585,-1.9113652,-7.055823,0.1979316,0.09433211,2.0861626e-07,-0.9056293,-1.4213995,-1.4244742,-1.4492849,-0.025199575,0.050895337,0.014763279,-0.39409897,-0.8543591,-1.7835187,-1.9905026,0.01691475,0.11899647,-0.03770409,6.57662e-05,-9.696816,4.233485,0.24484642,0.23088169,0.1601179,0.06507505,inf,inf,inf,inf,1,1,1,1,3,2,3,2,3,1,1,1,0,0,0
210545980,210545671,42042859,60.1877325,24.832678599999998,-1.1633784,-2.7741234,-7.8044844,0.1979316,0.09433211,2.0861626e-07,-1.15833,-1.9560262,-1.4465871,-1.4800537,-0.025199575,0.050895337,0.014763279,0.030519933,-1.9761769,0.32909644,-1.9848491,0.008162278,0.11364499,-0.03770409,6.737971e-05,-9.696816,4.9821463,0.24506044,0.23075025,0.14718382,0.06514828,inf,inf,inf,inf,1,1,1,1,3,2,3,2,3,1,1,1,0,0,0
211545971,211545671,42042859,60.1877325,24.832678599999998,-2.4092064,-5.185507,-9.378676,0.1979316,0.09433211,2.0861626e-07,-1.2046245,-2.604134,-1.738886,-1.7720215,-0.025199575,0.050895337,0.014763279,-1.338857,-3.6152232,-0.056582883,-1.9308938,0.0040370086,0.17794357,-0.03770409,7.0777045e-05,-9.696816,6.5563383,0.24554324,0.23098448,0.12131372,0.06520394,inf,inf,inf,inf,1,1,1,1,3,2,3,2,3,1,1,1,0,0,0
212045963,212045671,42042859,60.1877325,24.832678599999998,-2.998798,-6.517009,-10.229386,0.1979316,0.09433211,2.0861626e-07,-1.111545,-2.5488071,-1.2612505,-1.2871861,-0.025199575,0.050895337,0.014763279,-3.2230287,3.4588919,1.0800561,-1.9612213,0.003756644,0.14474705,-0.03770409,7.2125025e-05,-9.696816,7.407048,0.24576801,0.23086247,0.1123284,0.06512942,inf,inf,inf,inf,1,1,1,1,3,2,3,2,3,1,1,1,0,0,0
212545957,212545672,42042859,60.1877325,24.832678599999998,-3.5506823,-7.7876163,-10.652753,0.1979316,0.09433211,2.0861626e-07,-0.9811126,-2.4051704,-0.6825735,-0.7232746,-0.025199575,0.050895337,0.014763279,-1.6324792,0.7413216,-0.7892946,-1.9648428,0.0037223783,0.14306429,-0.03770409,7.33359e-05,-9.696816,7.830415,0.24593064,0.23128974,0.10786924,0.0651318,inf,inf,inf,inf,1,1,1,1,3,2,3,2,3,1,1,1,0,0,0
213045946,213045671,42042859,60.1877325,24.832678599999998,-3.9658961,-8.825419,-11.060692,0.1979316,0.09433211,2.0861626e-07,-0.5534144,-1.6260864,-0.6689773,-0.7454311,-0.025199575,0.050895337,0.014763279,-1.4861139,2.1158066,-0.124572404,-1.9597918,0.003521848,0.14827889,-0.03770409,7.2378476e-05,-9.696816,8.238354,0.2462425,0.23139653,0.11943125,0.06514817,inf,inf,inf,inf,1,1,1,1,3,2,3,2,3,1,1,1,0,0,0
213545964,213545671,42042859,60.1877325,24.832678599999998,-4.177203,-9.472533,-11.4030695,0.1979316,0.09433211,2.0861626e-07,-0.23298329,-0.86805606,-0.59263355,-0.66820323,-0.025199575,0.050895337,0.014763279,-1.210024,0.13950709,1.2848397,-1.9371744,0.0026220675,0.17586009,-0.03770409,6.788569e-05,-9.696816,8.580731,0.246829,0.23175538,0.1354653,0.06532472,inf,inf,inf,inf,1,1,1,1,3,2,3,2,3,1,1,1,0,0,0
214045966,214045671,42042859,60.1877325,24.832678599999998,-4.248658,-9.803576,-11.713691,0.1979316,0.09433211,2.0861626e-07,-0.059864417,-0.38385394,-0.62708354,-0.6799666,-0.025199575,0.050895337,0.014763279,-0.086157024,2.6517258,-1.4574709,-1.9194611,0.0018109411,0.1973963,-0.03770409,6.48946e-05,-9.696816,8.891353,0.24730821,0.23265488,0.13254324,0.065444335,inf,inf,inf,inf,1,1,1,1,3,2,3,2,3,1,1,1,0,0,0
214545949,214545671,42042859,60.1877325,24.832678599999998,-4.230302,-9.898881,-12.028839,0.1979316,0.09433211,2.0861626e-07,0.06215987,-0.07894094,-0.68726444,-0.7084137,-0.025199575,0.050895337,0.014763279,0.6498965,3.0159307,-1.3426827,-1.9130979,0.0013942275,0.2062619,-0.03770409,6.4051856e-05,-9.696816,9.206501,0.24859998,0.23343292,0.12680994,0.06561899,inf,inf,inf,inf,1,1,1,1,3,2,3,2,3,1,1,1,0,0,0
215045958,215045671,42042859,60.1877325,24.832678599999998,-4.1965594,-9.896601,-12.344072,0.1979316,0.09433211,2.0861626e-07,0.10293737,-0.051360987,-0.70000386,-0.68714863,-0.025199575,0.050895337,0.014763279,-1.2668705,-2.2037733,1.5705844,-1.9171258,0.0012018523,0.19842546,-0.03770409,6.411834e-05,-9.696816,9.521734,0.2507083,0.23461404,0.121177405,0.06588641,inf,inf,inf,inf,1,1,1,1,3,2,3,2,3,1,1,1,0,0,0
215546007,215545671,42042859,60.1877325,24.832678599999998,-4.129783,-9.860435,-12.642307,0.1979316,0.09433211,2.0861626e-07,0.12474113,0.1114781,-0.70611006,-0.6600538,-0.025199575,0.050895337,0.014763279,2.3296525,-0.46685013,-2.8477964,-1.9335338,0.0011249656,0.18349136,-0.03770409,6.459154e-05,-9.696816,9.819969,0.25376558,0.23626785,0.119059004,0.066322096,inf,inf,inf,inf,1,1,1,1,3,2,3,2,3,1,1,1,0,0,0
216045962,216045671,42042859,60.1877325,24.832678599999998,-4.053242,-9.75388,-12.927527,0.1979316,0.09433211,2.0861626e-07,0.05361769,0.15545304,-0.6628444,-0.5988312,-0.025199575,0.050895337,0.014763279,0.14325029,0.22914505,-1.5438238,-1.9620949,0.00108689,0.15520191,-0.03770409,6.50891e-05,-9.696816,10.105189,0.25693923,0.23865181,0.11809121,0.06684147,inf,inf,inf,inf,1,1,1,1,3,2,3,2,3,1,1,1,0,0,0
216545947,216545671,42042859,60.1877325,24.832678599999998,-4.019024,-9.73573,-13.17854,0.1979316,0.09433211,2.0861626e-07,-0.085654646,-0.22078833,-0.54494965,-0.4644017,-0.025199575,0.050895337,0.014763279,0.5997348,-2.8682134,-2.1825092,-1.9597499,0.001075817,0.15905978,-0.03770409,6.5253924e-05,-9.696816,10.356202,0.25912786,0.24031109,0.11608292,0.0670486,inf,inf,inf,inf,1,1,1,1,3,2,3,2,3,1,1,1,0,0,0
217045978,217045671,42042859,60.1877325,24.832678599999998,-4.0535474,-9.858936,-13.372268,0.1979316,0.09433211,2.0861626e-07,-0.109616786,-0.2853575,-0.5732969,-0.46915993,-0.025199575,0.050895337,0.014763279,-1.9876271,3.8297005,1.144073,-1.952916,0.001074777,0.16880082,-0.03770409,6.480678e-05,-9.696816,10.54993,0.2588103,0.24112034,0.11351644,0.06676393,inf,inf,inf,inf,1,1,1,1,3,2,3,2,3,1,1,1,0,0,0
217545984,217545671,42042859,60.1877325,24.832678599999998,-4.066387,-9.90541,-13.574085,0.1979316,0.09433211,2.0861626e-07,0.008769678,-0.018955326,-0.6007345,-0.46979365,-0.025199575,0.050895337,0.014763279,-3.6128447,3.0784695,1.94282,-1.9396838,0.0010736228,0.18178226,-0.03770409,6.4414155e-05,-9.696816,10.751747,0.25828096,0.24219756,0.11146952,0.066534,inf,inf,inf,inf,1,1,1,1,3,2,3,2,3,1,1,1,0,0,0
218045960,218045671,42042859,60.1877325,24.832678599999998,-4.1338243,-9.9650955,-13.785278,0.1979316,0.09433211,2.0861626e-07,-0.25206935,-0.6575793,-0.6124323,-0.46948695,-0.025199575,0.050895337,0.014763279,0.29040995,-2.607192,0.032376308,-1.9229833,0.0010746189,0.20450272,-0.03770409,6.416696e-05,-9.696816,10.96294,0.25787744,0.2423674,0.110940084,0.066288315,inf,inf,inf,inf,1,1,1,1,3,2,3,2,3,1,1,1,0,0,0
218545959,218545675,42042859,60.1877325,24.832678599999998,-4.3874593,-10.534727,-13.999942,0.1979316,0.09433211,2.0861626e-07,-0.6359524,-1.5504739,-0.56903267,-0.44279304,-0.025199575,0.050895337,0.014763279,0.7273466,2.2200751,0.38740313,-1.941357,0.0010139514,0.17811128,-0.03770409,6.357045e-05,-9.696816,11.177604,0.25750658,0.24235067,0.1179495,0.06623072,inf,inf,inf,inf,1,1,1,1,3,2,3,2,3,1,1,1,0,0,0
219045946,219045671,42042859,60.1877325,24.832678599999998,-4.665228,-11.239622,-14.283803,0.1979316,0.09433211,2.0861626e-07,-0.5379671,-1.2577149,-0.72260475,-0.5972419,-0.025199575,0.050895337,0.014763279,-0.14007133,0.55510455,3.812844,-1.9615477,0.0009206918,0.15373299,-0.03770409,6.313092e-05,-9.696816,11.461465,0.25732836,0.24286887,0.115216546,0.06625791,inf,inf,inf,inf,1,1,1,1,3,2,3,2,3,1,1,1,0,0,0
219545963,219545671,42042859,60.1877325,24.832678599999998,-4.923869,-11.852098,-14.499191,0.1979316,0.09433211,2.0861626e-07,-0.5167852,-1.1237849,-0.45787975,-0.33106384,-0.025199575,0.050895337,0.014763279,-4.7897124,-0.44838744,4.156604,-1.9589133,0.0008989493,0.15455097,-0.03770409,6.2965024e-05,-9.696816,11.676853,0.25731197,0.2427451,0.110399544,0.06626652,inf,inf,inf,inf,1,1,1,1,3,2,3,2,3,1,1,1,0,0,0
220045961,220045671,42042859,60.1877325,24.832678599999998,-5.1809063,-12.475497,-14.672577,0.1979316,0.09433211,2.0861626e-07,-0.46044362,-1.1956061,-0.3727946,-0.25802985,-0.025199575,0.050895337,0.014763279,1.5148561,0.7883994,5.9548407,-1.948694,0.00089486,0.16091143,-0.03770409,6.30137e-05,-9.696816,11.850239,0.25741994,0.24260244,0.11001939,0.06624224,inf,inf,inf,inf,1,1,1,1,3,2,3,2,3,1,1,1,0,0,0
221045942,221045671,42042859,60.1877325,24.832678599999998,-5.6296077,-13.543262,-14.964229,0.1979316,0.09433211,2.0861626e-07,-0.25472146,-0.65992343,-0.48814258,-0.36743584,-0.025199575,0.050895337,0.014763279,1.0930032,-0.64746433,0.23264569,-1.9518672,0.0009002734,0.15933733,-0.03770409,6.293431e-05,-9.696816,12.141891,0.2577001,0.24282488,0.10977605,0.066365905,inf,inf,inf,inf,1,1,1,1,3,2,3,2,3,1,1,1,0,0,0
221545966,221545671,42042859,60.1877325,24.832678599999998,-5.7413297,-13.797483,-15.092939,0.1979316,0.09433211,2.0861626e-07,-0.08850768,-0.25875112,-0.40454373,-0.26714137,-0.025199575,0.050895337,0.014763279,2.5243454,-1.4090208,0.5303746,-1.9129138,0.00089637935,0.19808738,-0.03770409,6.2632374e-05,-9.696816,12.270601,0.2576668,0.2425398,0.11067611,0.0662999,inf,inf,inf,inf,1,1,1,1,3,2,3,2,3,1,1,1,0,0,0
222046001,222045671,42042859,60.1877325,24.832678599999998,-5.7695785,-13.846136,-15.224581,0.1979316,0.09433211,2.0861626e-07,0.0011821763,0.023461582,-0.48291698,-0.32716262,-0.025199575,0.050895337,0.014763279,-0.6364442,-2.4550445,2.4068153,-1.894322,0.00087985495,0.21786797,-0.03770409,6.23676e-05,-9.696816,12.402243,0.25755858,0.24213278,0.11155973,0.06622477,inf,inf,inf,inf,1,1,1,1,3,2,3,2,3,1,1,1,0,0,0
223046128,223045671,42042859,60.1877325,24.832678599999998,-5.797853,-13.955934,-15.472717,0.1979316,0.09433211,2.0861626e-07,-0.1624767,-0.13213482,-0.4333163,-0.25213066,-0.025199575,0.050895337,0.014763279,-1.1087369,-1.0339984,-0.76963884,-1.9506419,0.00086740486,0.16202664,-0.03770409,6.207232e-05,-9.696816,12.650379,0.25718406,0.24166198,0.109451674,0.06590352,inf,inf,inf,inf,1,1,1,1,3,2,3,2,3,1,1,1,0,0,0
223546162,223545671,42042859,60.1877325,24.832678599999998,-5.8904448,-13.999183,-15.60567,0.1979316,0.09433211,2.0861626e-07,-0.2067914,-0.080136456,-0.45335254,-0.2716704,-0.025199575,0.050895337,0.014763279,-0.22621344,0.22350483,2.151826,-1.9252273,0.0008717061,0.18921225,-0.03770409,6.198516e-05,-9.696816,12.783332,0.25697896,0.24107587,0.10940909,0.06573933,inf,inf,inf,inf,1,1,1,1,3,2,3,2,3,1,1,1,0,0,0
224046130,224045671,42042859,60.1877325,24.832678599999998,-5.9487085,-14.031052,-15.720625,0.1979316,0.09433211,2.0861626e-07,0.0021244055,-0.048082273,-0.41968733,-0.23417826,-0.025199575,0.050895337,0.014763279,1.8392404,-0.12029739,-1.0774413,-1.9106096,0.0008771452,0.20392942,-0.03770409,6.191025e-05,-9.696816,12.898287,0.25677717,0.24104,0.109137125,0.06564804,inf,inf,inf,inf,1,1,1,1,3,2,3,2,3,1,1,1,0,0,0
224546114,224545670,42042859,60.1877325,24.832678599999998,-5.9221697,-14.037302,-15.863049,0.1979316,0.09433211,2.0861626e-07,0.1328972,-0.00664489,-0.46416143,-0.28771293,-0.025199575,0.050895337,0.014763279,0.7237929,-1.7099967,0.9619721,-1.9613546,0.0008825738,0.15281056,-0.03770409,6.182202e-05,-9.696816,13.04071,0.2565502,0.2404341,0.109322,0.06554242,inf,inf,inf,inf,1,1,1,1,3,2,3,2,3,1,1,1,0,0,0
225046113,225045671,42042859,60.1877325,24.832678599999998,-5.887001,-14.01081,-16.014452,0.1979316,0.09433211,2.0861626e-07,0.07675937,0.07436719,-0.48200446,-0.30975756,-0.025199575,0.050895337,0.014763279,-0.26676106,-1.2591193,1.4884835,-1.9946622,0.0008879671,0.11977866,-0.03770409,6.1821804e-05,-9.696816,13.192114,0.25676176,0.24007177,0.109789714,0.065593734,inf,inf,inf,inf,1,1,1,1,3,2,3,2,3,1,1,1,0,0,0
226046133,226045671,42042859,60.1877325,24.832678599999998,-5.847662,-13.966087,-16.298119,0.1979316,0.09433211,2.0861626e-07,-0.070383884,0.07877034,-0.35312125,-0.18560764,-0.025199575,0.050895337,0.014763279,-1.1732937,-0.58507115,2.241732,-1.956085,0.0009003292,0.15754992,-0.03770409,6.1556086e-05,-9.696816,13.4757805,0.25647587,0.23972362,0.109406225,0.06548587,inf,inf,inf,inf,1,1,1,1,3,2,3,2,3,1,1,1,0,0,0
226546124,226545671,42042859,60.1877325,24.832678599999998,-5.9071183,-13.921686,-16.429356,0.1979316,0.09433211,2.0861626e-07,-0.082994714,0.088491,-0.32774037,-0.16995996,-0.025199575,0.050895337,0.014763279,3.0019176,1.3548168,2.9904675,-1.9371754,0.000905903,0.17666073,-0.03770409,6.150645e-05,-9.696816,13.6070175,0.25640777,0.23932599,0.10937511,0.06545461,inf,inf,inf,inf,1,1,1,1,3,2,3,2,3,1,1,1,0,0,0
227046168,227045671,42042859,60.1877325,24.832678599999998,-5.961882,-13.8861265,-16.532104,0.1979316,0.09433211,2.0861626e-07,-0.051913604,-0.009228445,-0.23262961,-0.08498816,-0.025199575,0.050895337,0.014763279,1.0211921,0.079157494,1.6959293,-1.9622821,0.0009113299,0.15312384,-0.03770409,6.1493454e-05,-9.696816,13.709766,0.25640872,0.23897485,0.10908747,0.0654408,inf,inf,inf,inf,1,1,1,1,3,2,3,2,3,1,1,1,0,0,0
227546164,227545671,42042859,60.1877325,24.832678599999998,-5.9811397,-13.865471,-16.643759,0.1979316,0.09433211,2.0861626e-07,-0.022164121,-0.03763393,-0.31952903,-0.18628511,-0.025199575,0.050895337,0.014763279,-0.12296614,-2.0941513,3.0728054,-1.9975518,0.00091603363,0.117352575,-0.03770409,6.149705e-05,-9.696816,13.821421,0.2563642,0.23914744,0.109282725,0.06549205,inf,inf,inf,inf,1,1,1,1,3,2,3,2,3,1,1,1,0,0,0
228046130,228045671,42042859,60.1877325,24.832678599999998,-6.024725,-13.880859,-16.785639,0.1979316,0.09433211,2.0861626e-07,-0.019797577,-0.09255078,-0.31152588,-0.18355182,-0.025199575,0.050895337,0.014763279,1.7556622,-1.3643897,3.4370017,-1.9771903,0.0009207238,0.13915257,-0.03770409,6.138765e-05,-9.696816,13.963301,0.2562982,0.2387188,0.109488785,0.06551823,inf,inf,inf,inf,1,1,1,1,3,2,3,2,3,1,1,1,0,0,0
228546131,228545671,42042859,60.1877325,24.832678599999998,-5.9873567,-13.959001,-16.908976,0.1979316,0.09433211,2.0861626e-07,0.26748878,-0.18913676,-0.33062753,-0.19990936,-0.025199575,0.050895337,0.014763279,-3.101841,0.97453135,-0.031390976,-1.9003718,0.0009243314,0.21321565,-0.03770409,6.1279745e-05,-9.696816,14.0866375,0.25614804,0.23823503,0.10966266,0.06548732,inf,inf,inf,inf,1,1,1,1,3,2,3,2,3,1,1,1,0,0,0
229046114,229045671,42042859,60.1877325,24.832678599999998,-5.8962784,-14.058128,-17.019188,0.1979316,0.09433211,2.0861626e-07,0.14246683,-0.15182307,-0.28063977,-0.14254811,-0.025199575,0.050895337,0.014763279,1.4371444,2.4038136,2.0996532,-1.9405496,0.00092644396,0.17232509,-0.03770409,6.117812e-05,-9.696816,14.19685,0.255984,0.23827511,0.10939306,0.06548945,inf,inf,inf,inf,1,1,1,1,3,2,3,2,3,1,1,1,0,0,0
229546155,229545671,42042859,60.1877325,24.832678599999998,-5.8915653,-14.1226845,-17.127653,0.1979316,0.09433211,2.0861626e-07,0.07696942,-0.076083265,-0.3127203,-0.17780992,-0.025199575,0.050895337,0.014763279,-0.11163064,1.980007,2.1729505,-1.922119,0.0009331876,0.19205669,-0.03770409,6.1154526e-05,-9.696816,14.305315,0.25576872,0.23773736,0.10905035,0.065474264,inf,inf,inf,inf,1,1,1,1,3,2,3,2,3,1,1,1,0,0,0
230046129,230045671,42042859,60.1877325,24.832678599999998,-5.8790627,-14.167608,-17.249645,0.1979316,0.09433211,2.0861626e-07,0.09072715,-0.043939278,-0.3106499,-0.1783315,-0.025199575,0.050895337,0.014763279,1.6022398,0.07761136,2.9814353,-1.9369304,0.00094142964,0.17715788,-0.03770409,6.11052e-05,-9.696816,14.427307,0.2555565,0.23719661,0.10911275,0.065440424,inf,inf,inf,inf,1,1,1,1,3,2,3,2,3,1,1,1,0,0,0
230546113,230545671,42042859,60.1877325,24.832678599999998,-5.8676033,-14.193002,-17.363464,0.1979316,0.09433211,2.0861626e-07,0.07437919,-0.047937788,-0.4153936,-0.28933287,-0.025199575,0.050895337,0.014763279,-2.1208038,2.2294958,-1.870701,-1.955152,0.00095014484,0.15913978,-0.03770409,6.10784e-05,-9.696816,14.541126,0.2553179,0.23718521,0.10888984,0.06545414,inf,inf,inf,inf,1,1,1,1,3,2,3,2,3,1,1,1,0,0,0
231046117,231045671,42042859,60.1877325,24.832678599999998,-5.8521748,-14.185376,-17.532782,0.1979316,0.09433211,2.0861626e-07,0.07647876,0.0259597,-0.40662003,-0.285389,-0.025199575,0.050895337,0.014763279,-0.48579872,-3.3229015,-0.7872457,-1.9514688,0.00095908967,0.16287993,-0.03770409,6.0961123e-05,-9.696816,14.7104435,0.25506723,0.23663732,0.10929129,0.06541758,inf,inf,inf,inf,1,1,1,1,3,2,3,2,3,1,1,1,0,0,0
231546134,231545671,42042859,60.1877325,24.832678599999998,-5.8214617,-14.160979,-17.682516,0.1979316,0.09433211,2.0861626e-07,0.07408266,-0.029434547,-0.41935977,-0.30042368,-0.025199575,0.050895337,0.014763279,-0.073659785,2.0927665,0.65736824,-1.9614435,0.0009681093,0.15191725,-0.03770409,6.091001e-05,-9.696816,14.860178,0.25478727,0.23608598,0.108940944,0.06534606,inf,inf,inf,inf,1,1,1,1,3,2,3,2,3,1,1,1,0,0,0
232046166,232045671,42042859,60.1877325,24.832678599999998,-5.791315,-14.178085,-17.826576,0.1979316,0.09433211,2.0861626e-07,0.0841564,-0.08105424,-0.3932843,-0.27870518,-0.025199575,0.050895337,0.014763279,-0.5364605,-4.344491,0.80132467,-1.9561116,0.0009773315,0.15732972,-0.03770409,6.088506e-05,-9.696816,15.004238,0.2545174,0.23554537,0.10891406,0.06527839,inf,inf,inf,inf,1,1,1,1,3,2,3,2,3,1,1,1,0,0,0
232546115,232545671,42042859,60.1877325,24.832678599999998,-5.7693844,-14.182765,-17.963783,0.1979316,0.09433211,2.0861626e-07,0.06496376,-0.024279624,-0.32494566,-0.21779676,-0.025199575,0.050895337,0.014763279,-0.025063643,1.2149756,3.3047717,-1.9277254,0.0009867788,0.18584222,-0.03770409,6.0880073e-05,-9.696816,15.141445,0.25422588,0.23551926,0.10870639,0.0652518,inf,inf,inf,inf,1,1,1,1,3,2,3,2,3,1,1,1,0,0,0
233045960,233045671,42042859,60.1877325,24.832678599999998,-5.7714977,-14.161643,-18.089903,0.1979316,0.09433211,2.0861626e-07,-0.10455153,0.040302508,-0.3246152,-0.22613433,-0.025199575,0.050895337,0.014763279,-0.16291897,0.40337396,-0.6164776,-1.9529965,0.0009965552,0.15929751,-0.03770409,6.094356e-05,-9.696816,15.267565,0.2539515,0.2349715,0.108779036,0.06519989,inf,inf,inf,inf,1,1,1,1,3,2,3,2,3,1,1,1,0,0,0
233545970,233545671,42042859,60.1877325,24.832678599999998,-5.8589973,-14.113172,-18.205465,0.1979316,0.09433211,2.0861626e-07,-0.18593773,0.09478831,-0.26239625,-0.16269846,-0.025199575,0.050895337,0.014763279,1.2023844,-1.8707814,1.081374,-1.9957726,0.0010043621,0.11832327,-0.03770409,6.1016788e-05,-9.696816,15.383127,0.2536512,0.23442127,0.10895326,0.06517816,inf,inf,inf,inf,1,1,1,1,3,2,3,2,3,1,1,1,0,0,0
235045946,235045671,42042859,60.1877325,24.832678599999998,-5.9306393,-14.012358,-18.540169,0.1979316,0.09433211,2.0861626e-07,0.20258705,-0.014494957,-0.298824,-0.18698743,-0.025199575,0.050895337,0.014763279,0.6175524,-2.512412,2.7339032,-1.9232272,0.0010308393,0.19213815,-0.03770409,6.0990016e-05,-9.696816,15.717831,0.2528588,0.2333753,0.1086904,0.065126166,inf,inf,inf,inf,1,1,1,1,3,2,3,2,3,1,1,1,0,0,0
235545970,235545671,42042859,60.1877325,24.832678599999998,-5.841305,-13.999005,-18.628475,0.1979316,0.09433211,2.0861626e-07,0.13268225,-0.033467222,-0.34437048,-0.23968105,-0.025199575,0.050895337,0.014763279,0.0911714,0.15100653,-2.052408,-1.939999,0.0010386036,0.17383765,-0.03770409,6.1014114e-05,-9.696816,15.806137,0.2525985,0.2333816,0.10865214,0.06512426,inf,inf,inf,inf,1,1,1,1,3,2,3,2,3,1,1,1,0,0,0
236045962,236045671,42042859,60.1877325,24.832678599999998,-5.818197,-14.060724,-18.755503,0.1979316,0.09433211,2.0861626e-07,0.095957644,-0.17537765,-0.33204436,-0.23449033,-0.025199575,0.050895337,0.014763279,0.59682864,-3.9141812,-0.30074808,-1.8933808,0.0010482789,0.22212511,-0.03770409,6.0975577e-05,-9.696816,15.933165,0.25237548,0.23289457,0.10869646,0.06508281,inf,inf,inf,inf,1,1,1,1,3,2,3,2,3,1,1,1,0,0,0
236545960,236545671,42042859,60.1877325,24.832678599999998,-5.7809477,-14.133662,-18.864037,0.1979316,0.09433211,2.0861626e-07,0.03604048,-0.10409015,-0.2848413,-0.19239636,-0.025199575,0.050895337,0.014763279,1.0080613,-2.2238822,2.3110769,-1.9408916,0.0010579727,0.17274696,-0.03770409,6.0960258e-05,-9.696816,16.041698,0.25213775,0.23239553,0.108443335,0.065020084,inf,inf,inf,inf,1,1,1,1,3,2,3,2,3,1,1,1,0,0,0
237045973,237045671,42042859,60.1877325,24.832678599999998,-5.778646,-14.170886,-18.984838,0.1979316,0.09433211,2.0861626e-07,0.06537374,-0.09314543,-0.3200354,-0.24030985,-0.025199575,0.050895337,0.014763279,-0.3312564,0.9550189,-1.0934846,-1.9504713,0.0010688339,0.16426802,-0.03770409,6.098469e-05,-9.696816,16.1625,0.2518966,0.23188491,0.10847826,0.06496934,inf,inf,inf,inf,1,1,1,1,3,2,3,2,3,1,1,1,0,0,0
237545945,237545671,42042859,60.1877325,24.832678599999998,-5.754887,-14.223756,-19.118599,0.1979316,0.09433211,2.0861626e-07,0.026892034,-0.13316002,-0.33412126,-0.26137084,-0.025199575,0.050895337,0.014763279,1.0378624,2.315901,-0.5660469,-1.9301715,0.0010797858,0.18309267,-0.03770409,6.0965995e-05,-9.696816,16.29626,0.25160867,0.23185784,0.10873406,0.0649471,inf,inf,inf,inf,1,1,1,1,3,2,3,2,3,1,1,1,0,0,0
238045988,238045702,42042859,60.1877325,24.832678599999998,-5.7497773,-14.258939,-19.242311,0.1979316,0.09433211,2.0861626e-07,0.025523165,-0.08594708,-0.32744104,-0.24977529,-0.025199575,0.050895337,0.014763279,0.8395559,2.546132,-0.12568039,-1.8998921,0.0010910111,0.2132904,-0.03770409,6.0956216e-05,-9.696816,16.419973,0.25134718,0.23132597,0.10862877,0.064894885,inf,inf,inf,inf,1,1,1,1,3,2,3,2,3,1,1,1,0,0,0
238546015,238545671,42042859,60.1877325,24.832678599999998,-5.7664165,-14.2678175,-19.362612,0.1979316,0.09433211,2.0861626e-07,-0.072206594,-0.0054879715,-0.35263756,-0.27183083,-0.025199575,0.050895337,0.014763279,0.19072755,1.8663002,-1.3620327,-1.909189,0.0011024306,0.20396152,-0.03770409,6.095448e-05,-9.696816,16.540274,0.25105917,0.23078115,0.10861993,0.06484596,inf,inf,inf,inf,1,1,1,1,3,2,3,2,3,1,1,1,0,0,0
239045945,239045671,42042859,60.1877325,24.832678599999998,-5.8089433,-14.215445,-19.472872,0.1979316,0.09433211,2.0861626e-07,-0.089160465,0.13312885,-0.2562287,-0.18105125,-0.025199575,0.050895337,0.014763279,-0.9084288,-1.4319092,0.32594857,-1.9242735,0.0011127449,0.18890117,-0.03770409,6.0979728e-05,-9.696816,16.650534,0.25078347,0.2307423,0.10852768,0.06487414,inf,inf,inf,inf,1,1,1,1,3,2,3,2,3,1,1,1,0,0,0
239545946,239545671,42042859,60.1877325,24.832678599999998,-5.773253,-14.142028,-19.432993,0.1979316,0.09433211,2.0861626e-07,0.45082146,0.10456639,0.48273784,0.55177444,-0.025199575,0.050895337,0.014763279,0.9631933,-1.3059708,2.305106,-1.939033,0.0011221548,0.17116393,-0.03770409,6.112681e-05,-9.696816,16.610655,0.2505043,0.23021074,0.10753726,0.06484266,inf,inf,inf,inf,1,1,1,1,3,2,3,2,3,1,1,1,0,0,0
240045964,240045671,42042859,60.1877325,24.832678599999998,-5.240325,-14.130809,-19.181616,0.1979316,0.09433211,2.0861626e-07,1.4674882,-0.0029327464,0.3723185,0.4193533,-0.025199575,0.050895337,0.014763279,-1.0820559,-2.5929465,2.4196973,-1.9785979,0.0010978626,0.139681,-0.03770409,6.164488e-05,-9.696816,16.359278,0.2501995,0.22970174,0.11218437,0.064942546,inf,inf,inf,inf,1,1,1,1,3,2,3,2,3,1,1,1,0,0,0
240545966,240545671,42042859,60.1877325,24.832678599999998,-4.426535,-14.161334,-19.014378,0.1979316,0.09433211,2.0861626e-07,1.6472176,-0.06864115,0.19902462,0.25325802,-0.025199575,0.050895337,0.014763279,-0.7364023,-2.1601217,0.3311975,-1.9861172,0.00102583,0.13226184,-0.03770409,6.1926934e-05,-9.696816,16.19204,0.24988076,0.2296769,0.1132719,0.06503309,inf,inf,inf,inf,1,1,1,1,3,2,3,2,3,1,1,1,0,0,0
241045953,241045671,42042859,60.1877325,24.832678599999998,-3.6315737,-14.2017,-18.890139,0.1979316,0.09433211,2.0861626e-07,1.3613626,-0.048284493,0.0538571,0.13739543,-0.025199575,0.050895337,0.014763279,-1.1436851,0.36345437,1.0255343,-1.977453,0.0009963058,0.13755098,-0.03770409,6.203163e-05,-9.696816,16.0678,0.24960797,0.22918318,0.11025061,0.06498172,inf,inf,inf,inf,1,1,1,1,3,2,3,2,3,1,1,1,0,0,0
241545949,241545671,42042859,60.1877325,24.832678599999998,-3.0424252,-14.223476,-18.808979,0.1979316,0.09433211,2.0861626e-07,0.8877458,-0.0077702887,-0.026300414,0.08205571,-0.025199575,0.050895337,0.014763279,0.286009,-0.5713613,-0.26994142,-1.9636798,0.001001011,0.14979239,-0.03770409,6.179839e-05,-9.696816,15.986641,0.24929704,0.22867873,0.1090878,0.064912245,inf,inf,inf,inf,1,1,1,1,3,2,3,2,3,1,1,1,0,0,0
242045992,242045671,42042859,60.1877325,24.832678599999998,-2.7091486,-14.227549,-18.777224,0.1979316,0.09433211,2.0861626e-07,0.4172713,0.026684042,-0.093691394,0.021776598,-0.025199575,0.050895337,0.014763279,0.49773353,-0.6459946,-0.79177415,-1.9446528,0.0010005395,0.1680809,-0.03770409,6.1336505e-05,-9.696816,15.9548855,0.24897517,0.22817895,0.11055827,0.06487707,inf,inf,inf,inf,1,1,1,1,3,2,3,2,3,1,1,1,0,0,0
242545969,242545671,42042859,60.1877325,24.832678599999998,-2.607566,-14.216696,-18.748259,0.1979316,0.09433211,2.0861626e-07,0.041332975,0.0005473066,-0.056033045,0.052817836,-0.025199575,0.050895337,0.014763279,-0.2676998,0.47992915,1.2944622,-1.9289211,0.0009794761,0.18668932,-0.03770409,6.0923016e-05,-9.696816,15.9259205,0.24861908,0.22814143,0.11176193,0.064897664,inf,inf,inf,inf,1,1,1,1,3,2,3,2,3,1,1,1,0,0,0
243045944,243045671,42042859,60.1877325,24.832678599999998,-2.6612027,-14.214111,-18.748959,0.1979316,0.09433211,2.0861626e-07,-0.18850827,0.0064262436,-0.09874329,-0.0062945,-0.025199575,0.050895337,0.014763279,0.25727454,1.8481212,-0.22973213,-1.95378,0.00095185183,0.16360155,-0.03770409,6.072657e-05,-9.696816,15.9266205,0.24827686,0.2276203,0.11164187,0.06485506,inf,inf,inf,inf,1,1,1,1,3,2,3,2,3,1,1,1,0,0,0
243545982,243545671,42042859,60.1877325,24.832678599999998,-3.0123367,-14.211712,-18.798168,0.1979316,0.09433211,2.0861626e-07,-1.2969875,-0.013554958,-0.1432001,-0.06061977,-0.025199575,0.050895337,0.014763279,-2.6458874,-0.55603653,-0.057465777,-1.9447783,0.0009210819,0.15210396,-0.03770409,6.0671213e-05,-9.696816,15.97583,0.24793877,0.22708815,0.114049815,0.064877585,inf,inf,inf,inf,1,1,1,1,3,2,3,2,3,1,1,1,0,0,0
244045988,244045671,42042859,60.1877325,24.832678599999998,-3.8660548,-14.20866,-18.818731,0.1979316,0.09433211,2.0861626e-07,-1.8589787,0.0168926,-0.15117465,-0.07404461,-0.025199575,0.050895337,0.014763279,0.9803256,-0.20427671,-1.4273064,-1.9355986,0.0008338117,0.18115874,-0.03770409,6.112571e-05,-9.696816,15.996393,0.24766433,0.22703764,0.11723289,0.06502135,inf,inf,inf,inf,1,1,1,1,3,2,3,2,3,1,1,1,0,0,0
244545965,244545672,42042859,60.1877325,24.832678599999998,-4.7773557,-14.18779,-18.865059,0.1979316,0.09433211,2.0861626e-07,-1.624721,0.058932196,-0.1102491,-0.045911882,-0.025199575,0.050895337,0.014763279,3.2653775,1.1181008,-0.16459672,-1.9392648,0.0007842082,0.17977878,-0.03770409,6.1753344e-05,-9.696816,16.04272,0.24741344,0.2265156,0.11172374,0.06485003,inf,inf,inf,inf,1,1,1,1,3,2,3,2,3,1,1,1,0,0,0
245045947,245045671,42042859,60.1877325,24.832678599999998,-5.4797354,-14.158279,-18.889084,0.1979316,0.09433211,2.0861626e-07,-1.0408399,0.074756734,-0.07526756,-0.018375024,-0.025199575,0.050895337,0.014763279,-0.46928966,-0.6026678,1.0588719,-1.9301181,0.00078538724,0.18902859,-0.03770409,6.209186e-05,-9.696816,16.066746,0.24716179,0.22599682,0.10835307,0.064662464,inf,inf,inf,inf,1,1,1,1,3,2,3,2,3,1,1,1,0,0,0
245545957,245545671,42042859,60.1877325,24.832678599999998,-5.864609,-14.13207,-18.885592,0.1979316,0.09433211,2.0861626e-07,-0.45645082,-0.006146115,-0.03566283,0.024992857,-0.025199575,0.050895337,0.014763279,1.2419271,0.5516638,-1.1746066,-1.9447044,0.0007900257,0.17424731,-0.03770409,6.1880026e-05,-9.696816,16.063253,0.24684599,0.22593266,0.10963602,0.06462974,inf,inf,inf,inf,1,1,1,1,3,2,3,2,3,1,1,1,0,0,0
246045962,246045671,42042859,60.1877325,24.832678599999998,-5.981747,-14.137411,-18.875746,0.1979316,0.09433211,2.0861626e-07,-0.04341584,-0.062678926,-0.06217295,2.5947083e-05,-0.025199575,0.050895337,0.014763279,-0.6861098,-0.7732226,-0.9562226,-1.9589969,0.00077249255,0.15866084,-0.03770409,6.135901e-05,-9.696816,16.053408,0.24653573,0.22541721,0.11180971,0.06461884,inf,inf,inf,inf,1,1,1,1,3,2,3,2,3,1,1,1,0,0,0
246545968,246545671,42042859,60.1877325,24.832678599999998,-5.933003,-14.173406,-18.87469,0.1979316,0.09433211,2.0861626e-07,0.26060608,-0.088340975,-0.03192348,0.03145592,-0.025199575,0.050895337,0.014763279,2.4021323,-0.497451,-1.0804715,-1.9579897,0.0007439767,0.1588204,-0.03770409,6.083796e-05,-9.696816,16.052351,0.24623628,0.22491407,0.112137645,0.06460023,inf,inf,inf,inf,1,1,1,1,3,2,3,2,3,1,1,1,0,0,0
247045972,247045671,42042859,60.1877325,24.832678599999998,-5.478205,-14.237334,-18.897842,0.1979316,0.09433211,2.0861626e-07,1.4669259,-0.10510693,-0.13155389,-0.06552745,-0.025199575,0.050895337,0.014763279,0.8441794,0.7629745,0.20197985,-1.9738908,0.0007031443,0.14501584,-0.03770409,6.038019e-05,-9.696816,16.075504,0.2459992,0.22443505,0.11651766,0.06469482,inf,inf,inf,inf,1,1,1,1,3,2,3,2,3,1,1,1,0,0,0
248045968,248045671,42042859,60.1877325,24.832678599999998,-3.9783323,-14.349452,-19.147482,0.1979316,0.09433211,2.0861626e-07,0.91342884,-0.028277827,-0.48492208,-0.41072038,-0.025199575,0.050895337,0.014763279,-2.420524,-2.3435652,1.7260557,-1.9762651,0.0006089498,0.14523429,-0.03770409,5.991105e-05,-9.696816,16.325144,0.24563429,0.22400089,0.11041732,0.064609215,inf,inf,inf,inf,1,1,1,1,3,2,3,2,3,1,1,1,0,0,0
248545993,248545671,42042859,60.1877325,24.832678599999998,-3.6797159,-14.347579,-19.37928,0.1979316,0.09433211,2.0861626e-07,0.13126934,0.048887525,-0.5590075,-0.4884336,-0.025199575,0.050895337,0.014763279,-2.2689688,-0.27118587,2.0302503,-1.9704907,0.00061389594,0.15076706,-0.03770409,5.9608374e-05,-9.696816,16.556942,0.24542303,0.2235682,0.10921702,0.064524114,inf,inf,inf,inf,1,1,1,1,3,2,3,2,3,1,1,1,0,0,0
249045951,249045671,42042859,60.1877325,24.832678599999998,-3.7481694,-14.321843,-19.642418,0.1979316,0.09433211,2.0861626e-07,-0.48268938,0.05393167,-0.6274058,-0.5617768,-0.025199575,0.050895337,0.014763279,-2.1115503,0.5981925,-0.42821634,-1.9321412,0.00061184476,0.19045873,-0.03770409,5.9301237e-05,-9.696816,16.82008,0.24520566,0.22360036,0.11071804,0.064594336,inf,inf,inf,inf,1,1,1,1,3,2,3,2,3,1,1,1,0,0,0
249545958,249545671,42042859,60.1877325,24.832678599999998,-4.1008573,-14.29981,-19.931906,0.1979316,0.09433211,2.0861626e-07,-0.9045855,0.080074206,-0.62120634,-0.5642595,-0.025199575,0.050895337,0.014763279,1.3726277,-0.39118737,0.42075944,-1.9284676,0.000599113,0.1948551,-0.03770409,5.9139882e-05,-9.696816,17.109568,0.24497579,0.22318439,0.11144713,0.06460704,inf,inf,inf,inf,1,1,1,1,3,2,3,2,3,1,1,1,0,0,0
250045965,250045671,42042859,60.1877325,24.832678599999998,-4.621745,-14.2673645,-20.21575,0.1979316,0.09433211,2.0861626e-07,-1.1001726,0.12660286,-0.5878259,-0.5386663,-0.025199575,0.050895337,0.014763279,-1.7090216,-0.075310834,2.0674472,-1.9344153,0.0005861114,0.18923774,-0.03770409,5.9242207e-05,-9.696816,17.393412,0.24482685,0.22279277,0.11075695,0.06458844,inf,inf,inf,inf,1,1,1,1,3,2,3,2,3,1,1,1,0,0,0
250545962,250545671,42042859,60.1877325,24.832678599999998,-5.1755004,-14.191033,-20.46734,0.1979316,0.09433211,2.0861626e-07,-0.9844177,0.19283225,-0.41768253,-0.37963182,-0.025199575,0.050895337,0.014763279,0.49272677,2.3555398,-0.012444894,-1.924507,0.0005822161,0.2001979,-0.03770409,5.951035e-05,-9.696816,17.645002,0.24468167,0.22284544,0.10885638,0.064549826,inf,inf,inf,inf,1,1,1,1,3,2,3,2,3,1,1,1,0,0,0
251045944,251045671,42042859,60.1877325,24.832678599999998,-5.6179576,-14.116391,-20.617939,0.1979316,0.09433211,2.0861626e-07,-0.63048095,0.14903204,-0.18488197,-0.1650642,-0.025199575,0.050895337,0.014763279,1.2166744,-0.11567403,0.5249297,-1.9286877,0.0005879789,0.19618194,-0.03770409,5.9925653e-05,-9.696816,17.7956,0.24454996,0.22246633,0.10744205,0.06447529,inf,inf,inf,inf,1,1,1,1,3,2,3,2,3,1,1,1,0,0,0
251545953,251545671,42042859,60.1877325,24.832678599999998,-5.8462734,-14.061979,-20.689882,0.1979316,0.09433211,2.0861626e-07,-0.23786858,0.09067846,-0.04533902,-0.0397254,-0.025199575,0.050895337,0.014763279,-0.9045113,1.2423825,1.0147659,-1.9356557,0.0005953911,0.18866849,-0.03770409,6.0314414e-05,-9.696816,17.867544,0.24438559,0.22210845,0.10763238,0.064428635,inf,inf,inf,inf,1,1,1,1,3,2,3,2,3,1,1,1,0,0,0
252045991,252045671,42042859,60.1877325,24.832678599999998,-5.899709,-14.045138,-20.699259,0.1979316,0.09433211,2.0861626e-07,0.019200658,0.039285317,-0.009872256,-0.0038070597,-0.025199575,0.050895337,0.014763279,-2.4672048,-2.2889783,0.8447861,-1.9440392,0.00059826137,0.18005775,-0.03770409,6.0631755e-05,-9.696816,17.87692,0.24426354,0.22178379,0.108376145,0.06441713,inf,inf,inf,inf,1,1,1,1,3,2,3,2,3,1,1,1,0,0,0
252545966,252545671,42042859,60.1877325,24.832678599999998,-5.8739996,-14.048447,-20.689934,0.1979316,0.09433211,2.0861626e-07,0.066007964,0.01749368,-0.0013175929,0.013926173,-0.025199575,0.050895337,0.014763279,1.5301135,1.4929715,-1.6423041,-1.968203,0.00059869897,0.15515445,-0.03770409,6.0840066e-05,-9.696816,17.867596,0.24414182,0.22192034,0.10856935,0.06445033,inf,inf,inf,inf,1,1,1,1,3,2,3,2,3,1,1,1,0,0,0
253045953,253045671,42042859,60.1877325,24.832678599999998,-5.8113747,-14.055617,-20.658138,0.1979316,0.09433211,2.0861626e-07,0.12982461,-0.0010917339,0.043539505,0.076606475,-0.025199575,0.050895337,0.014763279,0.7790122,-0.5621649,2.1093643,-1.9684261,0.00060129416,0.15509547,-0.03770409,6.1001985e-05,-9.696816,17.8358,0.24410214,0.22166304,0.10856843,0.06444996,inf,inf,inf,inf,1,1,1,1,3,2,3,2,3,1,1,1,0,0,0
253545973,253545671,42042859,60.1877325,24.832678599999998,-5.617819,-14.09337,-20.393627,0.1979316,0.09433211,2.0861626e-07,0.54715806,-0.04507351,0.6282855,0.67619693,-0.025199575,0.050895337,0.014763279,3.1178014,0.85260737,0.0027401343,-1.9607828,0.00060402474,0.16554968,-0.03770409,6.1340776e-05,-9.696816,17.57129,0.24407761,0.22143267,0.10756932,0.064476535,inf,inf,inf,inf,1,1,1,1,3,2,3,2,3,1,1,1,0,0,0
254045960,254045671,42042859,60.1877325,24.832678599999998,-5.297482,-14.153607,-20.03761,0.1979316,0.09433211,2.0861626e-07,0.60909134,-0.01710431,0.64845246,0.6982202,-0.025199575,0.050895337,0.014763279,0.94428194,-0.06766379,-1.1754715,-1.9237859,0.00060284423,0.20114644,-0.03770409,6.1865605e-05,-9.696816,17.215271,0.24408571,0.22169775,0.10814564,0.06453316,inf,inf,inf,inf,1,1,1,1,3,2,3,2,3,1,1,1,0,0,0
254545967,254545671,42042859,60.1877325,24.832678599999998,-5.0419674,-14.176903,-19.678682,0.1979316,0.09433211,2.0861626e-07,0.28071752,0.06962786,0.6110233,0.67408293,-0.025199575,0.050895337,0.014763279,-2.0310736,0.63954306,-0.9724835,-1.932132,0.0006063558,0.19074325,-0.03770409,6.2166655e-05,-9.696816,16.856344,0.24412473,0.22155438,0.10785301,0.06448705,inf,inf,inf,inf,1,1,1,1,3,2,3,2,3,1,1,1,0,0,0
255045948,255045671,42042859,60.1877325,24.832678599999998,-4.9882884,-14.157958,-19.334982,0.1979316,0.09433211,2.0861626e-07,-0.16440381,0.123632476,0.4668496,0.5558541,-0.025199575,0.050895337,0.014763279,-3.0133677,0.20061801,2.2541904,-1.9517698,0.00061321206,0.17289259,-0.03770409,6.223034e-05,-9.696816,16.512644,0.24424322,0.22146848,0.108517215,0.06447092,inf,inf,inf,inf,1,1,1,1,3,2,3,2,3,1,1,1,0,0,0
255545948,255545671,42042859,60.1877325,24.832678599999998,-5.107496,-14.138705,-19.0853,0.1979316,0.09433211,2.0861626e-07,-0.35716256,0.07251897,0.18956101,0.31458402,-0.025199575,0.050895337,0.014763279,2.3369641,2.5528708,3.3598642,-1.9764701,0.00061702717,0.15205598,-0.03770409,6.19884e-05,-9.696816,16.262962,0.244418,0.22187549,0.10975964,0.06452267,inf,inf,inf,inf,1,1,1,1,3,2,3,2,3,1,1,1,0,0,0
256045972,256045671,42042859,60.1877325,24.832678599999998,-5.2504287,-14.108843,-18.923199,0.1979316,0.09433211,2.0861626e-07,-0.33916897,0.040341225,-0.0014486024,0.15863636,-0.025199575,0.050895337,0.014763279,-0.9443025,-0.32985225,3.073994,-1.9878479,0.00062116334,0.14332029,-0.03770409,6.15234e-05,-9.696816,16.10086,0.24479209,0.22193123,0.10992015,0.064508826,inf,inf,inf,inf,1,1,1,1,3,2,3,2,3,1,1,1,0,0,0
256545970,256545672,42042859,60.1877325,24.832678599999998,-5.379702,-14.122321,-18.838326,0.1979316,0.09433211,2.0861626e-07,-0.2993962,-0.049019378,-0.111212626,0.07224473,-0.025199575,0.050895337,0.014763279,0.96284527,-3.0563488,1.427645,-1.9643996,0.00062781747,0.16511722,-0.03770409,6.112918e-05,-9.696816,16.015987,0.2459525,0.22227308,0.11059475,0.064649746,inf,inf,inf,inf,1,1,1,1,3,2,3,2,3,1,1,1,0,0,0
257545950,257545671,42042859,60.1877325,24.832678599999998,-5.612277,-14.167501,-18.782879,0.1979316,0.09433211,2.0861626e-07,-0.13677278,-0.0032395392,-0.09076146,0.07273072,-0.025199575,0.050895337,0.014763279,0.9062495,2.1363535,-2.5253506,-1.9239602,0.00064421905,0.20607324,-0.03770409,6.0559578e-05,-9.696816,15.960541,0.25004348,0.2241947,0.11169458,0.06520138,inf,inf,inf,inf,1,1,1,1,3,2,3,2,3,1,1,1,0,0,0
258045966,258045671,42042859,60.1877325,24.832678599999998,-5.657031,-14.157784,-18.802496,0.1979316,0.09433211,2.0861626e-07,0.04870257,0.08768198,-0.58143145,-0.43342876,-0.025199575,0.050895337,0.014763279,2.1636658,6.7021475,-6.3131475,-1.9277388,0.0006523118,0.2031715,-0.03770409,6.0142156e-05,-9.696816,15.980158,0.25007886,0.2242353,0.11039794,0.06501308,inf,inf,inf,inf,1,1,1,1,3,2,3,2,3,1,1,1,0,0,0
258545999,258545672,42042859,60.1877325,24.832678599999998,-5.573965,-14.049077,-19.03135,0.1979316,0.09433211,2.0861626e-07,0.2592982,0.34514004,-0.4996473,-0.35304722,-0.025199575,0.050895337,0.014763279,0.33322096,3.3843114,-0.4806244,-1.9526231,0.0006574341,0.1790823,-0.03770409,5.937612e-05,-9.696816,16.209011,0.2500645,0.22426271,0.11109957,0.064901434,inf,inf,inf,inf,1,1,1,1,3,2,3,2,3,1,1,1,0,0,0
259045946,259045671,42042859,60.1877325,24.832678599999998,-5.4541893,-13.826563,-19.130215,0.1979316,0.09433211,2.0861626e-07,0.26921895,0.6075674,-0.23693426,-0.10291172,-0.025199575,0.050895337,0.014763279,-0.80986434,0.006193449,0.2816638,-1.9569337,0.0006597276,0.17502657,-0.03770409,5.9131286e-05,-9.696816,16.307877,0.25007194,0.22475621,0.109436736,0.06485172,inf,inf,inf,inf,1,1,1,1,3,2,3,2,3,1,1,1,0,0,0
259545947,259545671,42042859,60.1877325,24.832678599999998,-5.3257103,-13.467907,-19.182228,0.1979316,0.09433211,2.0861626e-07,0.18085656,0.80598146,-0.040121514,0.056445286,-0.025199575,0.050895337,0.014763279,0.7615128,-0.076658666,-0.94265884,-1.9534824,0.0006612212,0.1789873,-0.03770409,5.9259655e-05,-9.696816,16.35989,0.2500049,0.22474277,0.10870495,0.064769916,inf,inf,inf,inf,1,1,1,1,3,2,3,2,3,1,1,1,0,0,0
260045973,260045671,42042859,60.1877325,24.832678599999998,-5.235149,-13.034704,-19.16202,0.1979316,0.09433211,2.0861626e-07,0.06872128,0.86880267,0.07443895,0.13611771,-0.025199575,0.050895337,0.014763279,-1.0675693,0.12911738,-2.0246649,-1.941912,0.0006644813,0.19050653,-0.03770409,5.9624086e-05,-9.696816,16.339682,0.24990511,0.22466695,0.1080097,0.06468732,inf,inf,inf,inf,1,1,1,1,3,2,3,2,3,1,1,1,0,0,0
260545961,260545671,42042859,60.1877325,24.832678599999998,-5.2405972,-12.5925255,-19.08378,0.1979316,0.09433211,2.0861626e-07,-0.072317116,0.84014374,0.16615896,0.20486158,-0.025199575,0.050895337,0.014763279,-0.54860276,0.20460379,-0.35225618,-1.9673898,0.00067040086,0.16552423,-0.03770409,6.004839e-05,-9.696816,16.261442,0.24975494,0.22499041,0.107544586,0.06464826,inf,inf,inf,inf,1,1,1,1,3,2,3,2,3,1,1,1,0,0,0
261045945,261045671,42042859,60.1877325,24.832678599999998,-5.305432,-12.182155,-18.984888,0.1979316,0.09433211,2.0861626e-07,-0.21065043,0.78997225,0.25670016,0.28518486,-0.025199575,0.050895337,0.014763279,0.9733756,-0.61084026,2.4319673,-1.9884762,0.0006776547,0.1425735,-0.03770409,6.041361e-05,-9.696816,16.16255,0.24961431,0.22481693,0.10776633,0.06457389,inf,inf,inf,inf,1,1,1,1,3,2,3,2,3,1,1,1,0,0,0
261545950,261545671,42042859,60.1877325,24.832678599999998,-5.4609795,-11.759728,-18.869944,0.1979316,0.09433211,2.0861626e-07,-0.38109475,0.7316952,0.20048967,0.22779228,-0.025199575,0.050895337,0.014763279,2.141681,-0.48715836,0.33754092,-1.9471661,0.0006846494,0.18798487,-0.03770409,6.0725943e-05,-9.696816,16.047606,0.2494452,0.22459693,0.108178124,0.064519346,inf,inf,inf,inf,1,1,1,1,3,2,3,2,3,1,1,1,0,0,0
262045962,262045671,42042859,60.1877325,24.832678599999998,-5.6436176,-11.413417,-18.79739,0.1979316,0.09433211,2.0861626e-07,-0.3101519,0.52081245,0.041665427,0.07691056,-0.025199575,0.050895337,0.014763279,2.0546184,-2.1232142,1.2718012,-1.9472238,0.00069072127,0.1914423,-0.03770409,6.08403e-05,-9.696816,15.975052,0.24933329,0.22481884,0.10883377,0.06452989,inf,inf,inf,inf,1,1,1,1,3,2,3,2,3,1,1,1,0,0,0
262545963,262545671,42042859,60.1877325,24.832678599999998,-5.753312,-11.211257,-18.763737,0.1979316,0.09433211,2.0861626e-07,-0.13734159,0.26060084,-0.002109694,0.047261436,-0.025199575,0.050895337,0.014763279,0.97247845,0.8687717,0.32100064,-1.9318489,0.00069449213,0.20576446,-0.03770409,6.0708946e-05,-9.696816,15.941399,0.2492558,0.22456367,0.10951927,0.064501725,inf,inf,inf,inf,1,1,1,1,3,2,3,2,3,1,1,1,0,0,0
263045949,263045671,42042859,60.1877325,24.832678599999998,-5.790898,-11.14431,-18.728132,0.1979316,0.09433211,2.0861626e-07,0.013251199,-0.0030534542,0.0076513616,0.061133154,-0.025199575,0.050895337,0.014763279,1.6283836,1.7999685,1.2235632,-1.9138258,0.0006938367,0.2232479,-0.03770409,6.0561106e-05,-9.696816,15.905794,0.24922194,0.22430858,0.10998116,0.06450069,inf,inf,inf,inf,1,1,1,1,3,2,3,2,3,1,1,1,0,0,0
263545980,263545671,42042859,60.1877325,24.832678599999998,-5.74845,-11.195905,-18.709452,0.1979316,0.09433211,2.0861626e-07,0.12502445,-0.18475132,-0.028208513,0.022798993,-0.025199575,0.050895337,0.014763279,-1.881968,-1.8397,1.5030457,-1.8995779,0.00068951346,0.23437698,-0.03770409,6.0435726e-05,-9.696816,15.887114,0.24919172,0.22405025,0.11016287,0.06449834,inf,inf,inf,inf,1,1,1,1,3,2,3,2,3,1,1,1,0,0,0
264045961,264045671,42042859,60.1877325,24.832678599999998,-5.7011657,-11.269033,-18.722435,0.1979316,0.09433211,2.0861626e-07,0.08167405,-0.11344166,-0.12281258,-0.07903764,-0.025199575,0.050895337,0.014763279,3.588842,3.1872456,-4.0326085,-1.9120678,0.0006877982,0.22155838,-0.03770409,6.0340863e-05,-9.696816,15.900097,0.24922812,0.22428097,0.10947549,0.064529315,inf,inf,inf,inf,1,1,1,1,3,2,3,2,3,1,1,1,0,0,0
264545977,264545671,42042859,60.1877325,24.832678599999998,-5.638335,-11.4756775,-18.806583,0.1979316,0.09433211,2.0861626e-07,0.17734596,-0.7018705,-0.15824527,-0.11402121,-0.025199575,0.050895337,0.014763279,0.71888447,-2.4630044,-0.52750576,-1.9585669,0.0006897736,0.1776935,-0.03770409,6.017986e-05,-9.696816,15.984245,0.24928589,0.22407585,0.11015296,0.06453613,inf,inf,inf,inf,1,1,1,1,3,2,3,2,3,1,1,1,0,0,0
265045966,265045671,42042859,60.1877325,24.832678599999998,-5.578154,-11.943896,-18.827648,0.1979316,0.09433211,2.0861626e-07,0.11583492,-1.108564,-0.009824785,0.039455563,-0.025199575,0.050895337,0.014763279,-0.9924218,-3.7953193,1.0887152,-1.9676588,0.0006835325,0.16776001,-0.03770409,6.0239785e-05,-9.696816,16.00531,0.24938941,0.22390918,0.110092714,0.06457384,inf,inf,inf,inf,1,1,1,1,3,2,3,2,3,1,1,1,0,0,0
265545952,265545671,42042859,60.1877325,24.832678599999998,-5.5563307,-12.564925,-18.797283,0.1979316,0.09433211,2.0861626e-07,0.029089857,-1.2994707,-0.040763438,0.0055198814,-0.025199575,0.050895337,0.014763279,-1.8358812,2.4240618,0.9581899,-1.9622248,0.0006774179,0.16920592,-0.03770409,6.0562663e-05,-9.696816,15.974945,0.24948044,0.22421242,0.109550014,0.06463414,inf,inf,inf,inf,1,1,1,1,3,2,3,2,3,1,1,1,0,0,0
266045966,266045671,42042859,60.1877325,24.832678599999998,-5.598202,-13.232235,-18.793001,0.1979316,0.09433211,2.0861626e-07,-0.05424582,-1.288628,-0.06484208,-0.014705052,-0.025199575,0.050895337,0.014763279,0.671726,1.4864455,-2.4774709,-1.9557407,0.0006781203,0.17618981,-0.03770409,6.0814218e-05,-9.696816,15.970663,0.24956043,0.22406918,0.10883881,0.06460805,inf,inf,inf,inf,1,1,1,1,3,2,3,2,3,1,1,1,0,0,0
266545969,266545670,42042859,60.1877325,24.832678599999998,-5.6554146,-13.810352,-18.787798,0.1979316,0.09433211,2.0861626e-07,-0.050891086,-0.97329247,-0.08677209,-0.026131075,-0.025199575,0.050895337,0.014763279,0.7438277,1.5414008,-3.075,-1.9568721,0.0006846088,0.1755156,-0.03770409,6.0886676e-05,-9.696816,15.96546,0.24962611,0.22392797,0.10848158,0.06455459,inf,inf,inf,inf,1,1,1,1,3,2,3,2,3,1,1,1,0,0,0
267045953,267045671,42042859,60.1877325,24.832678599999998,-5.7118344,-14.187595,-18.787153,0.1979316,0.09433211,2.0861626e-07,-0.035538323,-0.5382781,-0.10123457,-0.03233855,-0.025199575,0.050895337,0.014763279,0.4308306,1.0043111,-2.5441082,-1.9673584,0.00068828755,0.16460194,-0.03770409,6.07129e-05,-9.696816,15.964815,0.24971187,0.22426796,0.10948235,0.064575925,inf,inf,inf,inf,1,1,1,1,3,2,3,2,3,1,1,1,0,0,0
267545948,267545671,42042859,60.1877325,24.832678599999998,-5.755836,-14.365555,-18.787882,0.1979316,0.09433211,2.0861626e-07,-0.055082407,-0.18017198,-0.12706518,-0.050232332,-0.025199575,0.050895337,0.014763279,-1.0226151,0.39260375,0.15091026,-1.9487158,0.000681526,0.18271323,-0.03770409,6.0412232e-05,-9.696816,15.965544,0.24980523,0.2241681,0.11063085,0.06456304,inf,inf,inf,inf,1,1,1,1,3,2,3,2,3,1,1,1,0,0,0
268045968,268045671,42042859,60.1877325,24.832678599999998,-5.7951827,-14.384756,-18.791393,0.1979316,0.09433211,2.0861626e-07,-0.0069976924,0.049747113,-0.10639236,-0.022519184,-0.025199575,0.050895337,0.014763279,0.5166599,0.34160665,-2.1497238,-1.938963,0.00066836743,0.19163674,-0.03770409,6.015055e-05,-9.696816,15.969055,0.24990092,0.22407791,0.11100639,0.06455112,inf,inf,inf,inf,1,1,1,1,3,2,3,2,3,1,1,1,0,0,0
268546006,268545671,42042859,60.1877325,24.832678599999998,-5.7994795,-14.316651,-18.796703,0.1979316,0.09433211,2.0861626e-07,0.030039959,0.15368342,-0.086131796,0.0024766303,-0.025199575,0.050895337,0.014763279,0.79873854,-1.6755947,0.39026594,-1.9521239,0.00065691775,0.1781607,-0.03770409,6.001063e-05,-9.696816,15.974365,0.24996698,0.22395582,0.110498205,0.0645153,inf,inf,inf,inf,1,1,1,1,3,2,3,2,3,1,1,1,0,0,0
269045942,269045671,42042859,60.1877325,24.832678599999998,-5.7995477,-14.183978,-18.798502,0.1979316,0.09433211,2.0861626e-07,0.046678245,0.40159208,-0.15106523,-0.06512946,-0.025199575,0.050895337,0.014763279,1.8350701,-1.7947041,0.21256118,-1.9055678,0.00065133447,0.22665259,-0.03770409,6.0007675e-05,-9.696816,15.976164,0.25002235,0.22428149,0.10979295,0.06453829,inf,inf,inf,inf,1,1,1,1,3,2,3,2,3,1,1,1,0,0,0
269545950,269545671,42042859,60.1877325,24.832678599999998,-5.7681017,-13.8223715,-18.820194,0.1979316,0.09433211,2.0861626e-07,0.11951888,0.84165204,-0.062814064,0.018489182,-0.025199575,0.050895337,0.014763279,0.37222594,1.7787204,1.6366658,-1.5522392,0.0006429135,0.57607603,-0.03770409,6.003021e-05,-9.696816,15.997856,0.2501025,0.2241562,0.110998474,0.06455775,inf,inf,inf,inf,1,1,1,1,3,2,3,2,3,1,1,1,0,0,0
270045994,270045671,42042859,60.1877325,24.832678599999998,-5.7405605,-13.394904,-18.812786,0.1979316,0.09433211,2.0861626e-07,0.14030145,0.7671026,-0.034583703,0.035327315,-0.025199575,0.050895337,0.014763279,1.8496486,-0.807832,1.5825553,-1.105283,0.0006370827,1.021151,-0.03770409,5.9931328e-05,-9.696816,15.990448,0.25020087,0.22403778,0.11019886,0.0645173,inf,inf,inf,inf,1,1,1,1,3,2,3,2,3,1,1,1,0,0,0
270545974,270545672,42042859,60.1877325,24.832678599999998,-5.7116036,-13.051261,-18.808357,0.1979316,0.09433211,2.0861626e-07,0.100328654,0.5576333,-0.061042584,0.0024121231,-0.025199575,0.050895337,0.014763279,-2.7403553,-0.00070945284,-0.09892598,-0.59706444,0.00064340385,1.5282881,-0.03770409,5.8474157e-05,-9.696816,15.986019,0.25025535,0.22435446,0.112358116,0.06451646,inf,inf,inf,inf,1,1,1,1,3,2,3,2,3,1,1,1,0,0,0
271045948,271045671,42042859,60.1877325,24.832678599999998,-5.6959214,-12.823482,-18.81214,0.1979316,0.09433211,2.0861626e-07,0.040536385,0.37827474,-0.08325687,-0.021778865,-0.025199575,0.050895337,0.014763279,-2.116588,-0.8384564,-1.1815379,-0.07027894,0.00065347797,2.0552425,-0.03770409,5.410546e-05,-9.696816,15.989801,0.25031844,0.2242095,0.11886315,0.064521596,inf,inf,inf,inf,1,1,1,1,3,2,3,2,3,1,1,1,0,0,0
272045959,272045671,42042859,60.1877325,24.832678599999998,-5.685363,-12.728335,-18.84883,0.1979316,0.09433211,2.0861626e-07,-0.024546478,0.11247625,-0.07836269,-0.016666338,-0.025199575,0.050895337,0.014763279,-0.4789615,0.6652073,0.25858453,0.90252596,0.00066831947,3.0257857,-0.03770409,3.837799e-05,-9.696816,16.026491,0.25081998,0.2244356,0.1324015,0.064716645,inf,inf,inf,inf,1,1,1,1,3,2,3,2,3,1,1,1,0,0,0
272545963,272545671,42042859,60.1877325,24.832678599999998,-5.649135,-12.754461,-18.852392,0.1979316,0.09433211,2.0861626e-07,-0.033972792,0.053707156,-0.08641051,-0.02363507,-0.025199575,0.050895337,0.014763279,-0.9331006,-0.14391606,-0.04024599,1.3819671,0.00067612674,-2.779977,-0.03770409,3.1008538e-05,-9.696816,16.030054,0.25096524,0.22429012,0.13310407,0.06468014,inf,inf,inf,inf,1,1,1,1,3,2,3,2,3,1,1,1,0,0,0
273045961,273045671,42042859,60.1877325,24.832678599999998,-5.6284986,-12.799639,-18.850103,0.1979316,0.09433211,2.0861626e-07,-0.060907822,0.03545316,-0.00930516,0.044648804,-0.025199575,0.050895337,0.014763279,-1.4289795,-0.23031884,1.8184615,1.8781004,0.0006847401,-2.284624,-0.03770409,2.5845296e-05,-9.696816,16.027765,0.25121224,0.22419463,0.13086097,0.06465266,inf,inf,inf,inf,1,1,1,1,3,2,3,2,3,1,1,1,0,0,0
274045945,274045671,42042859,60.1877325,24.832678599999998,-5.602647,-12.804572,-18.847166,0.1979316,0.09433211,2.0861626e-07,-0.037197195,0.055415187,-0.013126411,0.012567158,-0.025199575,0.050895337,0.014763279,-0.946507,1.3565637,0.7088607,2.796021,0.00070187764,-1.3666711,-0.03770409,2.1040767e-05,-9.696816,16.024828,0.25412634,0.22555935,0.12498509,0.06510688,inf,inf,inf,inf,1,1,1,1,3,2,3,2,3,1,1,1,0,0,0
274545967,274545671,42042859,60.1877325,24.832678599999998,-5.6219726,-12.780379,-18.834656,0.1979316,0.09433211,2.0861626e-07,-0.038630605,0.027173609,-0.018797802,0.011774126,-0.025199575,0.050895337,0.014763279,1.1583059,0.06934938,-0.8491943,-2.988714,0.0007094202,-0.8677678,-0.03770409,2.0132884e-05,-9.696816,16.012318,0.25538838,0.2261026,0.12110384,0.065277494,inf,inf,inf,inf,1,1,1,1,3,2,3,2,3,1,1,1,0,0,0
275045992,275045671,42042859,60.1877325,24.832678599999998,-5.6080384,-12.769234,-18.829817,0.1979316,0.09433211,2.0861626e-07,0.010937521,-0.028012171,0.0052260915,0.03201963,-0.025199575,0.050895337,0.014763279,-1.1886714,-0.5433667,-2.6571305,-2.4597092,0.00071601657,-0.33817592,-0.03770409,1.9818706e-05,-9.696816,16.007479,0.2570869,0.22694291,0.1179188,0.065556034,inf,inf,inf,inf,1,1,1,1,3,2,3,2,3,1,1,1,0,0,0
275545946,275545671,42042859,60.1877325,24.832678599999998,-5.591014,-12.793204,-18.832064,0.1979316,0.09433211,2.0861626e-07,0.054259986,-0.09502586,-0.03524561,-0.0118327355,-0.025199575,0.050895337,0.014763279,-0.5138068,-0.30615243,-0.53043234,-1.930534,0.00072139007,0.19149458,-0.03770409,1.9511612e-05,-9.696816,16.009726,0.2570413,0.22780973,0.11285148,0.06547312,inf,inf,inf,inf,1,1,1,1,3,2,3,2,3,1,1,1,0,0,0
276045946,276045671,42042859,60.1877325,24.832678599999998,-5.613438,-12.836641,-18.8217,0.1979316,0.09433211,2.0861626e-07,0.013822952,-0.020725919,0.008233128,0.038320985,-0.025199575,0.050895337,0.014763279,0.04057323,0.6204447,4.7305183,-1.4766002,0.0007263388,0.6469853,-0.03770409,1.9630597e-05,-9.696816,15.999361,0.25848863,0.22880208,0.1112703,0.06573257,inf,inf,inf,inf,1,1,1,1,3,2,3,2,3,1,1,1,0,0,0
276545966,276545671,42042859,60.1877325,24.832678599999998,-5.6331615,-12.883469,-18.796907,0.1979316,0.09433211,2.0861626e-07,0.03130755,0.0048514586,0.026861364,0.058121197,-0.025199575,0.050895337,0.014763279,-0.36864924,0.036559425,-0.8368189,-0.97257555,0.00073219894,1.1528126,-0.03770409,1.9735773e-05,-9.696816,15.974569,0.25969625,0.22971176,0.11042456,0.065893166,inf,inf,inf,inf,1,1,1,1,3,2,3,2,3,1,1,1,0,0,0
277045961,277045671,42042859,60.1877325,24.832678599999998,-5.6403584,-12.903073,-18.779997,0.1979316,0.09433211,2.0861626e-07,-0.014043246,0.0146675445,-0.011939139,0.017354058,-0.025199575,0.050895337,0.014763279,-0.9518478,0.08171685,-1.7461857,-0.4684142,0.0007394706,1.6585505,-0.03770409,1.96721e-05,-9.696816,15.957659,0.25962928,0.23054263,0.10920142,0.06576831,inf,inf,inf,inf,1,1,1,1,3,2,3,2,3,1,1,1,0,0,0
277545943,277545670,42042859,60.1877325,24.832678599999998,-5.6039357,-12.9374275,-18.76229,0.1979316,0.09433211,2.0861626e-07,0.10453003,0.011113856,-0.043679815,-0.007952949,-0.025199575,0.050895337,0.014763279,-4.3612633,1.802644,-3.677358,-0.10398557,0.00074874534,2.0244489,-0.03770409,1.9565838e-05,-9.696816,15.939951,0.25888896,0.23043492,0.10826592,0.065440275,inf,inf,inf,inf,1,1,1,1,3,2,3,2,3,1,1,1,0,0,0
