timestamp,timestamp_sample,q[0],q[1],q[2],q[3],delta_q_reset[0],delta_q_reset[1],delta_q_reset[2],delta_q_reset[3],quat_reset_counter
200550811,200550671,-0.45700577,0.015407096,-0.014250782,0.8892161,0.99999285,-3.9203768e-10,2.0857762e-09,0.0037904806,2
201050810,201050671,-0.45712984,0.0153966,-0.014255582,0.8891524,0.99999285,-3.9203768e-10,2.0857762e-09,0.0037904806,2
201550808,201550671,-0.4574558,0.015354778,-0.014267725,0.8889853,0.99999285,-3.9203768e-10,2.0857762e-09,0.0037904806,2
202050893,202050671,-0.45770565,0.015442228,-0.014299599,0.8888547,0.99999285,-3.9203768e-10,2.0857762e-09,0.0037904806,2
202550811,202550671,-0.45807898,0.015488571,-0.0143043995,0.8886614,0.99999285,-3.9203768e-10,2.0857762e-09,0.0037904806,2
203050814,203050671,-0.45844892,0.015573528,-0.014268754,0.8884698,0.99999285,-3.9203768e-10,2.0857762e-09,0.0037904806,2
203550806,203550671,-0.4586579,0.015657008,-0.014255065,0.88836074,0.99999285,-3.9203768e-10,2.0857762e-09,0.0037904806,2
204050808,204050671,-0.4589483,0.01570326,-0.014268799,0.88820964,0.99999285,-3.9203768e-10,2.0857762e-09,0.0037904806,2
204550809,204550672,-0.45918524,0.015542424,-0.014095857,0.8880927,0.99999285,-3.9203768e-10,2.0857762e-09,0.0037904806,2
205050808,205050671,-0.4595141,0.014932034,-0.013897975,0.8879362,0.99999285,-3.9203768e-10,2.0857762e-09,0.0037904806,2
205550810,205550671,-0.46241575,-0.00453885,0.0133986315,0.8865504,0.99999285,-3.9203768e-10,2.0857762e-09,0.0037904806,2
206050815,206050671,-0.49321187,0.0069615636,-0.011964128,0.8697991,0.99999285,-3.9203768e-10,2.0857762e-09,0.0037904806,2
207050807,207050671,-0.5176337,0.013929655,-0.008661474,0.8554451,0.99999285,-3.9203768e-10,2.0857762e-09,0.0037904806,2
207550809,207550671,-0.5081912,0.009324463,-0.01244204,0.8611039,0.99999285,-3.9203768e-10,2.0857762e-09,0.0037904806,2
208050808,208050671,-0.4768432,-0.004356929,0.015476301,0.8788414,0.99999285,-3.9203768e-10,2.0857762e-09,0.0037904806,2
208550809,208550671,-0.44222417,0.013024683,0.01660778,0.8966563,0.9998223,-7.518711e-10,-7.540098e-10,-0.018850928,3
209050807,209050671,-0.45038366,0.054188974,0.029840253,0.8906895,0.9998223,-7.518711e-10,-7.540098e-10,-0.018850928,3
209550809,209550671,-0.49804085,0.062282577,0.03478693,0.8642141,0.9998223,-7.518711e-10,-7.540098e-10,-0.018850928,3
210050810,210050671,-0.54215187,0.07240092,0.038925014,0.83625025,0.9998223,-7.518711e-10,-7.540098e-10,-0.018850928,3
210550818,210550671,-0.5454296,0.06122227,0.044483658,0.83473325,0.9998223,-7.518711e-10,-7.540098e-10,-0.018850928,3
211550812,211550671,-0.5689384,0.014900468,0.018263673,0.82204235,0.9998223,-7.518711e-10,-7.540098e-10,-0.018850928,3
212050807,212050671,-0.5562595,0.016283182,0.005042263,0.8308339,0.9998223,-7.518711e-10,-7.540098e-10,-0.018850928,3
212550816,212550671,-0.5550259,-0.015023338,-0.010940165,0.83162546,0.9998223,-7.518711e-10,-7.540098e-10,-0.018850928,3
213050810,213050671,-0.55612195,-0.0557929,-0.046575233,0.8279168,0.9998223,-7.518711e-10,-7.540098e-10,-0.018850928,3
213550809,213550671,-0.56651706,-0.026501797,-0.039073113,0.82269645,0.9998223,-7.518711e-10,-7.540098e-10,-0.018850928,3
214050807,214050671,-0.5738174,-0.018595688,-0.02586723,0.8183635,0.9998223,-7.518711e-10,-7.540098e-10,-0.018850928,3
214550812,214550672,-0.5763119,0.0098875435,-0.013379375,0.8170606,0.9998223,-7.518711e-10,-7.540098e-10,-0.018850928,3
215050809,215050671,-0.5741745,0.022599835,-0.005882591,0.81839997,0.9998223,-7.518711e-10,-7.540098e-10,-0.018850928,3
215550810,215550671,-0.567455,0.030146781,0.0014648545,0.8228511,0.9998223,-7.518711e-10,-7.540098e-10,-0.018850928,3
216050816,216050671,-0.55387324,0.062211573,0.017560266,0.83008784,0.9998223,-7.518711e-10,-7.540098e-10,-0.018850928,3
216550811,216550672,-0.5535521,0.08342038,0.03408954,0.8279246,0.9998223,-7.518711e-10,-7.540098e-10,-0.018850928,3
217050810,217050672,-0.5598246,0.018977722,0.0031098244,0.8283879,0.9998223,-7.518711e-10,-7.540098e-10,-0.018850928,3
217550809,217550671,-0.56508785,0.026078865,-0.0007648243,0.82461816,0.9998223,-7.518711e-10,-7.540098e-10,-0.018850928,3
218050813,218050674,-0.5605282,0.16134477,0.104794115,0.8054777,0.9998223,-7.518711e-10,-7.540098e-10,-0.018850928,3
218550809,218550671,-0.5611866,0.081074126,0.034869514,0.8229707,0.9998223,-7.518711e-10,-7.540098e-10,-0.018850928,3
219050810,219050671,-0.55578774,0.026243286,0.00011826378,0.8309099,0.9998223,-7.518711e-10,-7.540098e-10,-0.018850928,3
219550817,219550671,-0.5565922,0.046025213,0.022876393,0.82919455,0.9998223,-7.518711e-10,-7.540098e-10,-0.018850928,3
220050809,220050671,-0.55959535,0.061106976,0.017502151,0.8263248,0.9998223,-7.518711e-10,-7.540098e-10,-0.018850928,3
221050809,221050671,-0.56053555,0.0023819953,-0.019924121,0.82788724,0.9998223,-7.518711e-10,-7.540098e-10,-0.018850928,3
221550809,221550671,-0.5763572,0.008396509,-0.01756381,0.816966,0.9998223,-7.518711e-10,-7.540098e-10,-0.018850928,3
222050805,222050671,-0.5838084,0.01995663,0.005783501,0.8116256,0.9998223,-7.518711e-10,-7.540098e-10,-0.018850928,3
222550810,222550671,-0.57488865,0.039529625,0.001559545,0.8172748,0.9998223,-7.518711e-10,-7.540098e-10,-0.018850928,3
223050809,223050671,-0.56032497,0.026570119,-0.0065628807,0.82782066,0.9998223,-7.518711e-10,-7.540098e-10,-0.018850928,3
223550812,223550671,-0.5716269,0.007912425,0.010841664,0.8204039,0.9998223,-7.518711e-10,-7.540098e-10,-0.018850928,3
224050807,224050671,-0.57718724,-0.00011383317,0.0066792294,0.8165846,0.9998223,-7.518711e-10,-7.540098e-10,-0.018850928,3
224550812,224550671,-0.5561103,0.012450042,0.00072468776,0.8310149,0.9998223,-7.518711e-10,-7.540098e-10,-0.018850928,3
225050809,225050671,-0.5423993,0.019158203,0.006630791,0.83987623,0.9998223,-7.518711e-10,-7.540098e-10,-0.018850928,3
226050811,226050672,-0.55868274,0.011151027,-0.0054127467,0.8292889,0.9998223,-7.518711e-10,-7.540098e-10,-0.018850928,3
226550808,226550671,-0.56655675,0.00514096,0.0150564285,0.82386917,0.9998223,-7.518711e-10,-7.540098e-10,-0.018850928,3
227050810,227050671,-0.5560722,-0.0014958357,0.025591185,0.83073854,0.9998223,-7.518711e-10,-7.540098e-10,-0.018850928,3
227550808,227550671,-0.54135114,0.0062062773,0.021899177,0.84048855,0.9998223,-7.518711e-10,-7.540098e-10,-0.018850928,3
228050810,228050671,-0.5506001,0.0027922194,0.032533165,0.8341304,0.9998223,-7.518711e-10,-7.540098e-10,-0.018850928,3
228550807,228550671,-0.581655,0.0071641835,0.009385158,0.81334996,0.9998223,-7.518711e-10,-7.540098e-10,-0.018850928,3
229050810,229050671,-0.56468964,0.012848959,-0.0060854,0.8251808,0.9998223,-7.518711e-10,-7.540098e-10,-0.018850928,3
229550813,229550671,-0.5727556,0.0030674483,0.010399524,0.8196545,0.9998223,-7.518711e-10,-7.540098e-10,-0.018850928,3
230050810,230050671,-0.5664876,0.00710081,0.006839539,0.8240114,0.9998223,-7.518711e-10,-7.540098e-10,-0.018850928,3
230550811,230550671,-0.5589408,0.012412527,0.010377322,0.8290498,0.9998223,-7.518711e-10,-7.540098e-10,-0.018850928,3
231050817,231050671,-0.56057996,0.0025522024,0.0038344387,0.8280875,0.9998223,-7.518711e-10,-7.540098e-10,-0.018850928,3
231550811,231550671,-0.5560618,0.026234083,0.0069236406,0.8306981,0.9998223,-7.518711e-10,-7.540098e-10,-0.018850928,3
232050811,232050671,-0.55846214,0.015867012,-0.00200251,0.8293758,0.9998223,-7.518711e-10,-7.540098e-10,-0.018850928,3
232550811,232550671,-0.57001215,0.023477297,0.005290231,0.82128376,0.9998223,-7.518711e-10,-7.540098e-10,-0.018850928,3
233050809,233050671,-0.5593843,0.024115335,-0.0062229354,0.8285343,0.9998223,-7.518711e-10,-7.540098e-10,-0.018850928,3
233550810,233550671,-0.54183656,-0.0013240263,0.00034433696,0.8404828,0.9998223,-7.518711e-10,-7.540098e-10,-0.018850928,3
235050810,235050671,-0.5719532,0.019031148,0.0114456555,0.8199856,0.9998223,-7.518711e-10,-7.540098e-10,-0.018850928,3
235550810,235550671,-0.5641699,0.044816833,0.012728639,0.82434326,0.9998223,-7.518711e-10,-7.540098e-10,-0.018850928,3
236050808,236050671,-0.5843674,0.012291116,0.009563763,0.81133986,0.9998223,-7.518711e-10,-7.540098e-10,-0.018850928,3
236550808,236550671,-0.5642297,0.024107294,-0.011938977,0.8251795,0.9998223,-7.518711e-10,-7.540098e-10,-0.018850928,3
237050809,237050671,-0.56069607,0.019776316,0.0068801064,0.8277569,0.9998223,-7.518711e-10,-7.540098e-10,-0.018850928,3
237550831,237550671,-0.5690332,0.025851589,-0.0072304504,0.82187635,0.9998223,-7.518711e-10,-7.540098e-10,-0.018850928,3
238050806,238050671,-0.5814607,0.01981201,-0.009943042,0.8132725,0.9998223,-7.518711e-10,-7.540098e-10,-0.018850928,3
238550834,238550689,-0.57779115,0.017564926,-0.009058649,0.81594545,0.9998223,-7.518711e-10,-7.540098e-10,-0.018850928,3
239050827,239050671,-0.5714379,0.0118793845,-0.00255616,0.8205554,0.9998223,-7.518711e-10,-7.540098e-10,-0.018850928,3
239550811,239550671,-0.55421627,-0.11439466,0.11005591,0.81709605,0.9998223,-7.518711e-10,-7.540098e-10,-0.018850928,3
240050824,240050671,-0.54777914,-0.039308276,0.04611237,0.83442587,0.9998223,-7.518711e-10,-7.540098e-10,-0.018850928,3
240550817,240550671,-0.54616463,0.009609124,0.014415012,0.83749884,0.9998223,-7.518711e-10,-7.540098e-10,-0.018850928,3
241050817,241050671,-0.5486143,0.038584076,-0.018017614,0.8349905,0.9998223,-7.518711e-10,-7.540098e-10,-0.018850928,3
241550814,241550671,-0.5536337,0.049277157,-0.023129271,0.8309793,0.9998223,-7.518711e-10,-7.540098e-10,-0.018850928,3
242050812,242050671,-0.5612008,0.052614693,-0.026995955,0.82556444,0.9998223,-7.518711e-10,-7.540098e-10,-0.018850928,3
242550814,242550671,-0.56860805,0.04079505,-0.009420675,0.82154244,0.9998223,-7.518711e-10,-7.540098e-10,-0.018850928,3
243050812,243050671,-0.5588895,0.028225945,-0.009764807,0.82870406,0.9998223,-7.518711e-10,-7.540098e-10,-0.018850928,3
243550818,243550671,-0.5491741,0.13192445,-0.075638026,0.8217559,0.9998223,-7.518711e-10,-7.540098e-10,-0.018850928,3
244050811,244050671,-0.5662284,0.03424133,-0.014978984,0.8234007,0.9998223,-7.518711e-10,-7.540098e-10,-0.018850928,3
244550821,244550671,-0.56551665,-0.010023171,0.02309135,0.82435274,0.9998223,-7.518711e-10,-7.540098e-10,-0.018850928,3
245050813,245050670,-0.56880933,-0.024771227,0.03378337,0.8214019,0.9998223,-7.518711e-10,-7.540098e-10,-0.018850928,3
245550814,245550671,-0.56294674,-0.01779566,0.03364921,0.8256161,0.9998223,-7.518711e-10,-7.540098e-10,-0.018850928,3
246050815,246050672,-0.55739516,-0.0070048478,0.020607669,0.82996196,0.9998223,-7.518711e-10,-7.540098e-10,-0.018850928,3
246550815,246550671,-0.55773187,-0.012937976,0.020070588,0.8296776,0.9998223,-7.518711e-10,-7.540098e-10,-0.018850928,3
247050813,247050671,-0.54784197,-0.062040526,0.044343702,0.833099,0.9998223,-7.518711e-10,-7.540098e-10,-0.018850928,3
248050813,248050671,-0.5470398,0.061501782,-0.04394509,0.83368695,0.9998223,-7.518711e-10,-7.540098e-10,-0.018850928,3
248550815,248550671,-0.5493137,0.06455159,-0.043193184,0.83199877,0.9998223,-7.518711e-10,-7.540098e-10,-0.018850928,3
249050811,249050671,-0.56615895,0.055093218,-0.033394117,0.8217747,0.9998223,-7.518711e-10,-7.540098e-10,-0.018850928,3
249550809,249550671,-0.5689327,0.035829894,-0.025647746,0.8212029,0.9998223,-7.518711e-10,-7.540098e-10,-0.018850928,3
250050810,250050671,-0.5674648,0.014735466,-0.012159251,0.82317597,0.9998223,-7.518711e-10,-7.540098e-10,-0.018850928,3
250550816,250550671,-0.571735,-0.0017935024,0.018114377,0.82023644,0.9998223,-7.518711e-10,-7.540098e-10,-0.018850928,3
251050815,251050672,-0.56977206,-0.015856298,0.034588873,0.8209215,0.9998223,-7.518711e-10,-7.540098e-10,-0.018850928,3
251550819,251550675,-0.5670339,-0.0038318972,0.027095264,0.82323974,0.9998223,-7.518711e-10,-7.540098e-10,-0.018850928,3
252050813,252050671,-0.5636778,0.003847914,0.022040011,0.8256917,0.9998223,-7.518711e-10,-7.540098e-10,-0.018850928,3
252550816,252550672,-0.5535357,0.014809954,0.018746343,0.83248276,0.9998223,-7.518711e-10,-7.540098e-10,-0.018850928,3
253050823,253050671,-0.5536159,0.0077523203,0.01975211,0.8325017,0.9998223,-7.518711e-10,-7.540098e-10,-0.018850928,3
253550820,253550671,-0.55663854,-0.014165929,0.027092587,0.8301921,0.9998223,-7.518711e-10,-7.540098e-10,-0.018850928,3
254050815,254050672,-0.5714302,0.028970465,-0.008944105,0.8200905,0.9998223,-7.518711e-10,-7.540098e-10,-0.018850928,3
254550809,254550671,-0.5660482,0.05523526,-0.027048068,0.82207483,0.9998223,-7.518711e-10,-7.540098e-10,-0.018850928,3
255050813,255050671,-0.5579205,0.057542432,-0.01401878,0.82777846,0.9998223,-7.518711e-10,-7.540098e-10,-0.018850928,3
255550809,255550671,-0.54937035,0.03361001,0.0029503936,0.8348976,0.9998223,-7.518711e-10,-7.540098e-10,-0.018850928,3
256050814,256050671,-0.5450785,0.028760208,0.017761923,0.83770335,0.9998223,-7.518711e-10,-7.540098e-10,-0.018850928,3
256550816,256550672,-0.5547615,0.028184857,0.0006781771,0.83153164,0.9998223,-7.518711e-10,-7.540098e-10,-0.018850928,3
257550814,257550671,-0.5717454,0.021610918,0.0101171285,0.82008404,0.9998223,-7.518711e-10,-7.540098e-10,-0.018850928,3
258050812,258050671,-0.56987655,-0.02255886,0.019941779,0.82117856,0.9998223,-7.518711e-10,-7.540098e-10,-0.018850928,3
258550818,258550671,-0.5599789,0.0058506457,-0.011484198,0.82840663,0.9998223,-7.518711e-10,-7.540098e-10,-0.018850928,3
259050813,259050671,-0.55813664,0.0073610945,-0.022107167,0.8294219,0.9998223,-7.518711e-10,-7.540098e-10,-0.018850928,3
259550816,259550671,-0.5592508,0.026701523,-0.014229682,0.8284462,0.9998223,-7.518711e-10,-7.540098e-10,-0.018850928,3
260050814,260050671,-0.56336284,0.040133238,-0.01167173,0.82515174,0.9998223,-7.518711e-10,-7.540098e-10,-0.018850928,3
260550816,260550671,-0.5528831,0.03383906,-0.0067586666,0.83254397,0.9998223,-7.518711e-10,-7.540098e-10,-0.018850928,3
261050813,261050671,-0.5442496,0.03370249,-0.032797974,0.8376043,0.9998223,-7.518711e-10,-7.540098e-10,-0.018850928,3
261550813,261550671,-0.5616269,0.034589164,0.012598182,0.82657135,0.9998223,-7.518711e-10,-7.540098e-10,-0.018850928,3
262050813,262050671,-0.5622347,0.025500746,0.032138877,0.8259594,0.9998223,-7.518711e-10,-7.540098e-10,-0.018850928,3
262550816,262550672,-0.5684546,0.030416785,0.02592267,0.8217434,0.9998223,-7.518711e-10,-7.540098e-10,-0.018850928,3
263050806,263050671,-0.57576,0.030280653,0.022285953,0.81675386,0.9998223,-7.518711e-10,-7.540098e-10,-0.018850928,3
263550812,263550671,-0.5810579,0.03526017,0.00095431955,0.81309754,0.9998223,-7.518711e-10,-7.540098e-10,-0.018850928,3
264050816,264050671,-0.57613873,0.03013111,-0.00026980828,0.8167963,0.9998223,-7.518711e-10,-7.540098e-10,-0.018850928,3
264550808,264550671,-0.5562827,0.06072575,0.054924622,0.8269494,0.9998223,-7.518711e-10,-7.540098e-10,-0.018850928,3
265050813,265050671,-0.55312943,0.049689133,0.04385621,0.83045506,0.9998223,-7.518711e-10,-7.540098e-10,-0.018850928,3
265550822,265550672,-0.5552259,0.038976375,0.009919082,0.8307266,0.9998223,-7.518711e-10,-7.540098e-10,-0.018850928,3
266050813,266050672,-0.558563,0.015875136,-0.0066777654,0.8292833,0.9998223,-7.518711e-10,-7.540098e-10,-0.018850928,3
266550811,266550671,-0.558356,0.001160153,-0.034066796,0.82890093,0.9998223,-7.518711e-10,-7.540098e-10,-0.018850928,3
267050811,267050672,-0.5541338,-5.303445e-06,-0.032442484,0.8317952,0.9998223,-7.518711e-10,-7.540098e-10,-0.018850928,3
267550812,267550671,-0.5618515,-0.00043205262,-0.026470743,0.82681435,0.9998223,-7.518711e-10,-7.540098e-10,-0.018850928,3
268050819,268050671,-0.5656978,0.00086701254,-0.015858253,0.8244598,0.9998223,-7.518711e-10,-7.540098e-10,-0.018850928,3
268550809,268550671,-0.5599836,0.017261252,-0.014961542,0.8281888,0.9998223,-7.518711e-10,-7.540098e-10,-0.018850928,3
269050814,269050675,-0.5800295,-0.046731457,-0.066179164,0.81055677,0.9998223,-7.518711e-10,-7.540098e-10,-0.018850928,3
269550810,269550671,-0.7151072,-0.002527615,-0.017443314,0.6987926,0.9998223,-7.518711e-10,-7.540098e-10,-0.018850928,3
270050810,270050671,-0.85211146,0.021079225,-0.0009783425,0.5229348,0.9998223,-7.518711e-10,-7.540098e-10,-0.018850928,3
270550812,270550671,-0.9560952,0.02857824,-0.005514493,0.29160756,0.9998223,-7.518711e-10,-7.540098e-10,-0.018850928,3
271050807,271050671,-0.9989695,0.028995654,-0.013784028,0.032081246,0.9998223,-7.518711e-10,-7.540098e-10,-0.018850928,3
272050808,272050671,-0.89865386,0.011527803,-0.01272995,-0.43832222,0.9998223,-7.518711e-10,-7.540098e-10,-0.018850928,3
272550811,272550671,-0.7689927,0.005715293,-0.020228552,-0.63891184,0.9998223,-7.518711e-10,-7.540098e-10,-0.018850928,3
273050808,273050671,-0.5885403,-0.0036316237,-0.016853964,-0.8082841,0.9998223,-7.518711e-10,-7.540098e-10,-0.018850928,3
274050810,274050672,-0.16960177,-0.0017230515,-0.022072755,-0.98526406,0.9998223,-7.518711e-10,-7.540098e-10,-0.018850928,3
274550810,274550671,0.07912517,-0.005159427,-0.014799375,-0.99674153,0.9998223,-7.518711e-10,-7.540098e-10,-0.018850928,3
275050810,275050671,0.3369941,-0.005849833,-0.013083332,-0.9413977,0.9998223,-7.518711e-10,-7.540098e-10,-0.018850928,3
275550809,275550671,0.57105047,-0.011221567,-0.0063191154,-0.82081395,0.9998223,-7.518711e-10,-7.540098e-10,-0.018850928,3
276050814,276050671,0.74112767,-0.008077543,0.0029103162,-0.6713093,0.9998223,-7.518711e-10,-7.540098e-10,-0.018850928,3
276550810,276550671,0.88529223,-0.0081222365,0.00063912256,-0.46496382,0.9998223,-7.518711e-10,-7.540098e-10,-0.018850928,3
277050810,277050671,0.97322,-0.011236063,0.0030091177,-0.2295811,0.9998223,-7.518711e-10,-7.540098e-10,-0.018850928,3
277550810,277550671,0.9986759,-0.003976385,0.0058990656,-0.050950162,0.9998223,-7.518711e-10,-7.540098e-10,-0.018850928,3
278050814,278050674,0.99958116,0.003551511,0.023459539,-0.016574005,0.9998223,-7.518711e-10,-7.540098e-10,-0.018850928,3
278550810,278550671,0.9989186,0.0059613218,0.02372023,-0.039540075,0.9998223,-7.518711e-10,-7.540098e-10,-0.018850928,3
279050809,279050671,0.99821454,2.4365485e-05,0.01828931,-0.05686267,0.9998223,-7.518711e-10,-7.540098e-10,-0.018850928,3
279550810,279550671,0.9982274,-0.0035975885,0.022030093,-0.05517161,0.9998223,-7.518711e-10,-7.540098e-10,-0.018850928,3
280550810,280550671,0.99623275,-0.024236722,0.02558452,-0.0792367,0.9998223,-7.518711e-10,-7.540098e-10,-0.018850928,3
281050812,281050671,0.9962204,-0.02767226,0.030940661,-0.076301895,0.9998223,-7.518711e-10,-7.540098e-10,-0.018850928,3
281550809,281550671,0.9958103,-0.017450456,0.02736671,-0.085489616,0.9998223,-7.518711e-10,-7.540098e-10,-0.018850928,3
282050807,282050671,0.99561745,-0.021815857,0.02759689,-0.08665172,0.9998223,-7.518711e-10,-7.540098e-10,-0.018850928,3
282550807,282550671,0.99608374,-0.025116906,0.028474877,-0.07984714,0.9998223,-7.518711e-10,-7.540098e-10,-0.018850928,3
283050812,283050671,0.9967182,-0.010197023,0.025435464,-0.07617042,0.9998223,-7.518711e-10,-7.540098e-10,-0.018850928,3
283550809,283550671,0.99452955,-0.0150149185,0.026908848,-0.09980698,0.9998223,-7.518711e-10,-7.540098e-10,-0.018850928,3
284050813,284050671,0.82561445,-0.011452342,0.03406424,-0.563089,0.9998223,-7.518711e-10,-7.540098e-10,-0.018850928,3
284550810,284550671,0.6077418,-0.033483677,-0.011084825,-0.7933512,0.9998223,-7.518711e-10,-7.540098e-10,-0.018850928,3
285050810,285050671,0.54955685,-0.03328253,-0.014040935,-0.83467513,0.9998223,-7.518711e-10,-7.540098e-10,-0.018850928,3
285550811,285550671,0.5475619,-0.04601388,-0.033037607,-0.8348457,0.9998223,-7.518711e-10,-7.540098e-10,-0.018850928,3
286050812,286050671,0.5661329,-0.049262445,-0.022973856,-0.82251996,0.9998223,-7.518711e-10,-7.540098e-10,-0.018850928,3
286550811,286550671,0.590407,-0.050943844,0.005966627,-0.8054742,0.9998223,-7.518711e-10,-7.540098e-10,-0.018850928,3
287050811,287050671,0.5997124,-0.048482094,0.026861921,-0.7982938,0.9998223,-7.518711e-10,-7.540098e-10,-0.018850928,3
287550808,287550671,0.59048927,-0.047133625,0.02776935,-0.8051894,0.9998223,-7.518711e-10,-7.540098e-10,-0.018850928,3
288050810,288050671,0.58309233,-0.046291623,0.029402472,-0.8105529,0.9998223,-7.518711e-10,-7.540098e-10,-0.018850928,3
288550809,288550671,0.5776168,-0.034395814,0.021535847,-0.8152987,0.9998223,-7.518711e-10,-7.540098e-10,-0.018850928,3
289050815,289050671,0.5664256,-0.045308582,0.019894294,-0.822626,0.9998223,-7.518711e-10,-7.540098e-10,-0.018850928,3
289550810,289550671,0.56190854,-0.038639612,0.014391447,-0.82617104,0.9998223,-7.518711e-10,-7.540098e-10,-0.018850928,3
290050809,290050671,0.54975855,0.0032322563,0.0011872345,-0.8353166,0.9998223,-7.518711e-10,-7.540098e-10,-0.018850928,3
290550810,290550671,0.54286563,-0.004923564,-0.0019753822,-0.8398029,0.9998223,-7.518711e-10,-7.540098e-10,-0.018850928,3
291050808,291050671,0.5339807,-0.0014590991,0.0023674397,-0.8454921,0.9998223,-7.518711e-10,-7.540098e-10,-0.018850928,3
291550817,291550672,0.5255307,-0.00584455,0.005326482,-0.85073787,0.9998223,-7.518711e-10,-7.540098e-10,-0.018850928,3
292050817,292050671,0.52628964,0.0061114845,0.0018590079,-0.8502815,0.9998223,-7.518711e-10,-7.540098e-10,-0.018850928,3
292550809,292550671,0.54174,-0.013964788,-0.010794988,-0.8403609,0.9998223,-7.518711e-10,-7.540098e-10,-0.018850928,3
293050810,293050671,0.55612063,-0.01085272,0.003250143,-0.83102447,0.9998223,-7.518711e-10,-7.540098e-10,-0.018850928,3
293550810,293550672,0.5456639,-0.0031121722,0.0017551987,-0.8379966,0.9998223,-7.518711e-10,-7.540098e-10,-0.018850928,3
294050809,294050671,0.5457786,0.0023415585,0.006386308,-0.83790195,0.9998223,-7.518711e-10,-7.540098e-10,-0.018850928,3
294550809,294550671,0.55486226,0.001961272,0.0038751096,-0.8319309,0.9998223,-7.518711e-10,-7.540098e-10,-0.018850928,3
295050809,295050671,0.55773985,-0.0009905439,-0.0006883228,-0.830015,0.9998223,-7.518711e-10,-7.540098e-10,-0.018850928,3
295550811,295550672,0.55552876,-5.9661354e-05,0.004107417,-0.8314872,0.9998223,-7.518711e-10,-7.540098e-10,-0.018850928,3
296050810,296050671,0.5524012,-0.041472375,0.054844227,-0.83073777,0.9998223,-7.518711e-10,-7.540098e-10,-0.018850928,3
297050809,297050671,0.5730111,-0.07480725,0.11957567,-0.8073189,0.9998223,-7.518711e-10,-7.540098e-10,-0.018850928,3
297550810,297550671,0.5508046,-0.124623865,0.011481471,-0.82519776,0.9998223,-7.518711e-10,-7.540098e-10,-0.018850928,3
298550810,298550671,0.5589213,-0.09543441,-0.004153783,-0.8237002,0.9998223,-7.518711e-10,-7.540098e-10,-0.018850928,3
299050809,299050671,0.56236285,-0.087693,0.0060375216,-0.8222053,0.9998223,-7.518711e-10,-7.540098e-10,-0.018850928,3
299550809,299550671,0.5592798,-0.113708846,-0.0070707854,-0.821113,0.9998223,-7.518711e-10,-7.540098e-10,-0.018850928,3
300050820,300050671,0.5446199,-0.07013866,0.008387469,-0.8357029,0.9998223,-7.518711e-10,-7.540098e-10,-0.018850928,3
300550810,300550671,0.52778316,-0.016700909,0.022096328,-0.84892744,0.9998223,-7.518711e-10,-7.540098e-10,-0.018850928,3
301050809,301050671,0.5239279,-0.003578065,-0.00017849551,-0.85175514,0.9998223,-7.518711e-10,-7.540098e-10,-0.018850928,3
301550809,301550671,0.525652,0.0041554826,0.007028605,-0.85066056,0.9998223,-7.518711e-10,-7.540098e-10,-0.018850928,3
302050814,302050671,0.52134925,-0.00024415288,0.00033498593,-0.8533433,0.9998223,-7.518711e-10,-7.540098e-10,-0.018850928,3
302550809,302550671,0.52537364,-0.0021051175,0.0014750488,-0.85086775,0.9998223,-7.518711e-10,-7.540098e-10,-0.018850928,3
303050811,303050671,0.53180605,0.0033450786,0.0020378744,-0.8468572,0.9998223,-7.518711e-10,-7.540098e-10,-0.018850928,3
303550811,303550671,0.5218296,0.0066031297,0.014147184,-0.85290694,0.9998223,-7.518711e-10,-7.540098e-10,-0.018850928,3
304050812,304050671,0.5198818,0.010990106,-0.010610163,-0.85410166,0.9998223,-7.518711e-10,-7.540098e-10,-0.018850928,3
305050811,305050671,0.53686154,-0.00201238,-0.017383492,-0.8434889,0.9998223,-7.518711e-10,-7.540098e-10,-0.018850928,3
305550809,305550671,0.54095846,-0.0008924004,-0.002445719,-0.84104526,0.9998223,-7.518711e-10,-7.540098e-10,-0.018850928,3
306050810,306050671,0.5355639,-0.0015704284,0.0037635725,-0.8444849,0.9998223,-7.518711e-10,-7.540098e-10,-0.018850928,3
306550809,306550671,0.5365439,0.0013345509,0.0003069822,-0.8438714,0.9998223,-7.518711e-10,-7.540098e-10,-0.018850928,3
307050810,307050671,0.5192834,-0.0011953264,0.005581726,-0.8545831,0.9998223,-7.518711e-10,-7.540098e-10,-0.018850928,3
307550811,307550671,0.516547,0.0007262972,0.0007804405,-0.8562582,0.9998223,-7.518711e-10,-7.540098e-10,-0.018850928,3
308550809,308550671,0.54288685,0.041840024,-0.12893759,-0.8287933,0.9998223,-7.518711e-10,-7.540098e-10,-0.018850928,3
309050810,309050671,0.5609511,0.018290684,-0.13663094,-0.81629133,0.9998223,-7.518711e-10,-7.540098e-10,-0.018850928,3
309550807,309550671,0.57421523,-0.013235725,-0.11378065,-0.8106514,0.9998223,-7.518711e-10,-7.540098e-10,-0.018850928,3
310050809,310050671,0.55402535,-0.024682354,0.03205286,-0.83151627,0.9998223,-7.518711e-10,-7.540098e-10,-0.018850928,3
310550809,310550671,0.54607546,-0.028458968,0.025879698,-0.83685243,0.9998223,-7.518711e-10,-7.540098e-10,-0.018850928,3
311050807,311050671,0.53963697,-0.041384906,0.12406544,-0.8316773,0.9998223,-7.518711e-10,-7.540098e-10,-0.018850928,3
312050808,312050671,0.55334634,-0.034618445,0.06623413,-0.8295917,0.9998223,-7.518711e-10,-7.540098e-10,-0.018850928,3
312550809,312550671,0.5604657,-0.029825183,0.0040029734,-0.8276308,0.9998223,-7.518711e-10,-7.540098e-10,-0.018850928,3
313050809,313050671,0.5689898,-0.04923348,0.00588789,-0.8208483,0.9998223,-7.518711e-10,-7.540098e-10,-0.018850928,3
313550813,313550671,0.5703211,-0.04509705,0.017969472,-0.8199861,0.9998223,-7.518711e-10,-7.540098e-10,-0.018850928,3
314050808,314050671,0.56888855,-0.023086926,0.016089413,-0.8219331,0.9998223,-7.518711e-10,-7.540098e-10,-0.018850928,3
314550812,314550671,0.5786145,-0.03471832,0.023941793,-0.8145101,0.9998223,-7.518711e-10,-7.540098e-10,-0.018850928,3
315050810,315050671,0.5715622,-0.01933648,0.0027813474,-0.82032627,0.9998223,-7.518711e-10,-7.540098e-10,-0.018850928,3
315550817,315550671,0.54329896,-0.025776055,0.027794931,-0.83868307,0.9998223,-7.518711e-10,-7.540098e-10,-0.018850928,3
316050814,316050671,0.5450779,-0.019562833,0.014388926,-0.83803356,0.9998223,-7.518711e-10,-7.540098e-10,-0.018850928,3
316550810,316550671,0.5530952,-0.02614308,0.027160438,-0.8322647,0.9998223,-7.518711e-10,-7.540098e-10,-0.018850928,3
317050810,317050671,0.5585473,-0.044286296,0.072938815,-0.82507193,0.9998223,-7.518711e-10,-7.540098e-10,-0.018850928,3
318050811,318050671,0.5515813,-0.0017895307,0.004785833,-0.83410543,0.9998223,-7.518711e-10,-7.540098e-10,-0.018850928,3
318550808,318550671,0.55274016,-0.0019117593,0.0011907587,-0.83335066,0.9998223,-7.518711e-10,-7.540098e-10,-0.018850928,3
319050808,319050671,0.53365874,0.008183749,0.009616559,-0.8456057,0.9998223,-7.518711e-10,-7.540098e-10,-0.018850928,3
319550809,319550671,0.5268021,-0.014849548,0.013784363,-0.84974647,0.9998223,-7.518711e-10,-7.540098e-10,-0.018850928,3
320050815,320050671,0.53569627,-0.02788668,0.042450864,-0.8428819,0.9998223,-7.518711e-10,-7.540098e-10,-0.018850928,3
320550809,320550671,0.55548054,-0.0074978364,0.017534325,-0.8313109,0.9998223,-7.518711e-10,-7.540098e-10,-0.018850928,3
321050809,321050671,0.59135973,0.023527972,-0.0037364177,-0.80605596,0.9998223,-7.518711e-10,-7.540098e-10,-0.018850928,3
321550810,321550671,0.5881694,-0.016053718,6.5581815e-05,-0.8085785,0.9998223,-7.518711e-10,-7.540098e-10,-0.018850928,3
322050815,322050671,0.5644286,0.018347867,-0.00086024636,-0.82527745,0.9998223,-7.518711e-10,-7.540098e-10,-0.018850928,3
322550814,322550671,0.55311084,0.005164849,0.0025508902,-0.83308786,0.9998223,-7.518711e-10,-7.540098e-10,-0.018850928,3
323050809,323050671,0.52828604,-0.0035730477,0.008265958,-0.84901875,0.9998223,-7.518711e-10,-7.540098e-10,-0.018850928,3
323550810,323550671,0.5303938,-0.005527258,0.0012992324,-0.8477325,0.9998223,-7.518711e-10,-7.540098e-10,-0.018850928,3
324050807,324050671,0.54220563,-0.013777083,0.005663635,-0.8401139,0.9998223,-7.518711e-10,-7.540098e-10,-0.018850928,3
324550809,324550671,0.5563596,-0.005441903,-0.0009848964,-0.8309233,0.9998223,-7.518711e-10,-7.540098e-10,-0.018850928,3
325050809,325050671,0.5520018,-0.007949401,-0.00023623339,-0.83380497,0.9998223,-7.518711e-10,-7.540098e-10,-0.018850928,3
325550808,325550671,0.54327947,-0.003423566,0.011472003,-0.8394666,0.9998223,-7.518711e-10,-7.540098e-10,-0.018850928,3
326050810,326050671,0.54171616,-0.042684305,-0.01938359,-0.83925325,0.9998223,-7.518711e-10,-7.540098e-10,-0.018850928,3
326550815,326550671,0.5424427,-0.06739111,-0.035914045,-0.836615,0.9998223,-7.518711e-10,-7.540098e-10,-0.018850928,3
327050837,327050694,0.5436854,-0.059933253,-0.040229656,-0.8361793,0.9998223,-7.518711e-10,-7.540098e-10,-0.018850928,3
327550810,327550671,0.54034084,-0.05032038,-0.023664344,-0.83960694,0.9998223,-7.518711e-10,-7.540098e-10,-0.018850928,3
328050808,328050671,0.54422915,-0.044734962,-0.032404352,-0.8371161,0.9998223,-7.518711e-10,-7.540098e-10,-0.018850928,3
328550809,328550671,0.5299889,-0.029395565,-0.0031749376,-0.84748906,0.9998223,-7.518711e-10,-7.540098e-10,-0.018850928,3
329050811,329050671,0.5404852,0.002960861,-0.0023948841,-0.841345,0.9998223,-7.518711e-10,-7.540098e-10,-0.018850928,3
329550809,329550671,0.53969705,-0.01556068,-0.04239976,-0.8406469,0.9998223,-7.518711e-10,-7.540098e-10,-0.018850928,3
330050809,330050671,0.5341712,0.0008212349,-0.027331702,-0.84493405,0.9998223,-7.518711e-10,-7.540098e-10,-0.018850928,3
330550812,330550671,0.53718483,0.020210583,-0.076088205,-0.8397825,0.9998223,-7.518711e-10,-7.540098e-10,-0.018850928,3
331050810,331050671,0.53164876,0.0049348413,-0.0074174237,-0.8469181,0.9998223,-7.518711e-10,-7.540098e-10,-0.018850928,3
331550810,331550671,0.5402616,0.0067464532,-0.019554403,-0.8412428,0.9998223,-7.518711e-10,-7.540098e-10,-0.018850928,3
332050810,332050671,0.5490469,0.008228685,-0.011298215,-0.8356747,0.9998223,-7.518711e-10,-7.540098e-10,-0.018850928,3
332550809,332550671,0.5400158,7.804596e-05,0.00022090835,-0.8416549,0.9998223,-7.518711e-10,-7.540098e-10,-0.018850928,3
333050809,333050671,0.5409554,-0.004829151,-0.029015178,-0.84053683,0.9998223,-7.518711e-10,-7.540098e-10,-0.018850928,3
333550810,333550671,0.5332323,-0.028718106,-0.019616483,-0.84525377,0.9998223,-7.518711e-10,-7.540098e-10,-0.018850928,3
334050809,334050671,0.557222,-0.024488725,-0.022305384,-0.82970273,0.9998223,-7.518711e-10,-7.540098e-10,-0.018850928,3
334550809,334550671,0.56580675,-0.034576163,-0.02445061,-0.8234497,0.9998223,-7.518711e-10,-7.540098e-10,-0.018850928,3
335050811,335050672,0.5584498,-0.028783893,-0.021665562,-0.8287557,0.9998223,-7.518711e-10,-7.540098e-10,-0.018850928,3
335550810,335550671,0.56225103,-0.025333518,-0.019759629,-0.8263422,0.9998223,-7.518711e-10,-7.540098e-10,-0.018850928,3
336050809,336050671,0.5735318,-0.0023601968,-0.006573987,-0.8191536,0.9998223,-7.518711e-10,-7.540098e-10,-0.018850928,3
336550809,336550671,0.6082457,-0.0044986485,-0.007630746,-0.79369944,0.9998223,-7.518711e-10,-7.540098e-10,-0.018850928,3
337050809,337050671,0.6345103,-0.0072249314,-0.0040469537,-0.77287006,0.9998223,-7.518711e-10,-7.540098e-10,-0.018850928,3
337550818,337550672,0.6273313,-0.0069628586,-0.00085426576,-0.77872103,0.9998223,-7.518711e-10,-7.540098e-10,-0.018850928,3
338050812,338050671,0.6759455,0.03393959,-0.107479624,-0.7282815,0.9998223,-7.518711e-10,-7.540098e-10,-0.018850928,3
338550809,338550671,0.6652391,-0.046141528,0.059728116,-0.7428058,0.9998223,-7.518711e-10,-7.540098e-10,-0.018850928,3
339550809,339550671,0.66721225,-0.017664103,0.013302428,-0.74453944,0.9998223,-7.518711e-10,-7.540098e-10,-0.018850928,3
340050810,340050671,0.66715413,-0.01814068,0.012627806,-0.7445917,0.9998223,-7.518711e-10,-7.540098e-10,-0.018850928,3
340550811,340550671,0.66291106,-0.009476456,0.015096947,-0.74848604,0.9998223,-7.518711e-10,-7.540098e-10,-0.018850928,3
341050808,341050671,0.6642295,-0.011126645,0.013898463,-0.74731666,0.9998223,-7.518711e-10,-7.540098e-10,-0.018850928,3
341550812,341550671,0.6641297,-0.0115738,0.013447744,-0.74740684,0.9998223,-7.518711e-10,-7.540098e-10,-0.018850928,3
342050809,342050671,0.6642973,-0.013046728,0.013553945,-0.7472317,0.9998223,-7.518711e-10,-7.540098e-10,-0.018850928,3
342550808,342550671,0.66415614,-0.013402474,0.013583712,-0.74735034,0.9998223,-7.518711e-10,-7.540098e-10,-0.018850928,3
343050808,343050671,0.6640419,-0.01360282,0.013619845,-0.7474476,0.9998223,-7.518711e-10,-7.540098e-10,-0.018850928,3
343550811,343550672,0.66382945,-0.013691758,0.013553969,-0.7476359,0.9998223,-7.518711e-10,-7.540098e-10,-0.018850928,3
344050809,344050671,0.66259664,-0.008509939,0.014677828,-0.74878424,0.9998223,-7.518711e-10,-7.540098e-10,-0.018850928,3
344550817,344550671,0.6621804,-0.006570052,0.014028409,-0.74918437,0.9998223,-7.518711e-10,-7.540098e-10,-0.018850928,3
345050808,345050671,0.66217303,-0.006702474,0.013783908,-0.74919426,0.9998223,-7.518711e-10,-7.540098e-10,-0.018850928,3
345550807,345550671,0.66233385,-0.006759804,0.0130758975,-0.7490643,0.9998223,-7.518711e-10,-7.540098e-10,-0.018850928,3
346050809,346050671,0.6618657,-0.0055201505,0.013112115,-0.7494875,0.9998223,-7.518711e-10,-7.540098e-10,-0.018850928,3
346550810,346550671,0.6617501,-0.0066702473,0.012737158,-0.7495867,0.9998223,-7.518711e-10,-7.540098e-10,-0.018850928,3
347050809,347050671,0.6619305,-0.006891624,0.013185734,-0.74941754,0.9998223,-7.518711e-10,-7.540098e-10,-0.018850928,3
347550812,347550671,0.6619704,-0.009590402,0.012320498,-0.7493675,0.9998223,-7.518711e-10,-7.540098e-10,-0.018850928,3
348050835,348050686,0.6621785,-0.010214552,0.012765226,-0.7491678,0.9998223,-7.518711e-10,-7.540098e-10,-0.018850928,3
348550811,348550671,0.6619368,-0.011066055,0.012550549,-0.7493729,0.9998223,-7.518711e-10,-7.540098e-10,-0.018850928,3
349050819,349050671,0.6617549,-0.010964634,0.013020216,-0.749527,0.9998223,-7.518711e-10,-7.540098e-10,-0.018850928,3
349550809,349550671,0.661494,-0.010903538,0.012681619,-0.749764,0.9998223,-7.518711e-10,-7.540098e-10,-0.018850928,3
350050809,350050671,0.6613972,-0.010928108,0.013399446,-0.74983656,0.9998223,-7.518711e-10,-7.540098e-10,-0.018850928,3
350550811,350550671,0.6612928,-0.011396936,0.013230194,-0.7499246,0.9998223,-7.518711e-10,-7.540098e-10,-0.018850928,3
351050809,351050671,0.6611447,-0.011599273,0.01324991,-0.75005186,0.9998223,-7.518711e-10,-7.540098e-10,-0.018850928,3
351550810,351550671,0.6610085,-0.012036445,0.013131296,-0.750167,0.9998223,-7.518711e-10,-7.540098e-10,-0.018850928,3
352050809,352050671,0.6607082,-0.0115560675,0.013208903,-0.7504376,0.9998223,-7.518711e-10,-7.540098e-10,-0.018850928,3
352550814,352550670,0.6605687,-0.012150303,0.013158307,-0.750552,0.9998223,-7.518711e-10,-7.540098e-10,-0.018850928,3
353050809,353050671,0.66035837,-0.011412874,0.013264593,-0.75074667,0.9998223,-7.518711e-10,-7.540098e-10,-0.018850928,3
353550806,353550670,0.66024834,-0.011543393,0.013195949,-0.75084275,0.9998223,-7.518711e-10,-7.540098e-10,-0.018850928,3
354050810,354050671,0.66017866,-0.01262408,0.013052006,-0.75088906,0.9998223,-7.518711e-10,-7.540098e-10,-0.018850928,3
354550809,354550671,0.6609898,-0.015974063,0.012482488,-0.75012106,0.9998223,-7.518711e-10,-7.540098e-10,-0.018850928,3
355050809,355050671,0.66091883,-0.016409889,0.012354186,-0.75017637,0.9998223,-7.518711e-10,-7.540098e-10,-0.018850928,3
355550809,355550671,0.6608354,-0.016631441,0.012299059,-0.75024575,0.9998223,-7.518711e-10,-7.540098e-10,-0.018850928,3
356050809,356050671,0.6606955,-0.016853306,0.012355852,-0.7503632,0.9998223,-7.518711e-10,-7.540098e-10,-0.018850928,3
356550816,356550672,0.6605743,-0.017004983,0.012356252,-0.75046635,0.9998223,-7.518711e-10,-7.540098e-10,-0.018850928,3
357050811,357050671,0.66046435,-0.017164025,0.012357085,-0.7505595,0.9998223,-7.518711e-10,-7.540098e-10,-0.018850928,3
357550810,357550671,0.6603588,-0.01731345,0.012368092,-0.7506488,0.9998223,-7.518711e-10,-7.540098e-10,-0.018850928,3
358050820,358050671,0.6602502,-0.01746821,0.012391873,-0.75074035,0.9998223,-7.518711e-10,-7.540098e-10,-0.018850928,3
358550810,358550671,0.66014665,-0.017583678,0.012373383,-0.75082904,0.9998223,-7.518711e-10,-7.540098e-10,-0.018850928,3
359050809,359050671,0.66003233,-0.01771032,0.012359395,-0.75092673,0.9998223,-7.518711e-10,-7.540098e-10,-0.018850928,3
359550812,359550671,0.6599137,-0.017828772,0.012341842,-0.7510285,0.9998223,-7.518711e-10,-7.540098e-10,-0.018850928,3
360050813,360050672,0.6600618,-0.01783703,0.01244239,-0.7508966,0.9998223,-7.518711e-10,-7.540098e-10,-0.018850928,3
