timestamp,timestamp_sample,gps_hvel[0],gps_hvel[1],gps_vvel,gps_hpos[0],gps_hpos[1],gps_vpos,ev_hvel[0],ev_hvel[1],ev_vvel,ev_hpos[0],ev_hpos[1],ev_vpos,rng_vpos,baro_vpos,aux_hvel[0],aux_hvel[1],flow[0],flow[1],terr_flow[0],terr_flow[1],heading,mag_field[0],mag_field[1],mag_field[2],gravity[0],gravity[1],gravity[2],drag[0],drag[1],airspeed,beta,hagl,hagl_rate
200525968,200335671,7.65711e-05,0.00068485166,2.9774494e-06,5.5848463e-06,9.9948404e-05,0.00041943014,0.0,0.0,0.0,0.0,0.0,0.0,0.0,7.047115e-05,0.0,0.0,0.0,0.0,0.0,0.0,0.0007567421,1.38432915e-05,0.0007567421,7.203456e-06,1.231417e-05,0.0005829571,8.6591905e-07,0.0,0.0,0.0,0.0,0.0,0.0
201025960,200835672,3.5306544e-05,0.0008138577,3.1881072e-07,6.337684e-08,9.724522e-05,0.00037389368,0.0,0.0,0.0,0.0,0.0,0.0,0.0,0.00022673213,0.0,0.0,0.0,0.0,0.0,0.0,0.0007866589,2.4230245e-05,0.0007866589,2.8623655e-05,0.00027355945,1.1684163e-05,4.3301043e-09,0.0,0.0,0.0,0.0,0.0,0.0
201525983,201335671,0.0009829717,0.00011991085,6.077414e-06,1.0924589e-05,8.4528736e-05,0.00040065264,0.0,0.0,0.0,0.0,0.0,0.0,0.0,9.947435e-08,0.0,0.0,0.0,0.0,0.0,0.0,0.00048670173,7.730847e-05,0.00048670173,4.083854e-05,0.0012959319,0.0013993988,5.4559e-06,0.0,0.0,0.0,0.0,0.0,0.0
202025983,201835671,0.001999907,0.000846492,0.0007635534,6.861828e-09,0.00010409073,0.00018548548,0.0,0.0,0.0,0.0,0.0,0.0,0.0,0.00022955639,0.0,0.0,0.0,0.0,0.0,0.0,0.0006903982,4.7225953e-06,0.0006903982,8.8214285e-05,0.00033916035,0.0016312861,1.1716338e-06,0.0,0.0,0.0,0.0,0.0,0.0
202525961,202335671,0.0017998049,0.00012437935,0.00029022538,1.6200353e-05,4.774258e-05,0.00021153875,0.0,0.0,0.0,0.0,0.0,0.0,0.0,9.0141424e-05,0.0,0.0,0.0,0.0,0.0,0.0,0.0003602687,0.00016487586,0.0003602687,2.2492277e-06,0.000921013,0.00040285333,3.6288895e-08,0.0,0.0,0.0,0.0,0.0,0.0
203026216,202835671,4.0225917e-08,0.003674698,0.0001205121,3.221361e-06,7.210958e-05,0.00031047792,0.0,0.0,0.0,0.0,0.0,0.0,0.0,0.00017325007,0.0,0.0,0.0,0.0,0.0,0.0,0.00023736518,0.00023736518,0.00021661152,2.5827154e-07,5.5427277e-05,2.5294732e-05,1.0145959e-07,0.0,0.0,0.0,0.0,0.0,0.0
203526248,203335671,0.0009364151,0.00022193325,2.6023303e-05,1.7610933e-05,2.4301748e-05,0.00024633828,0.0,0.0,0.0,0.0,0.0,0.0,0.0,6.3829575e-05,0.0,0.0,0.0,0.0,0.0,0.0,0.00012790819,0.00012790819,7.973803e-05,2.8278857e-06,0.0032693169,6.293051e-05,1.4324769e-08,0.0,0.0,0.0,0.0,0.0,0.0
204026242,203835673,0.00013259977,0.000119439654,0.00061069813,1.6129303e-05,9.655103e-06,0.0003343856,0.0,0.0,0.0,0.0,0.0,0.0,0.0,1.2228608e-05,0.0,0.0,0.0,0.0,0.0,0.0,0.00036167257,7.1672664e-05,0.00036167257,0.00013864973,0.008321883,0.013390936,7.553888e-05,0.0,0.0,0.0,0.0,0.0,0.0
204526207,204335671,1.7365493e-05,0.001448621,0.0003416526,9.291307e-06,1.252778e-05,0.00026808487,0.0,0.0,0.0,0.0,0.0,0.0,0.0,0.00029737572,0.0,0.0,0.0,0.0,0.0,0.0,0.00040870724,6.811794e-05,0.00040870724,0.00032054225,0.0057797795,0.0020518932,8.839203e-08,0.0,0.0,0.0,0.0,0.0,0.0
205026261,204835671,3.780145e-05,4.310645e-05,2.5623143e-05,1.17106405e-08,8.722108e-06,0.0002563774,0.0,0.0,0.0,0.0,0.0,0.0,0.0,0.0001737781,0.0,0.0,0.0,0.0,0.0,0.0,0.0014217398,0.00012594042,0.0005168501,0.0014217398,0.0016234542,0.011256187,9.422685e-06,0.0,0.0,0.0,0.0,0.0,0.0
205526242,205335674,0.0011717558,4.2066376e-06,0.00013475787,5.8446535e-06,1.0392921e-05,0.00012578294,0.0,0.0,0.0,0.0,0.0,0.0,0.0,0.00017954312,0.0,0.0,0.0,0.0,0.0,0.0,0.0060040373,0.0001733727,0.0012623711,0.0060040373,0.025335237,0.0062508457,2.5627303e-05,0.0,0.0,0.0,0.0,0.0,0.0
206026224,205835671,0.00041359858,0.0012562395,0.0014511426,2.7053242e-05,1.0912926e-05,1.9216986e-05,0.0,0.0,0.0,0.0,0.0,0.0,0.0,0.0001787016,0.0,0.0,0.0,0.0,0.0,0.0,0.009760992,8.2597275e-05,0.0005459893,0.009760992,0.027427278,0.024517952,6.647467e-05,0.0,0.0,0.0,0.0,0.0,0.0
207026260,206835671,0.0026268193,0.002425591,0.008424164,2.3203526e-08,1.6002798e-05,2.392586e-05,0.0,0.0,0.0,0.0,0.0,0.0,0.0,0.0005036976,0.0,0.0,0.0,0.0,0.0,0.0,0.010227352,7.909168e-05,0.0002901941,0.010227352,0.062103268,0.021046717,3.1009783e-06,0.0,0.0,0.0,0.0,0.0,0.0
207526245,207335671,0.0001770205,0.0015444505,0.0031023223,3.812667e-06,2.7373712e-06,0.00011685156,0.0,0.0,0.0,0.0,0.0,0.0,0.0,0.00019920403,0.0,0.0,0.0,0.0,0.0,0.0,0.009663757,0.00015916234,0.00042122224,0.009663757,0.1358433,0.0010916061,0.00015218905,0.0,0.0,0.0,0.0,0.0,0.0
208026247,207835671,0.00079935533,0.0011133578,0.0021638647,3.820611e-08,9.661439e-06,0.00020398838,0.0,0.0,0.0,0.0,0.0,0.0,0.0,0.00030784385,0.0,0.0,0.0,0.0,0.0,0.0,0.009236904,1.2464385e-05,0.001074754,0.009236904,0.0690615,0.0022806555,2.7715178e-05,0.0,0.0,0.0,0.0,0.0,0.0
208526132,208335671,0.00077926874,0.0023428288,0.0016858291,7.527351e-07,3.7550822e-07,0.0003567897,0.0,0.0,0.0,0.0,0.0,0.0,0.0,0.00014076209,0.0,0.0,0.0,0.0,0.0,0.0,0.0007761984,5.8527016e-06,2.9930357e-05,0.0007761984,0.020102132,0.030024739,3.2982356e-05,0.0,0.0,0.0,0.0,0.0,0.0
209026137,208835671,0.0048032347,0.0006546201,0.0006476343,7.291317e-06,1.3160911e-05,0.00057490723,0.0,0.0,0.0,0.0,0.0,0.0,0.0,0.0004956202,0.0,0.0,0.0,0.0,0.0,0.0,9.983756e-05,9.983756e-05,6.404106e-05,7.675978e-05,0.14996618,0.013307446,0.00026450862,0.0,0.0,0.0,0.0,0.0,0.0
209526179,209335671,0.0034661791,0.00016435988,0.00029824243,3.414829e-05,4.5348348e-05,0.0006405032,0.0,0.0,0.0,0.0,0.0,0.0,0.0,1.946821e-05,0.0,0.0,0.0,0.0,0.0,0.0,9.531779e-05,4.385278e-06,7.744621e-05,9.531779e-05,0.3096463,0.03731883,0.00064468355,0.0,0.0,0.0,0.0,0.0,0.0
210026199,209835671,0.00038256342,0.00054824015,0.00039273634,3.3116637e-05,0.000153662,0.00072381966,0.0,0.0,0.0,0.0,0.0,0.0,0.0,0.0017988633,0.0,0.0,0.0,0.0,0.0,0.0,4.1650364e-05,4.1650364e-05,3.770038e-05,3.1128042e-05,0.57883686,0.006722854,0.005745588,0.0,0.0,0.0,0.0,0.0,0.0
210526126,210335670,0.0005602939,0.000629078,0.0018955638,6.2971245e-05,0.00022486055,0.00050934113,0.0,0.0,0.0,0.0,0.0,0.0,0.0,0.0007118179,0.0,0.0,0.0,0.0,0.0,0.0,2.9341592e-05,6.261534e-07,2.9341592e-05,1.6341448e-05,0.27591917,0.069795564,0.0012668631,0.0,0.0,0.0,0.0,0.0,0.0
211526205,211335678,2.690256e-05,0.00083114894,0.00049571245,7.911144e-05,0.00037145705,0.00043615783,0.0,0.0,0.0,0.0,0.0,0.0,0.0,0.0004993224,0.0,0.0,0.0,0.0,0.0,0.0,0.00015284351,1.5525124e-05,7.33287e-07,0.00015284351,1.424191,0.073411115,0.007878402,0.0,0.0,0.0,0.0,0.0,0.0
212026167,211835671,8.669735e-05,3.3600514e-05,0.0010638282,5.128258e-05,0.00023815889,0.0005021328,0.0,0.0,0.0,0.0,0.0,0.0,0.0,5.4875858e-05,0.0,0.0,0.0,0.0,0.0,0.0,0.0007890179,0.00014238228,0.000100768906,0.0007890179,0.02486942,0.004253218,3.6817625e-07,0.0,0.0,0.0,0.0,0.0,0.0
212526130,212335671,2.4877107e-05,0.0025768743,0.009265067,4.0172104e-05,0.00020924384,5.709511e-07,0.0,0.0,0.0,0.0,0.0,0.0,0.0,0.0011851244,0.0,0.0,0.0,0.0,0.0,0.0,0.00010609939,4.2931937e-05,5.1684812e-05,0.00010609939,0.277983,0.0031326797,0.00070579187,0.0,0.0,0.0,0.0,0.0,0.0
213025966,212835671,0.0011902107,0.0060985237,0.0034600918,2.2178641e-05,5.225942e-05,1.1309477e-05,0.0,0.0,0.0,0.0,0.0,0.0,0.0,0.0007631727,0.0,0.0,0.0,0.0,0.0,0.0,0.00052696076,1.0150808e-06,0.0003318754,0.00052696076,1.1028227,0.00075160165,0.00011957563,0.0,0.0,0.0,0.0,0.0,0.0
213525982,213335671,0.00478974,0.0060177622,0.0012338568,3.0295778e-05,3.151176e-05,0.00014991514,0.0,0.0,0.0,0.0,0.0,0.0,0.0,2.7966067e-05,0.0,0.0,0.0,0.0,0.0,0.0,0.00064202904,0.00016972782,0.00033767053,0.00064202904,0.5807482,0.019049266,0.00038111574,0.0,0.0,0.0,0.0,0.0,0.0
214025975,213835671,0.0035668076,0.0011784602,0.00026285165,5.9008365e-05,0.00021839704,0.00016253078,0.0,0.0,0.0,0.0,0.0,0.0,0.0,0.0002027486,0.0,0.0,0.0,0.0,0.0,0.0,0.00025864833,5.086305e-05,0.00023533398,0.00025864833,0.0071662082,0.0012872902,1.8207093e-05,0.0,0.0,0.0,0.0,0.0,0.0
214525962,214335671,0.020226562,0.0031280986,0.00052021025,1.9626802e-06,0.00053309253,0.0001752739,0.0,0.0,0.0,0.0,0.0,0.0,0.0,0.0014441,0.0,0.0,0.0,0.0,0.0,0.0,0.0002733721,0.0002733721,5.9598005e-05,0.00019315355,0.019677974,0.048024405,0.000106525935,0.0,0.0,0.0,0.0,0.0,0.0
215025992,214835671,2.0691603e-05,0.0003962259,0.0018436816,2.0642488e-05,0.0004096552,0.00082231895,0.0,0.0,0.0,0.0,0.0,0.0,0.0,0.0012212867,0.0,0.0,0.0,0.0,0.0,0.0,0.00016471562,0.00010777023,0.00016471562,4.554888e-05,0.018721532,0.056995727,0.00011577395,0.0,0.0,0.0,0.0,0.0,0.0
215525978,215335671,0.008685315,0.0004886282,0.0020306364,3.7324866e-05,0.00039605494,0.0011089203,0.0,0.0,0.0,0.0,0.0,0.0,0.0,0.000101057085,0.0,0.0,0.0,0.0,0.0,0.0,5.338561e-05,2.849132e-07,1.2721173e-09,5.338561e-05,1.0708196,0.21967165,0.023614047,0.0,0.0,0.0,0.0,0.0,0.0
216025974,215835671,0.00094605185,0.000148353,0.0013426869,1.0799714e-05,0.000313459,0.0012462649,0.0,0.0,0.0,0.0,0.0,0.0,0.0,9.268798e-06,0.0,0.0,0.0,0.0,0.0,0.0,2.6626189e-05,2.6626189e-05,1.7477276e-05,3.19643e-09,0.048309874,0.05059282,4.0123407e-05,0.0,0.0,0.0,0.0,0.0,0.0
216525987,216335671,0.0013165988,0.00042789272,0.0013844289,9.318742e-07,0.0001648736,0.0012827924,0.0,0.0,0.0,0.0,0.0,0.0,0.0,0.0005209261,0.0,0.0,0.0,0.0,0.0,0.0,0.00021765045,0.00021765045,0.00010467374,1.7509363e-05,1.7769917,0.023226514,1.3242183e-05,0.0,0.0,0.0,0.0,0.0,0.0
217026005,216835671,0.0012631334,0.007724999,0.0015050954,8.6330896e-05,0.0001018367,0.0020220447,0.0,0.0,0.0,0.0,0.0,0.0,0.0,0.00015221066,0.0,0.0,0.0,0.0,0.0,0.0,0.00035175777,0.00035175777,2.7601116e-06,0.00018401715,1.0194072,0.17694113,0.002242986,0.0,0.0,0.0,0.0,0.0,0.0
217525979,217335671,0.015356502,0.00021686062,0.003866667,0.00012716466,8.286868e-05,0.0025894947,0.0,0.0,0.0,0.0,0.0,0.0,0.0,3.7860595e-05,0.0,0.0,0.0,0.0,0.0,0.0,0.00021589074,2.42314e-07,6.304432e-05,0.00021589074,0.42755166,0.1391743,0.006573728,0.0,0.0,0.0,0.0,0.0,0.0
218025982,217835671,0.00083613815,0.0015197239,0.00055456505,7.350351e-05,0.00013152091,0.0016426097,0.0,0.0,0.0,0.0,0.0,0.0,0.0,0.000111580346,0.0,0.0,0.0,0.0,0.0,0.0,0.0005164608,0.00036982945,0.00012521882,0.0005164608,1.2843325,0.0030175098,0.012186709,0.0,0.0,0.0,0.0,0.0,0.0
218525958,218335671,8.891476e-05,0.0060743,0.0009618915,0.0002830442,5.5525784e-06,0.0013925717,0.0,0.0,0.0,0.0,0.0,0.0,0.0,1.7128892e-05,0.0,0.0,0.0,0.0,0.0,0.0,0.0013815318,0.0013815318,0.0006701094,8.9639645e-05,4.307848,0.033030767,0.005848759,0.0,0.0,0.0,0.0,0.0,0.0
219025958,218835671,0.000950083,0.02924697,0.00776861,0.00025576385,0.0001294681,0.0017018642,0.0,0.0,0.0,0.0,0.0,0.0,0.0,0.0012124185,0.0,0.0,0.0,0.0,0.0,0.0,0.0006572305,0.0006572305,0.00023603198,3.8055154e-05,0.60226864,0.868586,0.025229445,0.0,0.0,0.0,0.0,0.0,0.0
219525976,219335671,0.013629518,0.0048678606,0.004580376,0.00044137353,6.7364863e-06,0.0018950372,0.0,0.0,0.0,0.0,0.0,0.0,0.0,0.00013807058,0.0,0.0,0.0,0.0,0.0,0.0,4.596774e-05,1.650973e-06,4.596774e-05,4.4400553e-05,0.0006438332,0.009057135,7.4737005e-07,0.0,0.0,0.0,0.0,0.0,0.0
220026006,219835671,0.0009160407,0.00012420159,0.0021127886,0.000379176,5.037377e-07,0.0018871401,0.0,0.0,0.0,0.0,0.0,0.0,0.0,0.00093124673,0.0,0.0,0.0,0.0,0.0,0.0,3.485111e-05,3.485111e-05,6.0943594e-06,4.53077e-09,1.2616295,0.7873486,0.026706543,0.0,0.0,0.0,0.0,0.0,0.0
221025963,220835671,1.8581552e-05,0.00068488857,0.0074067954,0.00020588981,2.1065034e-05,0.002762092,0.0,0.0,0.0,0.0,0.0,0.0,0.0,0.00023316997,0.0,0.0,0.0,0.0,0.0,0.0,2.369676e-05,2.369676e-05,1.9373698e-05,3.676433e-07,0.7546175,0.009231591,0.00862404,0.0,0.0,0.0,0.0,0.0,0.0
221526015,221335671,0.0004173109,0.002374642,0.0063626636,0.00013762791,8.012366e-05,0.0030714795,0.0,0.0,0.0,0.0,0.0,0.0,0.0,9.4060897e-07,0.0,0.0,0.0,0.0,0.0,0.0,0.00026892382,5.7700676e-05,9.55064e-05,0.00026892382,0.0052943234,0.014161617,2.542734e-05,0.0,0.0,0.0,0.0,0.0,0.0
222026007,221835671,0.0011456044,0.00029085047,0.011458068,9.425309e-05,0.0001548121,0.0035040905,0.0,0.0,0.0,0.0,0.0,0.0,0.0,0.00013091622,0.0,0.0,0.0,0.0,0.0,0.0,8.301431e-05,5.335191e-08,8.301431e-05,7.30418e-05,0.029277595,0.05281962,0.00046619994,0.0,0.0,0.0,0.0,0.0,0.0
223025959,222835671,0.0072367736,7.8748526e-05,0.005748318,0.00013046883,4.9284863e-05,0.0030159387,0.0,0.0,0.0,0.0,0.0,0.0,0.0,0.00022775494,0.0,0.0,0.0,0.0,0.0,0.0,4.9821672e-05,7.626531e-07,4.9821672e-05,1.4362118e-05,0.13669881,0.051400933,0.0010668163,0.0,0.0,0.0,0.0,0.0,0.0
223525981,223335671,1.1716886e-05,0.00050733757,0.007419737,0.00032995612,3.7376085e-05,0.0027599616,0.0,0.0,0.0,0.0,0.0,0.0,0.0,2.0858128e-05,0.0,0.0,0.0,0.0,0.0,0.0,3.8263486e-05,3.8263486e-05,1.0137215e-07,9.81659e-07,0.021671806,0.012775589,2.343611e-06,0.0,0.0,0.0,0.0,0.0,0.0
224025976,223835671,0.00203644,0.0015030963,0.0090080565,0.00032876752,4.2043306e-05,0.0025746592,0.0,0.0,0.0,0.0,0.0,0.0,0.0,2.330872e-05,0.0,0.0,0.0,0.0,0.0,0.0,0.0001316065,1.0048177e-05,0.0001316065,8.6173604e-05,0.009718889,0.06793017,1.0924996e-06,0.0,0.0,0.0,0.0,0.0,0.0
224525960,224335671,0.0003418702,0.002857263,0.0016047265,0.00023430953,2.4300285e-05,0.0021985027,0.0,0.0,0.0,0.0,0.0,0.0,0.0,7.918589e-05,0.0,0.0,0.0,0.0,0.0,0.0,0.00019345479,0.00019345479,6.6919514e-05,1.3598548e-06,0.38807115,0.0004996177,0.004770975,0.0,0.0,0.0,0.0,0.0,0.0
225025988,224835671,0.0020469795,1.5130192e-05,0.0064089024,0.00022981226,3.8314014e-05,0.0020477758,0.0,0.0,0.0,0.0,0.0,0.0,0.0,7.07591e-05,0.0,0.0,0.0,0.0,0.0,0.0,0.00013077215,0.00013077215,1.0102265e-05,7.079132e-06,0.025582908,0.016689748,5.06861e-05,0.0,0.0,0.0,0.0,0.0,0.0
226025976,225835671,0.0043251184,0.00044062024,0.006371786,0.00022579514,1.21324365e-05,0.0016934301,0.0,0.0,0.0,0.0,0.0,0.0,0.0,6.7852507e-06,0.0,0.0,0.0,0.0,0.0,0.0,8.498536e-06,8.498536e-06,5.921451e-06,2.0295876e-09,0.0031385915,0.035452697,3.402713e-06,0.0,0.0,0.0,0.0,0.0,0.0
226525989,226335671,0.0028279277,1.0735918e-05,0.0065866522,0.00033185023,2.1339865e-05,0.0016260376,0.0,0.0,0.0,0.0,0.0,0.0,0.0,0.00018347029,0.0,0.0,0.0,0.0,0.0,0.0,0.00015562201,0.00015562201,2.2673172e-05,4.038185e-09,0.0023642397,0.0011632718,2.0347832e-06,0.0,0.0,0.0,0.0,0.0,0.0
227025959,226835671,0.0011269317,0.0008586514,0.0025538795,0.00036757233,8.183686e-06,0.0014668354,0.0,0.0,0.0,0.0,0.0,0.0,0.0,1.149049e-05,0.0,0.0,0.0,0.0,0.0,0.0,0.00049365294,0.00049365294,6.1966916e-06,1.3048686e-06,0.6153111,0.017573709,0.00045108667,0.0,0.0,0.0,0.0,0.0,0.0
227525976,227335671,0.003834964,0.0014756329,0.0026929078,0.00039463377,8.366743e-06,0.0016670022,0.0,0.0,0.0,0.0,0.0,0.0,0.0,0.0005410464,0.0,0.0,0.0,0.0,0.0,0.0,0.0002674094,0.0002674094,0.00019099233,2.6809019e-05,0.020816013,0.00039386368,2.7076258e-05,0.0,0.0,0.0,0.0,0.0,0.0
228025979,227835671,0.0017284247,0.00034227327,0.0026775016,0.00037046228,1.3709684e-06,0.0014263868,0.0,0.0,0.0,0.0,0.0,0.0,0.0,1.6007544e-07,0.0,0.0,0.0,0.0,0.0,0.0,0.0006379082,0.0006379082,3.988758e-05,0.00016181401,0.003496954,0.0016664525,2.9326979e-05,0.0,0.0,0.0,0.0,0.0,0.0
228525957,228335671,0.0023903358,3.6164536e-06,0.005264626,0.000284426,5.5590925e-07,0.00154319,0.0,0.0,0.0,0.0,0.0,0.0,0.0,0.00021019272,0.0,0.0,0.0,0.0,0.0,0.0,0.00017464462,0.00017402998,0.00017464462,9.7376815e-06,0.08587777,0.16492018,0.0002492483,0.0,0.0,0.0,0.0,0.0,0.0
229025958,228835671,3.207418e-05,0.0018459505,0.0046758843,0.0002299025,2.2099207e-06,0.0011094587,0.0,0.0,0.0,0.0,0.0,0.0,0.0,0.00025433267,0.0,0.0,0.0,0.0,0.0,0.0,0.00015411404,0.00015411404,1.7292443e-05,6.0822735e-05,0.027712183,0.023982028,5.7247573e-05,0.0,0.0,0.0,0.0,0.0,0.0
229525979,229335671,0.0005187775,1.768395e-05,0.004415806,0.00032287117,2.6185426e-06,0.0011947929,0.0,0.0,0.0,0.0,0.0,0.0,0.0,3.5659108e-05,0.0,0.0,0.0,0.0,0.0,0.0,9.539431e-05,6.670974e-05,9.539431e-05,8.7851535e-05,5.574953e-05,0.004763742,6.629207e-07,0.0,0.0,0.0,0.0,0.0,0.0
230025977,229835671,1.276129e-06,0.00010512364,0.0033456476,0.0002880199,4.874104e-06,0.0010712577,0.0,0.0,0.0,0.0,0.0,0.0,0.0,9.484925e-05,0.0,0.0,0.0,0.0,0.0,0.0,0.0003921061,0.0003921061,3.8531085e-05,1.530782e-05,0.0028324195,0.023102725,4.853338e-07,0.0,0.0,0.0,0.0,0.0,0.0
230525970,230335671,0.00015077138,0.0017078877,0.0029836108,0.00030354672,2.7738215e-05,0.0013072904,0.0,0.0,0.0,0.0,0.0,0.0,0.0,5.7804687e-07,0.0,0.0,0.0,0.0,0.0,0.0,3.4934514e-05,3.4934514e-05,1.5600925e-05,1.97077e-05,0.054429412,0.01987176,0.00045438416,0.0,0.0,0.0,0.0,0.0,0.0
231025965,230835671,2.2367716e-05,0.00015319814,0.0041631362,0.0003444996,2.1745096e-05,0.0012333404,0.0,0.0,0.0,0.0,0.0,0.0,0.0,8.2892715e-05,0.0,0.0,0.0,0.0,0.0,0.0,0.00020870205,6.4512045e-05,1.26312825e-05,0.00020870205,0.97907376,2.3820161e-05,0.0075177103,0.0,0.0,0.0,0.0,0.0,0.0
231526009,231335671,0.0016903204,3.9909918e-07,0.0037633558,0.00037792829,3.124315e-05,0.0011944884,0.0,0.0,0.0,0.0,0.0,0.0,0.0,2.9220035e-05,0.0,0.0,0.0,0.0,0.0,0.0,6.635909e-05,1.51294835e-05,3.64662e-09,6.635909e-05,0.015376729,0.036242615,0.00030262815,0.0,0.0,0.0,0.0,0.0,0.0
232025978,231835671,2.2906365e-06,0.00018856145,0.001385792,0.00032508234,2.0261079e-05,0.0011512936,0.0,0.0,0.0,0.0,0.0,0.0,0.0,0.0005246287,0.0,0.0,0.0,0.0,0.0,0.0,2.9765277e-05,4.0145744e-07,2.9765277e-05,2.7889291e-05,0.042918347,8.2394006e-05,0.00013805089,0.0,0.0,0.0,0.0,0.0,0.0
232525958,232335671,0.00022685657,0.001244876,0.0036579655,0.00025572345,4.0390583e-05,0.0012298003,0.0,0.0,0.0,0.0,0.0,0.0,0.0,0.00036337087,0.0,0.0,0.0,0.0,0.0,0.0,7.580999e-05,6.645089e-05,7.580999e-05,5.905888e-06,0.022104366,0.03911432,2.3494545e-06,0.0,0.0,0.0,0.0,0.0,0.0
233025962,232835671,9.636713e-06,0.00021605165,0.003317462,0.00024063118,4.1548454e-05,0.0010285664,0.0,0.0,0.0,0.0,0.0,0.0,0.0,0.0006359995,0.0,0.0,0.0,0.0,0.0,0.0,2.9839006e-05,2.1778122e-05,2.9839006e-05,2.0967283e-05,0.10472618,0.0070891106,2.0423386e-05,0.0,0.0,0.0,0.0,0.0,0.0
233525976,233335671,0.00035381416,0.00060135644,0.0021093276,0.00028477338,4.691339e-05,0.0009116438,0.0,0.0,0.0,0.0,0.0,0.0,0.0,0.000112138325,0.0,0.0,0.0,0.0,0.0,0.0,8.601868e-06,8.601868e-06,7.1907226e-07,2.5845955e-07,0.020215428,0.07948267,0.00029651268,0.0,0.0,0.0,0.0,0.0,0.0
235025963,234835671,0.004243848,4.2015845e-06,0.0018685448,0.00016895101,2.1120923e-05,0.0006384566,0.0,0.0,0.0,0.0,0.0,0.0,0.0,0.00017740765,0.0,0.0,0.0,0.0,0.0,0.0,5.5936685e-05,5.5936685e-05,4.3019772e-05,3.121375e-05,0.0458542,0.0020868848,0.00010457131,0.0,0.0,0.0,0.0,0.0,0.0
235525961,235335671,5.0080438e-05,0.00011053873,0.0012918687,8.220542e-05,1.9522227e-05,0.0006726053,0.0,0.0,0.0,0.0,0.0,0.0,0.0,1.9214483e-06,0.0,0.0,0.0,0.0,0.0,0.0,0.0018385866,0.000704709,0.00014883897,0.0018385866,0.028684575,0.09393924,0.00029974835,0.0,0.0,0.0,0.0,0.0,0.0
236526012,236335671,0.00067620503,0.00024455666,0.00020534574,0.00012895567,1.5924647e-07,0.0004844927,0.0,0.0,0.0,0.0,0.0,0.0,0.0,7.228337e-05,0.0,0.0,0.0,0.0,0.0,0.0,0.0018843716,0.00011280952,0.0001006493,0.0018843716,0.059835557,0.007818545,8.60691e-05,0.0,0.0,0.0,0.0,0.0,0.0
237025961,236835671,0.0011137772,0.00017040367,0.0007694602,0.00015308899,1.0679245e-06,0.0005993047,0.0,0.0,0.0,0.0,0.0,0.0,0.0,0.00010415448,0.0,0.0,0.0,0.0,0.0,0.0,7.681807e-05,3.2232314e-05,7.681807e-05,7.3962275e-07,0.010884226,0.031789403,2.4625853e-05,0.0,0.0,0.0,0.0,0.0,0.0
237525960,237335671,5.7872025e-05,0.0038479848,0.00095283345,7.73709e-05,8.257938e-07,0.00060429145,0.0,0.0,0.0,0.0,0.0,0.0,0.0,9.1295085e-05,0.0,0.0,0.0,0.0,0.0,0.0,0.00036417408,3.4598415e-05,6.296278e-05,0.00036417408,0.61479867,0.0123728635,0.011373788,0.0,0.0,0.0,0.0,0.0,0.0
238025986,237835671,0.00025867694,0.0050381143,0.0030009095,6.323492e-05,1.10918904e-07,0.00070835743,0.0,0.0,0.0,0.0,0.0,0.0,0.0,0.00015592155,0.0,0.0,0.0,0.0,0.0,0.0,0.00013060687,1.6225791e-05,4.800336e-05,0.00013060687,0.2744472,0.0017817178,0.0017211299,0.0,0.0,0.0,0.0,0.0,0.0
238525973,238335671,0.00021798458,0.0032664987,0.00068774744,6.522259e-05,2.7625929e-06,0.000655607,0.0,0.0,0.0,0.0,0.0,0.0,0.0,2.0061084e-07,0.0,0.0,0.0,0.0,0.0,0.0,0.004274629,5.087026e-07,4.1875705e-06,0.004274629,0.009366854,0.00996601,5.5351393e-05,0.0,0.0,0.0,0.0,0.0,0.0
239025966,238835671,4.0746087e-05,0.0011475314,0.0004680529,7.6624776e-05,1.0981655e-06,0.00070700893,0.0,0.0,0.0,0.0,0.0,0.0,0.0,0.0007572983,0.0,0.0,0.0,0.0,0.0,0.0,0.00050824735,2.1520373e-05,0.00050824735,9.05764e-09,0.057762317,0.023065276,0.0001162516,0.0,0.0,0.0,0.0,0.0,0.0
239525963,239335671,0.00094870443,0.003887089,5.958075e-06,1.6327469e-05,2.7566453e-05,0.0010504364,0.0,0.0,0.0,0.0,0.0,0.0,0.0,2.876185e-05,0.0,0.0,0.0,0.0,0.0,0.0,0.010703342,0.000104616556,0.010703342,0.0029784315,0.052989103,0.33839706,0.0023092974,0.0,0.0,0.0,0.0,0.0,0.0
240025979,239835671,0.0027588508,0.0063769384,0.0020710332,3.38332e-05,5.6217694e-05,0.0021550409,0.0,0.0,0.0,0.0,0.0,0.0,0.0,1.8406832e-05,0.0,0.0,0.0,0.0,0.0,0.0,0.00041910965,0.00041910965,0.0003679927,6.461817e-05,0.0006363882,0.46011734,0.0052655116,0.0,0.0,0.0,0.0,0.0,0.0
240525973,240335671,0.004714013,0.0003565609,0.00254225,0.00020482624,4.160008e-05,0.0022234751,0.0,0.0,0.0,0.0,0.0,0.0,0.0,2.8648487e-06,0.0,0.0,0.0,0.0,0.0,0.0,0.0008582759,0.00016652765,0.0008582759,4.38697e-06,0.07417344,0.006915983,7.0264095e-06,0.0,0.0,0.0,0.0,0.0,0.0
241025960,240835671,0.00027472817,3.875297e-05,0.004106412,0.00015535168,7.3129566e-05,0.002077773,0.0,0.0,0.0,0.0,0.0,0.0,0.0,2.5469508e-06,0.0,0.0,0.0,0.0,0.0,0.0,8.558051e-05,1.6836146e-05,8.558051e-05,9.3899274e-07,0.0055825417,0.29598287,0.00036399797,0.0,0.0,0.0,0.0,0.0,0.0
241525987,241335671,0.0006564921,0.0004670869,0.0045685703,4.942691e-05,9.4600444e-05,0.0018383152,0.0,0.0,0.0,0.0,0.0,0.0,0.0,1.41871e-05,0.0,0.0,0.0,0.0,0.0,0.0,9.509988e-05,9.509988e-05,4.5121146e-06,1.9841784e-07,0.16155358,0.1464988,0.00035431972,0.0,0.0,0.0,0.0,0.0,0.0
242025977,241835671,0.00028745714,4.7479913e-05,0.004050813,1.4201258e-07,8.328966e-05,0.0015249891,0.0,0.0,0.0,0.0,0.0,0.0,0.0,1.1022797e-05,0.0,0.0,0.0,0.0,0.0,0.0,8.435442e-05,8.435442e-05,2.8840445e-06,4.317144e-06,0.19313338,0.2426246,0.0010489031,0.0,0.0,0.0,0.0,0.0,0.0
242525977,242335671,0.0008423444,0.0006203455,0.0010726866,5.7059144e-05,8.7746674e-05,0.0014109637,0.0,0.0,0.0,0.0,0.0,0.0,0.0,1.0890486e-06,0.0,0.0,0.0,0.0,0.0,0.0,3.576502e-05,3.503983e-05,1.6764436e-05,3.576502e-05,0.009515612,0.051774997,0.00028262212,0.0,0.0,0.0,0.0,0.0,0.0
243025988,242835671,0.0007816748,0.00027736247,2.6994221e-05,9.5421994e-05,9.9556775e-05,0.0012620976,0.0,0.0,0.0,0.0,0.0,0.0,0.0,8.971155e-06,0.0,0.0,0.0,0.0,0.0,0.0,7.8569756e-05,7.8569756e-05,1.7677898e-07,1.0152179e-05,0.016450332,0.007707377,4.92268e-05,0.0,0.0,0.0,0.0,0.0,0.0
243525977,243335671,0.020334441,0.0015523642,0.0023273258,0.0003077367,8.533523e-05,0.0010961941,0.0,0.0,0.0,0.0,0.0,0.0,0.0,0.00012124026,0.0,0.0,0.0,0.0,0.0,0.0,0.0004996457,0.0004024326,0.0004996457,0.00012647918,0.08534759,1.2216187,0.058697406,0.0,0.0,0.0,0.0,0.0,0.0
244025982,243835671,0.0020137734,0.00011378153,0.0005239795,0.0006351741,9.932951e-05,0.0009814089,0.0,0.0,0.0,0.0,0.0,0.0,0.0,0.00034241102,0.0,0.0,0.0,0.0,0.0,0.0,0.00037452346,0.00037452346,8.907033e-05,1.5869018e-05,0.48419616,0.1666884,0.0063716723,0.0,0.0,0.0,0.0,0.0,0.0
244525977,244335671,0.0028862879,0.00054146256,0.0011923173,0.0004513475,8.0800455e-05,0.0010505376,0.0,0.0,0.0,0.0,0.0,0.0,0.0,0.0003134696,0.0,0.0,0.0,0.0,0.0,0.0,0.00034043478,1.42535355e-05,0.00034043478,0.00018532087,0.056523554,0.18977767,0.0012819117,0.0,0.0,0.0,0.0,0.0,0.0
245025967,244835671,0.00048253022,0.0016885935,0.00035874415,0.00014798388,4.5448298e-05,0.001147257,0.0,0.0,0.0,0.0,0.0,0.0,0.0,5.7322315e-05,0.0,0.0,0.0,0.0,0.0,0.0,4.979924e-05,1.6533168e-06,4.979924e-05,1.5353631e-06,0.18427028,0.43888485,0.0013131029,0.0,0.0,0.0,0.0,0.0,0.0
246025976,245835671,0.00069539365,0.0006698656,8.045224e-05,3.0110132e-05,4.2407875e-05,0.0010117316,0.0,0.0,0.0,0.0,0.0,0.0,0.0,4.754913e-06,0.0,0.0,0.0,0.0,0.0,0.0,1.2712434e-05,2.3207953e-08,1.7338128e-06,1.2712434e-05,0.08662608,0.00061013247,4.615162e-05,0.0,0.0,0.0,0.0,0.0,0.0
246526012,246335671,2.8227535e-06,0.00096034154,0.0010158586,9.764359e-05,5.845312e-05,0.00088018767,0.0,0.0,0.0,0.0,0.0,0.0,0.0,7.3468174e-05,0.0,0.0,0.0,0.0,0.0,0.0,5.695074e-05,5.695074e-05,1.5640608e-05,1.0605495e-06,0.019714631,0.022347162,2.9239254e-07,0.0,0.0,0.0,0.0,0.0,0.0
247025962,246835671,3.1872445e-05,0.0006524542,0.0027126332,0.0004165616,6.245192e-05,0.000720886,0.0,0.0,0.0,0.0,0.0,0.0,0.0,3.965896e-05,0.0,0.0,0.0,0.0,0.0,0.0,0.00040565888,0.00040565888,3.118553e-07,8.78183e-06,0.0025069343,1.169143,0.031151175,0.0,0.0,0.0,0.0,0.0,0.0
248026014,247835671,0.0011156742,0.0013808175,0.0031895959,0.0006872133,3.922753e-05,0.00038834,0.0,0.0,0.0,0.0,0.0,0.0,0.0,0.0001460066,0.0,0.0,0.0,0.0,0.0,0.0,0.00012574144,0.00012574144,8.655025e-05,4.7133997e-07,0.1738482,0.08268681,0.00048134214,0.0,0.0,0.0,0.0,0.0,0.0
248525974,248335671,0.0002523878,0.0028103364,0.0012706374,0.00024825076,7.1461327e-06,0.00025816512,0.0,0.0,0.0,0.0,0.0,0.0,0.0,8.088798e-05,0.0,0.0,0.0,0.0,0.0,0.0,0.00039494783,0.00039494783,0.00019261133,2.270272e-05,0.0035850082,0.5953803,0.0015951357,0.0,0.0,0.0,0.0,0.0,0.0
249025960,248835671,0.0031551265,0.0008233487,0.0014577599,8.562654e-06,1.3601406e-05,0.00021130353,0.0,0.0,0.0,0.0,0.0,0.0,0.0,1.4431165e-05,0.0,0.0,0.0,0.0,0.0,0.0,0.00028449512,0.00028449512,7.526974e-06,2.0175736e-07,0.0006715556,0.1415064,0.00085880945,0.0,0.0,0.0,0.0,0.0,0.0
249525958,249335671,0.0061732344,0.0026104602,0.0015961232,3.4318762e-07,1.6055334e-05,0.00018480729,0.0,0.0,0.0,0.0,0.0,0.0,0.0,0.000111515124,0.0,0.0,0.0,0.0,0.0,0.0,0.00026825452,0.00026825452,0.00013602184,4.5368513e-05,0.023617296,0.15697125,0.0005041723,0.0,0.0,0.0,0.0,0.0,0.0
250025976,249835671,0.013845679,0.0024867607,0.0007712109,7.490345e-05,1.8315664e-05,0.0002391955,0.0,0.0,0.0,0.0,0.0,0.0,0.0,7.881442e-06,0.0,0.0,0.0,0.0,0.0,0.0,0.00019597275,0.00019597275,1.9281264e-05,1.435583e-06,0.08271239,0.00057156495,1.648358e-06,0.0,0.0,0.0,0.0,0.0,0.0
250525977,250335671,0.009109979,0.0011449816,1.9814815e-05,4.889388e-05,6.9422e-05,0.0001620657,0.0,0.0,0.0,0.0,0.0,0.0,0.0,0.0004266918,0.0,0.0,0.0,0.0,0.0,0.0,9.595065e-05,7.398738e-06,1.1090757e-05,9.595065e-05,0.20419994,0.002407584,0.0012784143,0.0,0.0,0.0,0.0,0.0,0.0
251025959,250835671,0.0007615465,0.00023018065,0.00071848725,3.307762e-08,3.766378e-05,0.0004086784,0.0,0.0,0.0,0.0,0.0,0.0,0.0,0.0009774618,0.0,0.0,0.0,0.0,0.0,0.0,0.00011315796,2.2408383e-06,3.413092e-05,0.00011315796,0.01623998,0.21950944,9.408052e-06,0.0,0.0,0.0,0.0,0.0,0.0
251525993,251335671,1.666734e-05,3.3814624e-07,0.0004988582,0.000100934456,5.3561766e-05,0.0008094491,0.0,0.0,0.0,0.0,0.0,0.0,0.0,0.0002604645,0.0,0.0,0.0,0.0,0.0,0.0,1.585552e-05,1.9501056e-06,5.0103195e-06,1.585552e-05,0.061545905,0.14659172,5.901076e-07,0.0,0.0,0.0,0.0,0.0,0.0
252025978,251835671,0.0032936428,0.0004715283,0.00021960562,0.00015015197,4.8950053e-05,0.0010560369,0.0,0.0,0.0,0.0,0.0,0.0,0.0,0.0004411689,0.0,0.0,0.0,0.0,0.0,0.0,4.4145672e-05,4.4145672e-05,6.109875e-08,3.3029835e-05,0.020565057,0.002192183,2.3540138e-05,0.0,0.0,0.0,0.0,0.0,0.0
252525978,252335671,0.00027206464,0.0001009747,0.0005013016,0.00023117181,8.8633955e-05,0.0013202191,0.0,0.0,0.0,0.0,0.0,0.0,0.0,0.0007426681,0.0,0.0,0.0,0.0,0.0,0.0,0.00020700737,0.00019496141,7.033961e-05,0.00020700737,0.18604301,0.04846161,0.0024957056,0.0,0.0,0.0,0.0,0.0,0.0
253025993,252835671,7.9773247e-07,0.001438201,0.00079194596,0.00026282502,0.00011721319,0.0015598264,0.0,0.0,0.0,0.0,0.0,0.0,0.0,0.00065450784,0.0,0.0,0.0,0.0,0.0,0.0,7.782729e-05,7.695205e-05,5.585131e-05,7.782729e-05,0.10318024,0.037699588,0.001169229,0.0,0.0,0.0,0.0,0.0,0.0
253525959,253335671,0.0024862664,0.00024981305,0.00012262519,0.00032407037,0.00010219362,0.0025014123,0.0,0.0,0.0,0.0,0.0,0.0,0.0,0.00010885436,0.0,0.0,0.0,0.0,0.0,0.0,0.0001962135,2.7740247e-05,1.5186552e-06,0.0001962135,0.03892676,0.044897478,0.00039850315,0.0,0.0,0.0,0.0,0.0,0.0
254025976,253835671,0.0009513154,0.003823187,0.00086392945,0.0007252779,0.00018661223,0.0026620897,0.0,0.0,0.0,0.0,0.0,0.0,0.0,2.8572267e-06,0.0,0.0,0.0,0.0,0.0,0.0,6.8795334e-06,6.8795334e-06,1.2974749e-07,6.772523e-06,8.766967e-05,0.014346311,3.4734448e-06,0.0,0.0,0.0,0.0,0.0,0.0
254525977,254335671,0.00078453537,0.00028145223,0.00092526275,0.0005716177,0.00013895353,0.0032872823,0.0,0.0,0.0,0.0,0.0,0.0,0.0,0.00018306612,0.0,0.0,0.0,0.0,0.0,0.0,0.00011048499,0.00011048499,1.8750057e-05,6.794398e-05,0.042152442,0.5996161,0.00042244006,0.0,0.0,0.0,0.0,0.0,0.0
255025960,254835671,0.00091921736,0.0045194286,0.003697354,0.0003627278,0.00017596918,0.0034958269,0.0,0.0,0.0,0.0,0.0,0.0,0.0,2.293266e-05,0.0,0.0,0.0,0.0,0.0,0.0,5.529184e-05,5.529184e-05,2.1919257e-05,6.959795e-06,0.087355904,0.22986317,7.272257e-05,0.0,0.0,0.0,0.0,0.0,0.0
255525967,255335671,0.0006420635,0.0007771624,0.015995653,0.00019743227,0.00012554578,0.0036034961,0.0,0.0,0.0,0.0,0.0,0.0,0.0,2.0378015e-05,0.0,0.0,0.0,0.0,0.0,0.0,0.0001592013,0.0001592013,4.2093106e-05,2.109036e-05,0.11537061,0.74996173,0.008199635,0.0,0.0,0.0,0.0,0.0,0.0
256025980,255835671,0.0007122401,0.00040618706,0.014770456,0.0002064126,0.00013255712,0.003234838,0.0,0.0,0.0,0.0,0.0,0.0,0.0,4.253573e-05,0.0,0.0,0.0,0.0,0.0,0.0,5.208902e-05,5.208902e-05,2.4671235e-06,7.5460946e-08,0.11606506,0.19453269,5.5287543e-05,0.0,0.0,0.0,0.0,0.0,0.0
256525978,256335671,3.2841863e-06,0.0016155745,0.021083515,0.00014652708,0.00020686818,0.0031346253,0.0,0.0,0.0,0.0,0.0,0.0,0.0,0.00051365927,0.0,0.0,0.0,0.0,0.0,0.0,4.030075e-05,4.030075e-05,3.885119e-06,3.8003122e-07,0.1603213,0.15643871,0.0031423573,0.0,0.0,0.0,0.0,0.0,0.0
257025966,256835671,0.00083003985,0.00040914846,0.0064438554,0.00013327776,0.00015135192,0.0027645628,0.0,0.0,0.0,0.0,0.0,0.0,0.0,7.411532e-05,0.0,0.0,0.0,0.0,0.0,0.0,3.66618e-05,3.7128785e-08,3.66618e-05,3.5177603e-05,0.0017005372,0.0042343633,1.2020664e-05,0.0,0.0,0.0,0.0,0.0,0.0
257525958,257335671,0.0002235372,0.0013425122,0.0032985823,9.73907e-05,0.000107353575,0.0024364274,0.0,0.0,0.0,0.0,0.0,0.0,0.0,6.473159e-05,0.0,0.0,0.0,0.0,0.0,0.0,4.2889962e-05,1.816212e-05,1.225691e-06,4.2889962e-05,0.0444166,0.6543847,0.0063076634,0.0,0.0,0.0,0.0,0.0,0.0
258026006,257835671,0.001346138,0.0007123482,0.0004998893,6.469641e-05,0.00012156054,0.0022505526,0.0,0.0,0.0,0.0,0.0,0.0,0.0,5.2860207e-05,0.0,0.0,0.0,0.0,0.0,0.0,0.002679977,6.807107e-05,0.00036580762,0.002679977,0.587939,0.019453553,0.011853047,0.0,0.0,0.0,0.0,0.0,0.0
258525978,258335671,0.0004933336,0.0005865213,0.010926612,0.000119047494,6.645376e-05,0.0014212712,0.0,0.0,0.0,0.0,0.0,0.0,0.0,3.062419e-05,0.0,0.0,0.0,0.0,0.0,0.0,0.000110955916,6.331177e-05,1.1633592e-05,0.000110955916,0.026163388,0.003740927,3.218794e-06,0.0,0.0,0.0,0.0,0.0,0.0
259025973,258835671,0.004074122,0.012139206,3.544381e-05,0.000105186,7.890597e-05,0.001065824,0.0,0.0,0.0,0.0,0.0,0.0,0.0,6.8801644e-05,0.0,0.0,0.0,0.0,0.0,0.0,6.1148094e-05,1.6220252e-05,6.1148094e-05,1.0620187e-06,0.058084868,0.07390773,8.424303e-05,0.0,0.0,0.0,0.0,0.0,0.0
259525959,259335671,5.858093e-06,1.7891096e-05,0.0014394515,0.00018677453,8.596086e-06,0.0013064563,0.0,0.0,0.0,0.0,0.0,0.0,0.0,0.0008445435,0.0,0.0,0.0,0.0,0.0,0.0,0.00012424735,1.0530998e-05,4.9212722e-05,0.00012424735,0.1227516,0.041513875,0.00018492408,0.0,0.0,0.0,0.0,0.0,0.0
260025975,259835671,0.0009416953,0.004527909,0.0009852839,0.00012283948,2.8369998e-10,0.0016393809,0.0,0.0,0.0,0.0,0.0,0.0,0.0,3.7170643e-08,0.0,0.0,0.0,0.0,0.0,0.0,3.252321e-05,1.5941809e-05,2.6346763e-06,3.252321e-05,0.14771645,0.06355045,1.4347093e-05,0.0,0.0,0.0,0.0,0.0,0.0
260525979,260335671,0.0016245797,0.0019528372,0.0019838943,9.4217125e-05,3.4626294e-06,0.0015842344,0.0,0.0,0.0,0.0,0.0,0.0,0.0,4.3436376e-05,0.0,0.0,0.0,0.0,0.0,0.0,2.6117057e-05,2.3739034e-08,1.1009241e-06,2.6117057e-05,0.088180766,0.02426753,0.001939245,0.0,0.0,0.0,0.0,0.0,0.0
261025961,260835671,0.004881643,1.0078688e-06,0.0008819667,4.6183613e-05,3.043088e-05,0.0017346938,0.0,0.0,0.0,0.0,0.0,0.0,0.0,0.0023303425,0.0,0.0,0.0,0.0,0.0,0.0,0.00012012897,2.73268e-05,3.0644178e-06,0.00012012897,0.24640594,0.042825013,0.0022001718,0.0,0.0,0.0,0.0,0.0,0.0
261525958,261335671,0.000105434134,0.0016596839,0.0010057568,3.24246e-05,1.7512104e-05,0.001540071,0.0,0.0,0.0,0.0,0.0,0.0,0.0,7.328128e-05,0.0,0.0,0.0,0.0,0.0,0.0,5.7312158e-05,8.036803e-06,5.7312158e-05,1.4181295e-05,0.12988037,0.016977197,4.2725616e-05,0.0,0.0,0.0,0.0,0.0,0.0
262025975,261835671,0.0009574262,0.00017181948,0.00060895697,1.9084555e-05,4.2436706e-05,0.0014816328,0.0,0.0,0.0,0.0,0.0,0.0,0.0,8.595812e-05,0.0,0.0,0.0,0.0,0.0,0.0,2.3394363e-05,4.1293133e-06,2.3394363e-05,1.3928651e-05,0.282368,0.08766626,3.414533e-05,0.0,0.0,0.0,0.0,0.0,0.0
262525975,262335671,6.7558376e-06,0.00073232217,0.00015310157,1.3085629e-05,5.7600457e-05,0.0012911032,0.0,0.0,0.0,0.0,0.0,0.0,0.0,0.00013688214,0.0,0.0,0.0,0.0,0.0,0.0,8.4533676e-05,3.5229375e-06,8.4533676e-05,6.51864e-05,0.010345368,0.11839102,0.00038407245,0.0,0.0,0.0,0.0,0.0,0.0
263025998,262835671,6.083392e-05,0.00045249946,1.9545656e-05,3.4825068e-06,8.2929175e-05,0.0011017125,0.0,0.0,0.0,0.0,0.0,0.0,0.0,0.00035194328,0.0,0.0,0.0,0.0,0.0,0.0,1.3602749e-05,2.8880154e-06,7.689555e-06,1.3602749e-05,5.1658822e-05,0.028964099,1.1662958e-05,0.0,0.0,0.0,0.0,0.0,0.0
263525962,263335671,0.0006908556,0.0015286502,2.125109e-05,2.0209916e-06,0.00013665685,0.0009527999,0.0,0.0,0.0,0.0,0.0,0.0,0.0,0.00047683492,0.0,0.0,0.0,0.0,0.0,0.0,7.700163e-05,2.5521344e-05,7.700163e-05,2.7552742e-05,0.00021853654,0.04586575,0.000107552056,0.0,0.0,0.0,0.0,0.0,0.0
264025977,263835671,0.0038664113,0.00229493,4.14671e-05,1.4203267e-06,3.318405e-05,0.00089592196,0.0,0.0,0.0,0.0,0.0,0.0,0.0,0.0004959321,0.0,0.0,0.0,0.0,0.0,0.0,0.0001381701,0.00013618467,0.0001381701,6.174461e-06,0.0068353214,0.0004032844,8.683945e-06,0.0,0.0,0.0,0.0,0.0,0.0
264526027,264335671,0.00034003195,0.007839832,0.0008273599,1.25091365e-05,7.187038e-05,0.0010587383,0.0,0.0,0.0,0.0,0.0,0.0,0.0,0.00010501614,0.0,0.0,0.0,0.0,0.0,0.0,0.000102340746,2.4329152e-06,9.3596114e-05,0.000102340746,0.003951702,0.06573731,0.00038790365,0.0,0.0,0.0,0.0,0.0,0.0
265025964,264835671,2.2310094e-06,4.4843564e-05,8.004915e-10,6.28851e-05,0.000104611725,0.0012122258,0.0,0.0,0.0,0.0,0.0,0.0,0.0,0.00045703907,0.0,0.0,0.0,0.0,0.0,0.0,0.000120035744,1.2871909e-05,5.904615e-08,0.000120035744,0.25075334,0.0027083186,0.0013718723,0.0,0.0,0.0,0.0,0.0,0.0
265525961,265335671,0.0005368541,0.0014310773,2.926855e-05,0.00016964716,0.00014644033,0.0014637491,0.0,0.0,0.0,0.0,0.0,0.0,0.0,0.0010013224,0.0,0.0,0.0,0.0,0.0,0.0,1.8437515e-05,1.8437515e-05,3.824608e-06,1.2280278e-05,0.107947096,0.023889966,0.00027799973,0.0,0.0,0.0,0.0,0.0,0.0
266025975,265835671,0.00044262086,0.00020670694,0.0010702274,0.0001688092,0.00011820355,0.001918781,0.0,0.0,0.0,0.0,0.0,0.0,0.0,0.00087556086,0.0,0.0,0.0,0.0,0.0,0.0,0.00015897214,0.000110657405,0.00015897214,2.3676112e-07,0.0013824911,0.011411013,4.832101e-05,0.0,0.0,0.0,0.0,0.0,0.0
266525974,266335671,0.00237249,0.0005139625,0.002307642,0.0002862072,5.176216e-05,0.0019339502,0.0,0.0,0.0,0.0,0.0,0.0,0.0,0.00084071205,0.0,0.0,0.0,0.0,0.0,0.0,0.00019305533,0.00019305533,0.00019284229,3.0883532e-06,0.08344788,0.00196198,5.3619737e-05,0.0,0.0,0.0,0.0,0.0,0.0
267025962,266835671,9.571445e-05,0.0016682129,0.0010965794,0.0002940375,5.3222546e-08,0.0019119836,0.0,0.0,0.0,0.0,0.0,0.0,0.0,0.00061565073,0.0,0.0,0.0,0.0,0.0,0.0,0.00018695503,4.6500267e-05,0.00018695503,1.9476659e-06,0.119668216,0.010565663,2.7425194e-06,0.0,0.0,0.0,0.0,0.0,0.0
267525969,267335671,0.00022839573,0.0006897661,0.00075668376,0.00028313347,9.36593e-05,0.0018679462,0.0,0.0,0.0,0.0,0.0,0.0,0.0,0.00030061972,0.0,0.0,0.0,0.0,0.0,0.0,8.082332e-05,6.970196e-06,8.082332e-05,3.2679256e-06,0.11635413,0.0017169088,0.0005841966,0.0,0.0,0.0,0.0,0.0,0.0
268026010,267835671,5.0129056e-05,0.00012278973,0.0008895192,0.0002092886,0.00015344188,0.0019393722,0.0,0.0,0.0,0.0,0.0,0.0,0.0,3.0577063e-05,0.0,0.0,0.0,0.0,0.0,0.0,7.998185e-05,2.4457268e-06,7.998185e-05,1.4178136e-06,0.37500164,0.0035217742,0.0010374299,0.0,0.0,0.0,0.0,0.0,0.0
268525978,268335671,0.0023404553,0.0034371829,0.0018139305,0.00022850209,0.00022001161,0.0019263579,0.0,0.0,0.0,0.0,0.0,0.0,0.0,0.00052332337,0.0,0.0,0.0,0.0,0.0,0.0,5.0268525e-05,3.263709e-07,3.4627392e-05,5.0268525e-05,0.015590369,0.03107039,2.6594535e-08,0.0,0.0,0.0,0.0,0.0,0.0
269025959,268835671,5.563639e-06,0.0019300558,0.0007348961,0.00025143725,0.00018843541,0.0015301354,0.0,0.0,0.0,0.0,0.0,0.0,0.0,0.000879509,0.0,0.0,0.0,0.0,0.0,0.0,9.0324036e-05,9.0324036e-05,6.473044e-06,1.5809744e-07,0.36334455,0.021515587,0.002382114,0.0,0.0,0.0,0.0,0.0,0.0
269525986,269335671,0.00046820717,0.0003223925,0.00033060563,0.00027382895,0.00024965924,0.0011034185,0.0,0.0,0.0,0.0,0.0,0.0,0.0,0.00042395276,0.0,0.0,0.0,0.0,0.0,0.0,0.00016813405,0.00016813405,5.0804315e-06,6.0871287e-05,0.99787045,0.0057778796,0.002115035,0.0,0.0,0.0,0.0,0.0,0.0
270025997,269835671,0.00048199043,9.2493826e-07,0.00015860169,0.0003548144,0.00031468953,0.0008980168,0.0,0.0,0.0,0.0,0.0,0.0,0.0,0.00015741137,0.0,0.0,0.0,0.0,0.0,0.0,0.00039604475,3.1518797e-05,0.00038167986,0.00039604475,0.00095519563,0.00049632165,1.7788358e-07,0.0,0.0,0.0,0.0,0.0,0.0
270525974,270335671,0.0033722743,0.008136128,0.00045482058,0.0003320406,0.00010354005,0.0009567959,0.0,0.0,0.0,0.0,0.0,0.0,0.0,0.00013383228,0.0,0.0,0.0,0.0,0.0,0.0,0.00027231354,0.00027231354,0.00011557138,9.1389134e-05,0.13068035,0.040233195,0.0003053134,0.0,0.0,0.0,0.0,0.0,0.0
271025954,270835671,0.0006761615,0.003157516,8.017878e-05,0.00030551347,4.666334e-05,0.00077196216,0.0,0.0,0.0,0.0,0.0,0.0,0.0,0.00021966068,0.0,0.0,0.0,0.0,0.0,0.0,0.00073423993,0.00073423993,9.8722685e-06,3.7018082e-05,0.014219245,0.032809794,5.5723485e-06,0.0,0.0,0.0,0.0,0.0,0.0
272025957,271835671,0.0072270646,0.0007842843,0.0005798982,0.00013871626,3.831412e-07,0.0009889327,0.0,0.0,0.0,0.0,0.0,0.0,0.0,0.00019792796,0.0,0.0,0.0,0.0,0.0,0.0,0.0005045369,0.0005045369,2.0942392e-05,4.754618e-05,0.26804692,0.026739664,0.0032584565,0.0,0.0,0.0,0.0,0.0,0.0
272525973,272335671,0.003971799,0.019997753,0.00062127673,0.00012472377,4.5487373e-05,0.0011203546,0.0,0.0,0.0,0.0,0.0,0.0,0.0,0.00025469364,0.0,0.0,0.0,0.0,0.0,0.0,0.0005255478,0.0005255478,3.4538323e-05,2.4571034e-05,0.16193205,0.0009896469,0.0015102914,0.0,0.0,0.0,0.0,0.0,0.0
273026007,272835671,2.757919e-05,0.0044356054,0.00014127878,0.000103920385,4.066716e-05,0.00070608896,0.0,0.0,0.0,0.0,0.0,0.0,0.0,0.0006735539,0.0,0.0,0.0,0.0,0.0,0.0,0.0003764353,0.0003764353,0.00017670759,1.7092184e-08,0.014935169,0.034466036,6.170755e-05,0.0,0.0,0.0,0.0,0.0,0.0
274025961,273835671,0.00036069768,0.0002319871,7.4998505e-05,3.9499224e-05,3.5155126e-06,0.00059288077,0.0,0.0,0.0,0.0,0.0,0.0,0.0,7.984521e-05,0.0,0.0,0.0,0.0,0.0,0.0,0.00097601407,8.140732e-05,0.00097601407,1.1134648e-05,9.11893e-05,0.110848926,0.0007377006,0.0,0.0,0.0,0.0,0.0,0.0
274526241,274335671,0.00025055071,2.4348372e-05,2.2343118e-05,2.3515326e-05,1.5531097e-05,0.00035815168,0.0,0.0,0.0,0.0,0.0,0.0,0.0,0.00012685636,0.0,0.0,0.0,0.0,0.0,0.0,0.0015565112,2.1416655e-08,0.0015565112,6.199455e-07,0.12371232,0.000778534,0.00033152357,0.0,0.0,0.0,0.0,0.0,0.0
275026166,274835671,0.0009957904,0.00012748099,0.0003803273,2.3379348e-06,3.394786e-05,9.627427e-05,0.0,0.0,0.0,0.0,0.0,0.0,0.0,2.085852e-06,0.0,0.0,0.0,0.0,0.0,0.0,0.0035090253,0.0007396965,0.0035090253,1.6893408e-05,0.019669933,0.05683607,0.00033887423,0.0,0.0,0.0,0.0,0.0,0.0
275526133,275335671,0.0004001315,0.002159353,0.00046725658,1.9748128e-05,3.119114e-05,0.00020335158,0.0,0.0,0.0,0.0,0.0,0.0,0.0,0.00016652113,0.0,0.0,0.0,0.0,0.0,0.0,0.0028068775,0.0028068775,0.0015964793,1.4748211e-05,0.08283738,0.01185653,0.00047125848,0.0,0.0,0.0,0.0,0.0,0.0
276026127,275835671,0.00012522558,0.012033116,0.00018815616,1.550043e-05,5.8693484e-05,7.1137394e-05,0.0,0.0,0.0,0.0,0.0,0.0,0.0,8.664401e-06,0.0,0.0,0.0,0.0,0.0,0.0,0.004314238,0.004314238,0.0003646811,0.00018602968,0.16586909,0.037122168,0.00023932914,0.0,0.0,0.0,0.0,0.0,0.0
276526168,276335671,9.839651e-05,0.010644063,9.466528e-05,1.9315017e-05,4.7513346e-05,2.5843825e-05,0.0,0.0,0.0,0.0,0.0,0.0,0.0,6.1505843e-06,0.0,0.0,0.0,0.0,0.0,0.0,0.0055294377,0.0055294377,5.6633985e-07,0.00029476103,0.10853938,0.0048055835,0.00020302288,0.0,0.0,0.0,0.0,0.0,0.0
277026181,276835671,0.00020942334,0.0050195637,0.00085074233,1.4735218e-06,1.0530363e-05,3.477302e-05,0.0,0.0,0.0,0.0,0.0,0.0,0.0,0.00027855614,0.0,0.0,0.0,0.0,0.0,0.0,0.004338029,0.004338029,0.00050073094,0.00030795461,1.5494642,0.050738752,0.041469924,0.0,0.0,0.0,0.0,0.0,0.0
277526123,277335671,0.0011538852,0.0021684153,0.0011195194,5.9520003e-06,2.298168e-06,4.1166106e-07,0.0,0.0,0.0,0.0,0.0,0.0,0.0,0.00014868143,0.0,0.0,0.0,0.0,0.0,0.0,0.0013233931,0.0013233931,0.0012737353,5.2020197e-05,0.27980536,0.0018689185,0.0008808608,0.0,0.0,0.0,0.0,0.0,0.0
278026180,277835671,0.0006453223,0.0023376672,0.0006485658,2.4252678e-05,4.837458e-06,5.230636e-05,0.0,0.0,0.0,0.0,0.0,0.0,0.0,3.1038675e-05,0.0,0.0,0.0,0.0,0.0,0.0,0.0006383476,0.0006091207,0.0006383476,0.00021232522,0.011220704,0.0051979353,3.491588e-05,0.0,0.0,0.0,0.0,0.0,0.0
278526169,278335671,0.00041089187,0.000118401236,0.00050157035,6.4571475e-05,6.481195e-07,7.126153e-05,0.0,0.0,0.0,0.0,0.0,0.0,0.0,3.7565846e-05,0.0,0.0,0.0,0.0,0.0,0.0,0.0006787282,0.00045758742,0.000442403,0.0006787282,0.020599168,0.052207448,0.00025945346,0.0,0.0,0.0,0.0,0.0,0.0
279026170,278835671,0.002439258,0.000100291436,6.413524e-05,6.2668776e-05,9.085636e-08,0.00012609833,0.0,0.0,0.0,0.0,0.0,0.0,0.0,4.513844e-05,0.0,0.0,0.0,0.0,0.0,0.0,0.0007170177,0.0006586156,0.0007170177,0.00032576278,0.025625044,0.034690257,1.635246e-05,0.0,0.0,0.0,0.0,0.0,0.0
279526179,279335671,1.3189283e-05,0.00031926372,5.1668158e-05,3.6530142e-05,2.0366555e-07,0.00015428236,0.0,0.0,0.0,0.0,0.0,0.0,0.0,0.0003748951,0.0,0.0,0.0,0.0,0.0,0.0,0.00048153568,0.00038824364,0.00048153568,0.00047521165,0.08366199,0.05257556,8.779409e-07,0.0,0.0,0.0,0.0,0.0,0.0
280526189,280335671,3.2297005e-05,0.0028152661,0.0031966208,3.4387096e-05,1.3392839e-05,7.372224e-05,0.0,0.0,0.0,0.0,0.0,0.0,0.0,7.509442e-05,0.0,0.0,0.0,0.0,0.0,0.0,0.00029623188,7.190516e-05,0.00029623188,0.00018999707,0.6112877,0.031769868,0.012106325,0.0,0.0,0.0,0.0,0.0,0.0
281026177,280835671,2.421245e-07,0.0016818013,0.0029860158,4.483758e-05,3.8515896e-06,9.143479e-05,0.0,0.0,0.0,0.0,0.0,0.0,0.0,0.0001630451,0.0,0.0,0.0,0.0,0.0,0.0,0.00037700997,0.00014309247,0.00037700997,4.494393e-05,0.3060712,0.04589467,2.0983143e-05,0.0,0.0,0.0,0.0,0.0,0.0
281526126,281335671,0.0015002281,8.0636346e-05,0.0018935702,1.2855116e-05,2.7107902e-05,0.000110934416,0.0,0.0,0.0,0.0,0.0,0.0,0.0,0.0004345317,0.0,0.0,0.0,0.0,0.0,0.0,0.00030280923,8.4628824e-05,0.00022781293,0.00030280923,0.9557513,0.18406142,0.046341397,0.0,0.0,0.0,0.0,0.0,0.0
282026130,281835671,0.0027343202,3.3278793e-05,0.0026315926,5.234755e-06,3.379401e-05,7.658111e-05,0.0,0.0,0.0,0.0,0.0,0.0,0.0,0.00013584155,0.0,0.0,0.0,0.0,0.0,0.0,0.00039163587,0.0001176357,0.00039163587,7.99114e-05,0.018982558,0.043797687,0.0006478841,0.0,0.0,0.0,0.0,0.0,0.0
282526166,282335671,0.0045218817,1.736838e-05,0.0015412862,1.7248807e-07,6.129898e-05,8.973341e-05,0.0,0.0,0.0,0.0,0.0,0.0,0.0,0.00014073694,0.0,0.0,0.0,0.0,0.0,0.0,0.00049523823,0.00029122084,0.00049523823,3.7576232e-05,0.016451638,0.00015665186,8.476464e-05,0.0,0.0,0.0,0.0,0.0,0.0
283026179,282835671,0.00013391457,0.001709365,0.006820171,1.5321753e-05,0.00016920967,4.0200688e-05,0.0,0.0,0.0,0.0,0.0,0.0,0.0,2.0062907e-06,0.0,0.0,0.0,0.0,0.0,0.0,0.00013123342,0.00013123342,0.00011704401,5.2284406e-05,0.15369108,0.0068069953,4.162203e-06,0.0,0.0,0.0,0.0,0.0,0.0
283526131,283335671,0.003204646,0.0012398993,0.0008059002,5.6448585e-05,0.00016765346,2.6163782e-05,0.0,0.0,0.0,0.0,0.0,0.0,0.0,3.1976335e-05,0.0,0.0,0.0,0.0,0.0,0.0,0.00022204954,0.00011609899,4.251534e-05,0.00022204954,0.051840052,0.17923905,0.0022730548,0.0,0.0,0.0,0.0,0.0,0.0
284025957,283835671,0.0039914856,0.002086315,0.00043797647,3.7427435e-06,5.0337283e-05,4.2981457e-05,0.0,0.0,0.0,0.0,0.0,0.0,0.0,4.6234625e-05,0.0,0.0,0.0,0.0,0.0,0.0,0.00048455066,3.3434782e-05,0.00015860933,0.00048455066,0.1240816,0.008865284,0.0006385601,0.0,0.0,0.0,0.0,0.0,0.0
284526005,284335671,0.00068983616,0.00085801876,0.0011691651,1.1050387e-06,4.9089227e-05,7.912676e-06,0.0,0.0,0.0,0.0,0.0,0.0,0.0,5.249037e-05,0.0,0.0,0.0,0.0,0.0,0.0,0.0015321036,0.0015321036,9.4366325e-05,2.6691736e-05,1.2126321,0.032107208,0.02920595,0.0,0.0,0.0,0.0,0.0,0.0
285025974,284835671,0.00023159687,0.0028056896,0.00047315226,7.700481e-05,2.1760083e-05,4.7271827e-05,0.0,0.0,0.0,0.0,0.0,0.0,0.0,1.6916193e-06,0.0,0.0,0.0,0.0,0.0,0.0,0.0012943457,0.0012943457,9.4527e-05,1.5165422e-05,0.15370245,0.035517763,3.160051e-05,0.0,0.0,0.0,0.0,0.0,0.0
285525967,285335671,6.851031e-05,0.000336507,0.002439511,0.0002435884,4.4121247e-05,4.7271827e-05,0.0,0.0,0.0,0.0,0.0,0.0,0.0,3.649209e-08,0.0,0.0,0.0,0.0,0.0,0.0,0.0017832301,0.0017832301,0.00013874535,1.5812186e-06,1.7608037,0.051034387,0.009860755,0.0,0.0,0.0,0.0,0.0,0.0
286025962,285835671,9.01459e-05,0.0005427684,0.0027656145,0.00019108178,0.00013152997,4.7271827e-05,0.0,0.0,0.0,0.0,0.0,0.0,0.0,0.00016384534,0.0,0.0,0.0,0.0,0.0,0.0,0.0009094733,0.0009094733,0.00022416904,1.4898955e-05,0.02074473,0.05028275,0.00043775767,0.0,0.0,0.0,0.0,0.0,0.0
286525976,286335671,0.00021590877,0.00025203184,0.0013017714,0.00010444741,0.0004134825,4.7271827e-05,0.0,0.0,0.0,0.0,0.0,0.0,0.0,0.000675345,0.0,0.0,0.0,0.0,0.0,0.0,0.0009480456,0.0009480456,4.793269e-05,0.00017392433,0.9905915,0.10612486,0.0040353592,0.0,0.0,0.0,0.0,0.0,0.0
287025977,286835671,0.00015744391,0.0021862488,0.005708704,5.0638424e-05,0.00062937214,4.7271827e-05,0.0,0.0,0.0,0.0,0.0,0.0,0.0,0.0006029754,0.0,0.0,0.0,0.0,0.0,0.0,0.0006775929,0.0006775929,0.00059375004,0.00024238034,0.20245188,0.13426735,0.002732619,0.0,0.0,0.0,0.0,0.0,0.0
287525964,287335671,0.009495031,0.00033852414,0.003561747,6.461036e-05,0.0008289683,4.7271827e-05,0.0,0.0,0.0,0.0,0.0,0.0,0.0,0.0009915039,0.0,0.0,0.0,0.0,0.0,0.0,0.0004403842,0.00041854268,0.0004403842,0.0003300308,1.2117854,0.099373884,0.031164728,0.0,0.0,0.0,0.0,0.0,0.0
288025959,287835671,0.005052635,0.0013242906,0.0042098523,0.00017083065,0.0007274951,4.7271827e-05,0.0,0.0,0.0,0.0,0.0,0.0,0.0,0.001069732,0.0,0.0,0.0,0.0,0.0,0.0,0.00047741854,0.00031271283,0.0002378544,0.00047741854,0.3520534,0.0009902588,0.0037825513,0.0,0.0,0.0,0.0,0.0,0.0
288525979,288335671,0.016720906,0.0002600338,0.00568474,0.00037884605,0.0010315604,4.7271827e-05,0.0,0.0,0.0,0.0,0.0,0.0,0.0,0.00048343392,0.0,0.0,0.0,0.0,0.0,0.0,0.0006352502,0.000432216,0.0006352502,0.0002523154,0.2442242,0.0013812827,0.0023162474,0.0,0.0,0.0,0.0,0.0,0.0
289025981,288835671,0.0029033108,0.0034499948,0.008294384,0.00059065054,0.00076417875,4.7271827e-05,0.0,0.0,0.0,0.0,0.0,0.0,0.0,0.00085027306,0.0,0.0,0.0,0.0,0.0,0.0,0.00057591934,0.00057591934,0.00019584074,2.0389723e-05,0.08381728,0.18169029,0.00019545789,0.0,0.0,0.0,0.0,0.0,0.0
289525988,289335671,0.015603439,0.0016946383,0.0029947748,0.0013525173,0.0009709703,4.7271827e-05,0.0,0.0,0.0,0.0,0.0,0.0,0.0,0.0002104708,0.0,0.0,0.0,0.0,0.0,0.0,0.00017517396,0.000111635454,0.00017517396,6.360922e-05,0.2258255,0.038364034,0.0011665076,0.0,0.0,0.0,0.0,0.0,0.0
290025958,289835671,0.002803386,0.013072719,0.0017342434,0.00049999956,0.0016418127,4.7271827e-05,0.0,0.0,0.0,0.0,0.0,0.0,0.0,7.893301e-05,0.0,0.0,0.0,0.0,0.0,0.0,0.011112004,0.0007487678,0.00025258304,0.011112004,0.11807192,0.0850678,0.00050445076,0.0,0.0,0.0,0.0,0.0,0.0
290525969,290335671,0.012548478,0.00013169441,0.010866214,0.0001419364,0.0023809187,4.7271827e-05,0.0,0.0,0.0,0.0,0.0,0.0,0.0,0.0013755404,0.0,0.0,0.0,0.0,0.0,0.0,0.00047030722,0.00047030722,0.00011489922,1.5395328e-06,0.03534219,0.2148747,0.0012215704,0.0,0.0,0.0,0.0,0.0,0.0
291026001,290835671,0.0026038925,0.0010120852,0.0022329772,0.00013711744,0.0022186416,4.7271827e-05,0.0,0.0,0.0,0.0,0.0,0.0,0.0,0.00037499785,0.0,0.0,0.0,0.0,0.0,0.0,0.0019907348,0.00038888582,0.00031263407,0.0019907348,0.04752804,0.025318714,0.00016104992,0.0,0.0,0.0,0.0,0.0,0.0
291525955,291335671,0.0007534027,0.00051866594,0.00064791,0.00018584314,0.0021024256,4.7271827e-05,0.0,0.0,0.0,0.0,0.0,0.0,0.0,0.0020645,0.0,0.0,0.0,0.0,0.0,0.0,0.0005807393,0.0005807393,1.4732902e-05,4.9279104e-05,0.0028512592,0.045797106,7.188332e-05,0.0,0.0,0.0,0.0,0.0,0.0
292025957,291835671,0.0043398547,0.018023536,0.00101128,0.00014606999,0.0041437782,4.7271827e-05,0.0,0.0,0.0,0.0,0.0,0.0,0.0,0.0011337167,0.0,0.0,0.0,0.0,0.0,0.0,0.00033180814,0.00033180814,1.7506569e-06,1.7249602e-05,0.00014987675,0.066497535,9.306254e-05,0.0,0.0,0.0,0.0,0.0,0.0
292525977,292335671,0.0017858378,0.00038240786,0.00091415964,0.00048279378,0.0042602806,4.7271827e-05,0.0,0.0,0.0,0.0,0.0,0.0,0.0,0.0009714806,0.0,0.0,0.0,0.0,0.0,0.0,0.00070919964,0.00070919964,5.365357e-05,2.504461e-07,0.4813355,0.012475109,0.0045581004,0.0,0.0,0.0,0.0,0.0,0.0
293025971,292835671,0.0006911052,0.0018451127,0.0019961793,0.00029913118,0.004743421,4.7271827e-05,0.0,0.0,0.0,0.0,0.0,0.0,0.0,0.0024406654,0.0,0.0,0.0,0.0,0.0,0.0,0.00029347237,0.00029347237,0.00018268367,5.4806274e-06,0.1365532,0.10638902,0.0006820026,0.0,0.0,0.0,0.0,0.0,0.0
293525983,293335671,0.008887248,3.0577212e-05,0.0021955115,0.0011863824,0.0060639675,4.7271827e-05,0.0,0.0,0.0,0.0,0.0,0.0,0.0,0.0010457949,0.0,0.0,0.0,0.0,0.0,0.0,0.00052345026,0.00052345026,2.4904697e-05,5.983824e-07,0.62024075,0.011785109,0.009563818,0.0,0.0,0.0,0.0,0.0,0.0
294025957,293835671,0.002714407,0.0010279192,0.0037114676,0.0014365214,0.005238985,4.7271827e-05,0.0,0.0,0.0,0.0,0.0,0.0,0.0,0.0011624795,0.0,0.0,0.0,0.0,0.0,0.0,0.00010805333,0.00010805333,4.8742142e-05,1.882446e-05,0.5417192,0.007938553,0.002999047,0.0,0.0,0.0,0.0,0.0,0.0
294526001,294335671,0.0005973642,0.0047038044,0.0006785153,0.0016796351,0.006065715,4.7271827e-05,0.0,0.0,0.0,0.0,0.0,0.0,0.0,0.0032186373,0.0,0.0,0.0,0.0,0.0,0.0,0.00048984296,0.000116354575,2.8512775e-05,0.00048984296,0.014409039,0.011410327,2.630032e-07,0.0,0.0,0.0,0.0,0.0,0.0
295025982,294835671,0.04296923,0.008030046,0.0013213956,0.0037322068,0.007134816,4.7271827e-05,0.0,0.0,0.0,0.0,0.0,0.0,0.0,0.002094261,0.0,0.0,0.0,0.0,0.0,0.0,0.00017126642,2.4917579e-06,0.00017126642,8.1012595e-06,0.81958884,0.050465733,0.009484521,0.0,0.0,0.0,0.0,0.0,0.0
295525957,295335671,0.017462675,0.0074156043,0.0047489703,0.0051658326,0.008198007,4.7271827e-05,0.0,0.0,0.0,0.0,0.0,0.0,0.0,0.0034665514,0.0,0.0,0.0,0.0,0.0,0.0,3.2980253e-05,3.2980253e-05,9.175261e-06,1.3813661e-07,0.020618724,0.048353717,9.020069e-05,0.0,0.0,0.0,0.0,0.0,0.0
296025981,295835671,0.00015268956,0.0056513976,0.0065074987,0.00519176,0.008497409,4.7271827e-05,0.0,0.0,0.0,0.0,0.0,0.0,0.0,0.0025418892,0.0,0.0,0.0,0.0,0.0,0.0,0.00011866539,0.00011866539,3.2249568e-07,4.5056144e-08,0.012336877,0.07664554,4.4622557e-05,0.0,0.0,0.0,0.0,0.0,0.0
297025972,296835671,0.08235166,0.01685806,0.006163984,0.0065669096,0.0085095875,4.7271827e-05,0.0,0.0,0.0,0.0,0.0,0.0,0.0,0.0004276587,0.0,0.0,0.0,0.0,0.0,0.0,0.0015348601,0.0015348601,0.00014742339,0.0001876703,0.2518734,2.4196534,0.09466204,0.0,0.0,0.0,0.0,0.0,0.0
297525947,297335671,0.12488172,0.011487198,0.0018200384,0.010310369,0.009179631,inf,0.0,0.0,0.0,0.0,0.0,0.0,0.0,0.0010133629,0.0,0.0,0.0,0.0,0.0,0.0,9.515705e-05,9.515705e-05,1.419856e-06,2.5276824e-05,0.40383944,0.11847777,0.013666715,0.0,0.0,0.0,0.0,0.0,0.0
298525961,298335671,0.03183218,0.0027709773,0.0003373826,0.011712518,0.007995487,inf,0.0,0.0,0.0,0.0,0.0,0.0,0.0,2.6031457e-05,0.0,0.0,0.0,0.0,0.0,0.0,0.00015375683,0.00015375683,0.00010033297,5.3657823e-05,2.3687735,0.16416965,0.005877279,0.0,0.0,0.0,0.0,0.0,0.0
299025959,298835671,0.028719133,0.00066208094,0.0005255309,0.012833664,0.0072023976,inf,0.0,0.0,0.0,0.0,0.0,0.0,0.0,0.00060439634,0.0,0.0,0.0,0.0,0.0,0.0,2.0129115e-05,2.0129115e-05,5.1211583e-07,1.2776211e-05,0.1794678,0.028804159,0.0005068514,0.0,0.0,0.0,0.0,0.0,0.0
299525970,299335671,0.013795427,4.3398646e-05,0.0009633303,0.01288842,0.006420697,inf,0.0,0.0,0.0,0.0,0.0,0.0,0.0,4.5013217e-05,0.0,0.0,0.0,0.0,0.0,0.0,0.00029753224,4.0307015e-05,1.944219e-06,0.00029753224,2.0005794,0.26562008,0.0017672443,0.0,0.0,0.0,0.0,0.0,0.0
300025940,299835671,0.01412812,0.0011301896,0.0069959126,0.013244634,0.0061645764,inf,0.0,0.0,0.0,0.0,0.0,0.0,0.0,0.0033345106,0.0,0.0,0.0,0.0,0.0,0.0,0.0010764269,0.00014382161,2.2867127e-05,0.0010764269,0.019594334,5.028586e-06,0.0009075065,0.0,0.0,0.0,0.0,0.0,0.0
300525955,300335671,0.015576819,0.0034906943,0.010508987,0.014239961,0.0055359923,inf,0.0,0.0,0.0,0.0,0.0,0.0,0.0,0.0012049996,0.0,0.0,0.0,0.0,0.0,0.0,4.299237e-05,2.4742289e-05,1.8830371e-05,4.299237e-05,0.0002824377,0.15903291,0.001903899,0.0,0.0,0.0,0.0,0.0,0.0
301025986,300835671,0.008619551,0.0018443707,0.0072296765,0.014866339,0.0052822265,inf,0.0,0.0,0.0,0.0,0.0,0.0,0.0,1.7577802e-05,0.0,0.0,0.0,0.0,0.0,0.0,0.00043202922,1.58426e-06,0.00043202922,0.00016312269,0.33678603,0.0035645498,0.0016799549,0.0,0.0,0.0,0.0,0.0,0.0
301526105,301335671,0.01628624,0.0018489454,0.003996457,0.015859954,0.0053128423,inf,0.0,0.0,0.0,0.0,0.0,0.0,0.0,0.0003379713,0.0,0.0,0.0,0.0,0.0,0.0,0.0001087207,3.5047374e-06,1.2600399e-05,0.0001087207,0.0055056,0.04173969,5.5046723e-05,0.0,0.0,0.0,0.0,0.0,0.0
302025943,301835671,0.014333842,0.0071199825,0.0037435964,0.016285531,0.00546337,inf,0.0,0.0,0.0,0.0,0.0,0.0,0.0,2.5175656e-05,0.0,0.0,0.0,0.0,0.0,0.0,4.317247e-05,2.7742408e-05,4.317247e-05,1.9565192e-05,0.40133104,0.035360552,0.0033630698,0.0,0.0,0.0,0.0,0.0,0.0
302526064,302335671,0.0062141567,0.0032564523,0.007439687,0.016305052,0.005152285,inf,0.0,0.0,0.0,0.0,0.0,0.0,0.0,0.00060185237,0.0,0.0,0.0,0.0,0.0,0.0,3.6890342e-05,2.491945e-06,8.184522e-06,3.6890342e-05,0.66217744,0.024421712,0.0073487465,0.0,0.0,0.0,0.0,0.0,0.0
303025962,302835671,0.0061718994,0.011077277,0.002776787,0.016774695,0.0053180144,inf,0.0,0.0,0.0,0.0,0.0,0.0,0.0,0.00054979743,0.0,0.0,0.0,0.0,0.0,0.0,0.00028322134,1.991654e-05,1.1201389e-05,0.00028322134,2.3078146,0.059921596,0.089422405,0.0,0.0,0.0,0.0,0.0,0.0
303525959,303335671,0.012880616,0.007345148,0.00539916,0.017149752,0.00553404,inf,0.0,0.0,0.0,0.0,0.0,0.0,0.0,0.00031916582,0.0,0.0,0.0,0.0,0.0,0.0,3.8336307e-06,3.8336307e-06,9.984562e-07,4.5811282e-07,3.3650746,0.03209496,0.21216258,0.0,0.0,0.0,0.0,0.0,0.0
304025941,303835671,0.00354423,0.016534206,0.010238377,0.016468212,0.0054920404,inf,0.0,0.0,0.0,0.0,0.0,0.0,0.0,0.0017743442,0.0,0.0,0.0,0.0,0.0,0.0,0.00024253331,3.8252147e-05,0.00024253331,1.9684145e-05,0.73742276,0.3508236,0.0132080605,0.0,0.0,0.0,0.0,0.0,0.0
305025957,304835671,0.0078094467,0.0060406155,0.028222362,0.015610951,0.0054156277,inf,0.0,0.0,0.0,0.0,0.0,0.0,0.0,0.0051853196,0.0,0.0,0.0,0.0,0.0,0.0,8.569673e-05,8.569673e-05,5.161115e-05,7.049624e-05,0.119007215,0.024082134,0.00017538862,0.0,0.0,0.0,0.0,0.0,0.0
305525958,305335671,0.015311064,0.008263437,0.025590772,0.015919413,0.0055222535,inf,0.0,0.0,0.0,0.0,0.0,0.0,0.0,0.0118025625,0.0,0.0,0.0,0.0,0.0,0.0,5.0998227e-05,5.0998227e-05,1.662843e-05,4.6810737e-08,0.02908003,1.2951541,0.023939185,0.0,0.0,0.0,0.0,0.0,0.0
306026105,305835671,0.017718762,0.011643196,0.025311513,0.016182996,0.0055367677,inf,0.0,0.0,0.0,0.0,0.0,0.0,0.0,0.004498564,0.0,0.0,0.0,0.0,0.0,0.0,4.569005e-05,4.569005e-05,7.3470146e-06,3.4914607e-05,0.075839914,0.163184,0.0003555146,0.0,0.0,0.0,0.0,0.0,0.0
306525954,306335671,0.01874245,0.010067497,0.043618355,0.016046895,0.0054884083,inf,0.0,0.0,0.0,0.0,0.0,0.0,0.0,0.021282302,0.0,0.0,0.0,0.0,0.0,0.0,9.9331664e-05,9.302946e-05,6.3556413e-06,9.9331664e-05,0.107479975,0.35491756,0.0047579412,0.0,0.0,0.0,0.0,0.0,0.0
307025962,306835671,0.021615038,0.00962814,0.048970014,0.01610944,0.0055406694,inf,0.0,0.0,0.0,0.0,0.0,0.0,0.0,0.021572338,0.0,0.0,0.0,0.0,0.0,0.0,0.00028009212,4.760635e-06,0.00018942596,0.00028009212,0.089506306,0.1031341,0.00058652705,0.0,0.0,0.0,0.0,0.0,0.0
307525982,307335671,0.015446628,0.009763817,0.035831254,0.015931591,0.005611626,0.14867105,0.0,0.0,0.0,0.0,0.0,0.0,0.0,0.02122552,0.0,0.0,0.0,0.0,0.0,0.0,0.00016054694,8.750858e-05,0.00016054694,3.7257985e-05,0.32702574,0.01144798,0.0014980303,0.0,0.0,0.0,0.0,0.0,0.0
308025957,307835671,0.0011963544,0.0052430183,0.008700118,1.7646469e-06,4.129874e-08,5.6960027e-05,0.0,0.0,0.0,0.0,0.0,0.0,0.0,0.030661907,0.0,0.0,0.0,0.0,0.0,0.0,0.00020659834,1.0733718e-05,0.00020659834,0.00015769408,1.8514104,0.15378997,0.08091834,0.0,0.0,0.0,0.0,0.0,0.0
308525964,308335671,0.0008760224,1.4138677e-05,0.00056089665,9.467486e-06,1.5116236e-05,0.0001389651,0.0,0.0,0.0,0.0,0.0,0.0,0.0,0.044560466,0.0,0.0,0.0,0.0,0.0,0.0,0.0011027802,0.00015415747,0.0011027802,1.6110105e-06,0.056534406,0.046452884,0.000342121,0.0,0.0,0.0,0.0,0.0,0.0
309025980,308835671,0.027565911,0.00895845,0.027986897,5.0189674e-06,3.8196413e-05,0.00050109497,0.0,0.0,0.0,0.0,0.0,0.0,0.0,0.040974405,0.0,0.0,0.0,0.0,0.0,0.0,0.004604673,0.00035770817,0.0011828152,0.004604673,0.0019916438,1.4435834,0.017719628,0.0,0.0,0.0,0.0,0.0,0.0
309526007,309335671,0.041859023,0.004253623,0.10666071,4.0266015e-05,9.2902355e-06,0.00050275534,0.0,0.0,0.0,0.0,0.0,0.0,0.0,0.031100325,0.0,0.0,0.0,0.0,0.0,0.0,0.004704579,0.00031302503,0.0026511,0.004704579,0.77247244,1.8793752,0.012675066,0.0,0.0,0.0,0.0,0.0,0.0
310025958,309835671,0.00013847662,0.0024910895,0.3068612,3.518819e-05,6.563486e-06,0.0010286525,0.0,0.0,0.0,0.0,0.0,0.0,0.0,0.016043603,0.0,0.0,0.0,0.0,0.0,0.0,0.0055161812,0.00043548978,0.0055161812,0.00084747304,0.044173412,0.04939767,0.0004504793,0.0,0.0,0.0,0.0,0.0,0.0
310525965,310335671,0.012295825,0.00633764,0.11715519,0.00011467372,1.795055e-05,0.0027416032,0.0,0.0,0.0,0.0,0.0,0.0,0.0,0.009995193,0.0,0.0,0.0,0.0,0.0,0.0,0.003569411,0.00071654224,0.003569411,2.5451352e-05,0.25559103,0.004821792,0.0026793377,0.0,0.0,0.0,0.0,0.0,0.0
311026003,310835671,0.045812417,0.001917209,0.010517271,0.0001374044,0.00012004095,0.0031992972,0.0,0.0,0.0,0.0,0.0,0.0,0.0,0.007841041,0.0,0.0,0.0,0.0,0.0,0.0,0.0012149712,0.0010945686,0.0012149712,0.00046597503,0.0969741,0.7193732,0.015009654,0.0,0.0,0.0,0.0,0.0,0.0
312025960,311835671,0.06954827,0.05856494,0.1612818,0.0008058959,1.0448298e-05,0.0034990439,0.0,0.0,0.0,0.0,0.0,0.0,0.0,0.0034949896,0.0,0.0,0.0,0.0,0.0,0.0,0.000654664,0.00057930977,0.00021221442,0.000654664,0.5937501,0.8171531,0.0019625153,0.0,0.0,0.0,0.0,0.0,0.0
312525960,312335671,0.044421345,0.029168487,0.10254181,0.0023887188,0.00048154077,0.0034990439,0.0,0.0,0.0,0.0,0.0,0.0,0.0,0.00056086114,0.0,0.0,0.0,0.0,0.0,0.0,0.00026697398,0.00016679202,0.00026697398,0.00017206615,2.039519,0.16715461,0.06961667,0.0,0.0,0.0,0.0,0.0,0.0
313025976,312835671,0.007382476,2.5278781e-05,0.08242283,0.0025410296,0.00028473453,0.0034990439,0.0,0.0,0.0,0.0,0.0,0.0,0.0,4.481774e-05,0.0,0.0,0.0,0.0,0.0,0.0,0.0017620443,6.792529e-05,0.00030130794,0.0017620443,0.015726991,0.16893487,4.846696e-09,0.0,0.0,0.0,0.0,0.0,0.0
313525980,313335675,0.01183923,1.7009019e-06,0.10939578,0.0041389265,0.000111679394,0.0034990439,0.0,0.0,0.0,0.0,0.0,0.0,0.0,0.0010538396,0.0,0.0,0.0,0.0,0.0,0.0,0.00020008284,9.7919605e-05,0.00020008284,4.2091422e-05,0.060070485,0.060088355,0.00021212503,0.0,0.0,0.0,0.0,0.0,0.0
314025957,313835671,0.00046518957,0.00015736607,0.08985866,0.004494493,1.336005e-05,0.0034990439,0.0,0.0,0.0,0.0,0.0,0.0,0.0,0.0020884066,0.0,0.0,0.0,0.0,0.0,0.0,0.0005967648,0.0002378784,0.0005967648,0.00024128331,0.75256574,0.034366176,0.010244354,0.0,0.0,0.0,0.0,0.0,0.0
314525958,314335671,0.0049938518,0.0032288393,0.045178745,0.0035207784,1.558734e-05,0.0034990439,0.0,0.0,0.0,0.0,0.0,0.0,0.0,0.0029226367,0.0,0.0,0.0,0.0,0.0,0.0,0.00047232473,0.00015977338,0.00047232473,8.8751985e-05,0.49410686,0.0055508455,0.006136528,0.0,0.0,0.0,0.0,0.0,0.0
315025986,314835671,0.00046243073,1.5545254e-07,0.0506613,0.0034539106,7.5309654e-05,0.0034990439,0.0,0.0,0.0,0.0,0.0,0.0,0.0,0.0024834275,0.0,0.0,0.0,0.0,0.0,0.0,0.00053548143,4.9709693e-06,0.00033156015,0.00053548143,0.49539846,0.09712622,0.0069810757,0.0,0.0,0.0,0.0,0.0,0.0
315525977,315335671,0.0009383027,0.000731935,0.052063555,0.0035683936,7.451904e-05,0.0034990439,0.0,0.0,0.0,0.0,0.0,0.0,0.0,0.0041719223,0.0,0.0,0.0,0.0,0.0,0.0,0.00014712493,4.3032698e-05,0.00014712493,4.371071e-06,0.6541434,0.39229357,0.00689275,0.0,0.0,0.0,0.0,0.0,0.0
