timestamp,timestamp_sample,accel_device_id,gyro_device_id,delta_angle[0],delta_angle[1],delta_angle[2],delta_velocity[0],delta_velocity[1],delta_velocity[2],delta_angle_dt,delta_velocity_dt,delta_angle_clipping,delta_velocity_clipping,accel_calibration_count,gyro_calibration_count
200503783,200503649,3407890,3407890,-1.9286406e-05,-3.6322774e-05,-9.896055e-06,-0.0014243454,0.003919534,-0.049724925,5001,5001,0,0,1,1
201003788,201003649,3407890,3407890,-1.0686721e-05,-2.6187975e-06,-2.9813812e-06,0.00033568728,0.0036763998,-0.048196062,5000,5000,0,0,1,1
201503773,201503647,3407890,3407890,-1.0104417e-05,1.3994974e-05,2.5987904e-06,-0.0007213084,0.0015142345,-0.049955484,4999,4999,0,0,1,1
202003774,202003648,3407890,3407890,-5.1082003e-05,4.925957e-06,-7.3190627e-06,-0.00030194488,0.00114219,-0.048462585,5000,5000,0,0,1,1
202503777,202503648,3407890,3407890,-3.1127198e-05,-1.880603e-05,-3.0470958e-06,-4.924575e-05,0.0013190034,-0.048623282,5000,5000,0,0,1,1
203003776,203003648,3407890,3407890,-1.3260483e-05,-2.7674892e-05,2.0166724e-05,-0.0022082122,0.0008089216,-0.048810918,5000,5000,0,0,1,1
203503774,203503648,3407890,3407890,-2.8216857e-05,-2.3250503e-05,-1.5714326e-05,2.5058976e-05,0.0026549695,-0.049945004,5001,5001,0,0,1,1
204003778,204003648,3407890,3407890,-9.4105024e-05,-5.0687355e-05,2.9483568e-05,-0.0061404775,0.0026171713,-0.04725137,5000,5000,0,0,1,1
204503774,204503647,3407890,3407890,-0.00013983945,1.39180775e-05,-3.3145992e-05,0.0015829615,-0.008787366,-0.040104013,4999,4999,0,0,1,1
205003775,205003648,3407890,3407890,5.651284e-05,-0.00011791311,-5.5472454e-05,0.0018435036,-0.01651867,-0.055316105,5000,5000,0,0,1,1
205503775,205503648,3407890,3407890,0.0021451048,0.0002708994,3.962389e-05,-0.015558801,0.0016997778,-0.049435582,5001,5001,0,0,1,1
206003776,206003648,3407890,3407890,-0.0004761239,-0.00037350404,0.0005084465,-0.0010944905,0.00087045477,-0.04550674,5000,5000,0,0,1,1
207003776,207003647,3407890,3407890,0.0001443225,0.0007961468,0.00028731444,0.0010382533,-4.7918158e-05,-0.06350054,4999,4999,0,0,1,1
207503776,207503648,3407890,3407890,-0.00016162723,0.000104684725,-0.00071393006,0.0056343493,0.0047594267,-0.05812022,5000,5000,0,0,1,1
208003776,208003648,3407890,3407890,0.0011355072,0.0005963428,-0.000808288,0.005139328,-0.0018624611,-0.051307958,5001,5001,0,0,1,1
208503780,208503647,3407890,3407890,-0.00036919882,-0.00068063434,-0.0002165031,0.010719088,0.0021015322,-0.053043094,4999,4999,0,0,1,1
209003773,209003648,3407890,3407890,0.00025421978,-0.00039304572,0.00036440557,0.0127572855,0.0047045723,-0.038205143,5000,5000,0,0,1,1
209503773,209503647,3407890,3407890,-0.00020043895,-0.0010657347,0.0012421053,-0.009543757,-0.0015774197,-0.044502176,5000,5000,0,0,1,1
210003774,210003647,3407890,3407890,0.00032910536,0.0006334461,0.0004558541,0.0024514087,-0.005618534,-0.05188112,4999,4999,0,0,1,1
210503783,210503648,3407890,3407890,0.00050979987,-0.0002126245,-9.5918294e-05,-0.010024084,0.009337503,-0.054008964,5000,5000,0,0,1,1
211503777,211503648,3407890,3407890,0.0005368006,0.0009460551,-7.718979e-05,-0.013068665,-0.016236445,-0.039551646,5000,5000,0,0,1,1
212003796,212003648,3407890,3407890,0.00021711188,0.00019544612,-0.00031484335,0.017857036,-0.009685236,-0.034136146,5000,5000,0,0,1,1
212503774,212503648,3407890,3407890,-0.00035918585,0.0017698882,0.00017403282,0.0035339638,-0.00074108597,-0.05209642,5000,5000,0,0,1,1
213003779,213003647,3407890,3407890,-0.0006349896,-0.00029883563,1.7230177e-05,-0.0006480238,0.0047191465,-0.052464273,4999,4999,0,0,1,1
213503776,213503648,3407890,3407890,-0.00050054776,-0.00049222406,0.00011061088,0.010568677,-0.0031090027,-0.05842812,5001,5001,0,0,1,1
214003777,214003648,3407890,3407890,8.543056e-05,-0.00029410646,0.00015124379,0.0015510041,-0.005160489,-0.052674636,5000,5000,0,0,1,1
214503773,214503648,3407890,3407890,3.570142e-05,-0.0007295868,-8.799054e-05,-0.0035140496,-0.0052417456,-0.043353938,5000,5000,0,0,1,1
215003779,215003647,3407890,3407890,-0.0008246693,-0.00020598967,-0.00016360763,0.011299843,-0.005709657,-0.052869786,4999,4999,0,0,1,1
215503775,215503647,3407890,3407890,0.00015540209,-0.0013602115,2.0331157e-05,-0.012518847,0.004845772,-0.0385563,4999,4999,0,0,1,1
216003778,216003648,3407890,3407890,0.00096059137,-0.0021502352,-0.0003615151,-0.008174946,-0.009029808,-0.05018398,5001,5001,0,0,1,1
216503776,216503647,3407890,3407890,-0.0003125263,-0.0003820665,4.879646e-06,-0.027624149,0.010958014,-0.06586523,4999,4999,0,0,1,1
217003774,217003648,3407890,3407890,0.0003317975,0.0014230224,0.00015794036,-0.042380985,0.0034479161,-0.031397853,5000,5000,0,0,1,1
217503775,217503648,3407890,3407890,0.00021804057,-0.00046659887,0.00032479924,-0.054789614,-0.0097909225,-0.058441423,5001,5001,0,0,1,1
218003785,218003648,3407890,3407890,0.00062248285,-0.0033087146,0.00031464495,-0.04227707,-0.0012939364,-0.052334584,5000,5000,0,0,1,1
218503776,218503647,3407890,3407890,-0.0002655537,0.0033977719,3.059036e-05,-0.018516658,-0.00044424506,-0.030842744,4999,4999,0,0,1,1
219003773,219003648,3407890,3407890,-0.0002462166,-0.0013216183,-0.00038235434,-0.004915094,0.004616304,-0.046607945,5000,5000,0,0,1,1
219503774,219503648,3407890,3407890,0.00033203245,-0.00044381566,0.00017298531,-0.004774692,0.004642701,-0.04176227,5000,5000,0,0,1,1
220003775,220003648,3407890,3407890,-0.00045628208,-0.00018620159,0.00014932288,-0.013013824,-0.0011148185,-0.044662468,5000,5000,0,0,1,1
221003776,221003648,3407890,3407890,-0.00039051578,-0.0002684852,0.00043627273,0.0061240257,0.0003730382,-0.03882138,5000,5000,0,0,1,1
221503775,221503647,3407890,3407890,-6.0244238e-05,-0.0005378577,0.000100732286,-0.018400192,0.012894333,-0.05409051,4999,4999,0,0,1,1
222003774,222003647,3407890,3407890,0.0006662715,-0.0002485982,0.00029566904,0.011382362,0.004482672,-0.04723104,4999,4999,0,0,1,1
222503774,222503648,3407890,3407890,2.542109e-05,0.0008630303,-0.0004342233,-0.005820545,-0.013798649,-0.050637197,5000,5000,0,0,1,1
223003773,223003647,3407890,3407890,-0.00025582642,0.00015795307,-6.0667146e-05,0.0098789325,-0.002109323,-0.040731046,4999,4999,0,0,1,1
223503778,223503650,3407890,3407890,0.00071025203,0.0001835544,0.000646652,-0.0139103085,0.0041391845,-0.05343336,5003,5003,0,0,1,1
224003775,224003648,3407890,3407890,-9.0063644e-05,-0.00011362615,-0.00038109606,0.010986645,0.015650408,-0.05143141,5000,5000,0,0,1,1
224503774,224503648,3407890,3407890,-0.0004993948,0.00016786564,-0.0005824482,-0.010686815,0.0024937287,-0.050971303,5000,5000,0,0,1,1
225003775,225003647,3407890,3407890,6.123743e-05,-0.00013171659,-9.705215e-05,0.008122872,-0.002029272,-0.049887452,4999,4999,0,0,1,1
226003777,226003648,3407890,3407890,0.00092868437,0.00012155902,0.00038781893,-0.00906788,-0.008042541,-0.0518907,5000,5000,0,0,1,1
226503775,226503647,3407890,3407890,-0.00033423738,0.0007743103,-4.9946186e-05,0.011927406,-0.0017710627,-0.04025638,4999,4999,0,0,1,1
227003777,227003648,3407890,3407890,-0.00020600358,0.00094354217,-0.00046685114,-0.0034142,-0.0019988376,-0.046235684,5000,5000,0,0,1,1
227503774,227503647,3407890,3407890,0.00027919374,0.0008808381,-0.00044622784,-0.010382049,-7.465179e-05,-0.04127196,4999,4999,0,0,1,1
228003774,228003647,3407890,3407890,0.00019220982,0.0006666142,0.0010342979,-0.003741929,-0.0018915128,-0.03165402,4999,4999,0,0,1,1
228503773,228503648,3407890,3407890,-0.0018012711,0.0006479979,0.00025372108,-0.010615491,0.0017885806,-0.029705323,5000,5000,0,0,1,1
229003777,229003648,3407890,3407890,0.0007448029,0.0012193529,-0.00056403887,0.0016966858,0.00035438567,-0.045385737,5000,5000,0,0,1,1
229503780,229503648,3407890,3407890,-0.00059314346,0.00059561816,0.00012448632,-0.006609347,-0.0056396998,-0.03261129,5001,5001,0,0,1,1
230003774,230003648,3407890,3407890,-0.00023866429,0.0004760147,-0.00020549123,-0.0031214787,2.0480918e-05,-0.044372704,5000,5000,0,0,1,1
230503773,230503647,3407890,3407890,-0.00060559623,0.00063347985,-0.00021842141,-0.0040169978,-0.0014377442,-0.052825246,4999,4999,0,0,1,1
231003773,231003648,3407890,3407890,0.00013746449,-0.00037501712,0.000114716764,-0.033248134,-0.0079046,-0.055775125,5000,5000,0,0,1,1
231503776,231503648,3407890,3407890,-0.00035692798,0.00073500763,0.000105559346,0.0060763294,0.00021692432,-0.044225547,5000,5000,0,0,1,1
232003775,232003647,3407890,3407890,-0.00025672413,0.00031421136,2.3178369e-05,0.004965501,-0.012980334,-0.043074556,5000,5000,0,0,1,1
232503778,232503648,3407890,3407890,-0.00024912754,-0.00044035926,0.00025190087,-0.011166535,-0.00074607105,-0.052885983,5000,5000,0,0,1,1
233003775,233003648,3407890,3407890,0.0012248378,-0.00042129686,-0.00021958232,0.006568881,-0.0038504957,-0.05374158,5000,5000,0,0,1,1
233503775,233503647,3407890,3407890,0.0002827914,0.000813285,-0.00060659327,-0.0009107982,-0.006417192,-0.047867563,4999,4999,0,0,1,1
235003773,235003647,3407890,3407890,-0.0005138029,-0.0022063726,-2.9366034e-05,-0.00076744345,0.012415415,-0.048087467,4999,4999,0,0,1,1
235503784,235503648,3407890,3407890,-0.0006974008,-0.00049794413,-8.733669e-05,0.007286985,0.005645362,-0.057830628,5000,5000,0,0,1,1
236003775,236003648,3407890,3407890,-9.099128e-05,-0.0014743322,0.00039899244,-0.0042449725,0.013801415,-0.061844267,5001,5001,0,0,1,1
236503774,236503647,3407890,3407890,-0.0001058858,-0.0014044094,-0.000828632,-0.0013342052,0.014524162,-0.057925534,4999,4999,0,0,1,1
237003780,237003647,3407890,3407890,-0.0005400684,-0.0019003478,1.0373995e-05,0.0050177188,-0.005028119,-0.049791086,4999,4999,0,0,1,1
237503774,237503648,3407890,3407890,-4.489018e-05,-6.267435e-05,0.0005052545,-0.005153099,0.0005801232,-0.034375515,5000,5000,0,0,1,1
238003774,238003648,3407890,3407890,-0.0006095102,-0.0002792435,0.00010552307,-0.0032347692,-0.0016995564,-0.04999213,5001,5001,0,0,1,1
238503775,238503647,3407890,3407890,-7.0057096e-05,-0.00022264959,8.008659e-05,-0.002483003,-0.009574636,-0.06251489,5000,5000,0,0,1,1
239003776,239003648,3407890,3407890,-0.0013629781,-0.0009424707,-0.0006255511,0.007124672,0.0064611286,-0.05893738,5000,5000,0,0,1,1
239503773,239503648,3407890,3407890,0.00012427288,0.00019811715,-0.0004279154,-0.00942547,0.011761513,-0.053875405,5000,5000,0,0,1,1
240003780,240003648,3407890,3407890,-0.001808232,-0.00055545795,-0.0002590968,0.00022798218,-0.008738852,-0.055571448,5001,5001,0,0,1,1
240503780,240503647,3407890,3407890,-0.0011056362,-4.7303678e-05,-1.1780727e-05,0.010513961,-0.009025096,-0.040541068,4999,4999,0,0,1,1
241003772,241003647,3407890,3407890,-0.0006003446,-0.00043874225,0.0001828765,-0.011045288,0.006584948,-0.05542585,4999,4999,0,0,1,1
241503774,241503648,3407890,3407890,-8.722871e-05,-2.0823669e-05,0.0002808313,0.004702978,0.009577114,-0.049350355,5000,5000,0,0,1,1
242003776,242003648,3407890,3407890,0.00013663275,-7.9267666e-05,4.7307796e-05,-0.010215232,0.0010742609,-0.044665463,5000,5000,0,0,1,1
243003779,243003648,3407890,3407890,-0.00011243759,0.00015971871,-0.00025328482,-0.00070849014,-0.00371015,-0.053457633,5001,5001,0,0,1,1
243503773,243503647,3407890,3407890,0.002069361,0.0010494989,0.00033744238,-0.0037753733,-0.0024090884,-0.057145126,4999,4999,0,0,1,1
244003776,244003648,3407890,3407890,0.0009398102,0.0004228869,0.00019927112,-0.007039973,0.0047208564,-0.06300374,5000,5000,0,0,1,1
244503775,244503648,3407890,3407890,0.0011823211,0.00012307033,-2.4600091e-05,-0.010060224,0.013548503,-0.047166567,5001,5001,0,0,1,1
245003775,245003648,3407890,3407890,0.00016364348,-5.2069503e-05,0.00015251558,-9.110533e-05,-0.0032422843,-0.04815626,5000,5000,0,0,1,1
246003778,246003648,3407890,3407890,-0.00053954683,0.00010596731,4.073299e-06,-0.008208661,-0.0025814783,-0.048163548,5000,5000,0,0,1,1
246503791,246503648,3407890,3407890,-3.9749262e-05,0.00024883967,-0.00026704025,-0.008774193,0.009933067,-0.05756277,5000,5000,0,0,1,1
247003775,247003647,3407890,3407890,-0.0037740264,-0.0018162387,-1.4791036e-06,0.00019682973,-0.0010824024,-0.050471023,4999,4999,0,0,1,1
248003776,248003648,3407890,3407890,-0.00050338847,6.277011e-05,-0.00024044803,0.013658447,-0.010306677,-0.042600315,5000,5000,0,0,1,1
248503773,248503648,3407890,3407890,0.000694032,-0.00026585683,0.00031558683,-0.006914301,-0.009604983,-0.044545412,5001,5001,0,0,1,1
249003774,249003648,3407890,3407890,3.5771325e-05,4.686422e-05,0.00027913036,0.0046689557,-0.0041206125,-0.047620874,5000,5000,0,0,1,1
249503776,249503647,3407890,3407890,0.00042340407,0.0002455737,-9.780349e-05,-0.002439291,0.0141757075,-0.046163432,4999,4999,0,0,1,1
250003775,250003648,3407890,3407890,0.0006130272,0.00030031567,0.00019516372,-0.0006565261,-0.0040121903,-0.055196956,5000,5000,0,0,1,1
250503776,250503648,3407890,3407890,0.0002045388,0.00012051482,-9.638378e-05,0.005687973,-0.005865668,-0.03822402,5001,5001,0,0,1,1
251003777,251003648,3407890,3407890,0.00025837705,-9.760335e-05,5.9585345e-05,0.00068270095,-0.0019024044,-0.03917337,4968,4968,0,0,1,1
251503782,251503648,3407890,3407890,-0.00023130115,-0.00021946766,-0.00019332614,-0.0033491116,0.0017868995,-0.04482403,5000,5000,0,0,1,1
252003778,252003648,3407890,3407890,-0.0003763772,-0.00023309095,0.00018445132,-0.004577867,0.0020038933,-0.037009332,5000,5000,0,0,1,1
252503777,252503647,3407890,3407890,5.2747804e-05,-7.2331146e-05,-9.208804e-05,0.008687706,-0.009980992,-0.056256864,4999,4999,0,0,1,1
253003774,253003648,3407890,3407890,0.0001533389,9.4816256e-05,4.0589224e-05,-0.0038194694,0.0066246716,-0.04872419,5000,5000,0,0,1,1
253503771,253503648,3407890,3407890,-0.0021418156,-1.3963964e-05,0.0002341039,0.019378847,-0.0012393155,-0.047928,5000,5000,0,0,1,1
254003775,254003648,3407890,3407890,-0.0009197678,-0.00039582368,0.00018810973,-0.008310726,-0.0007181175,-0.0620182,5000,5000,0,0,1,1
254503774,254503647,3407890,3407890,-0.00021182213,-0.00018377343,-0.00020489708,-0.009154305,0.006435135,-0.046972718,5000,5000,0,0,1,1
255003777,255003648,3407890,3407890,0.00080105907,0.00022542397,-0.00029871752,0.011520733,0.0072229845,-0.054742396,5000,5000,0,0,1,1
255503773,255503647,3407890,3407890,-0.00010747131,0.00073933334,-0.00015844533,0.021940082,0.0039645554,-0.031505477,5000,5000,0,0,1,1
256003774,256003647,3407890,3407890,-2.3659704e-05,-0.00039130813,-0.000115940566,-0.0012833673,0.009054062,-0.074939296,5000,5000,0,0,1,1
256503783,256503648,3407890,3407890,5.5768504e-07,-0.00030829269,0.00016393705,-0.031249065,0.0065024784,-0.069732614,5001,5001,0,0,1,1
257503775,257503648,3407890,3407890,-0.00016781161,1.4876706e-06,0.0001563047,0.00091390905,0.0023187557,-0.05515681,5000,5000,0,0,1,1
258003776,258003648,3407890,3407890,0.0006017365,0.0011004339,-5.4279775e-05,-0.003611088,0.015469225,-0.058016717,5000,5000,0,0,1,1
258503774,258503648,3407890,3407890,-0.00096939085,-0.00032584296,-0.00012998564,-0.011773812,-0.0038608487,-0.040892474,5000,5000,0,0,1,1
259003776,259003648,3407890,3407890,-0.0009183927,-7.9557714e-05,-6.3519605e-05,-0.000421362,0.00058596994,-0.043684978,5001,5001,0,0,1,1
259503782,259503647,3407890,3407890,8.435467e-05,-0.0005459197,0.0002028285,-0.014290905,-0.009262492,-0.042985924,5000,5000,0,0,1,1
260003774,260003647,3407890,3407890,-0.00012156369,-0.00050625973,6.0121387e-05,0.009844823,-0.008887993,-0.043471653,5000,5000,0,0,1,1
260503777,260503647,3407890,3407890,0.0003005206,0.00069283723,-0.00061814586,0.009247826,0.00074284984,-0.046712,4999,4999,0,0,1,1
261003782,261003647,3407890,3407890,5.1925173e-05,0.00060308597,0.00045349755,-0.007999158,0.015318492,-0.05903939,5000,5000,0,0,1,1
261503776,261503647,3407890,3407890,0.0007171362,-5.4321616e-05,0.00022324522,-0.0055854153,-0.0062492243,-0.043214403,5000,5000,0,0,1,1
262003774,262003647,3407890,3407890,0.000222935,-2.5437756e-05,2.5229176e-05,-0.011661452,-0.00232808,-0.058993522,4999,4999,0,0,1,1
262503773,262503647,3407890,3407890,-0.0007049323,-0.0002914094,0.00033293857,-0.0066626784,0.005370092,-0.057159893,5000,5000,0,0,1,1
263003774,263003648,3407890,3407890,4.0361323e-05,0.00073191716,0.0002593238,-0.0015720795,0.013572383,-0.04499255,5000,5000,0,0,1,1
263503774,263503648,3407890,3407890,-0.0009967634,0.00058885233,0.00013176588,0.0062493067,-0.00636622,-0.048345912,5000,5000,0,0,1,1
264003779,264003651,3407890,3407890,0.00044467495,-0.00020737662,-0.00036276985,-0.015762987,-0.009005247,-0.06210978,5003,5003,0,0,1,1
264503776,264503648,3407890,3407890,-0.0009886263,0.0007118919,-0.0007592619,-0.0034639626,0.0046296488,-0.05068606,5001,5001,0,0,1,1
265003774,265003647,3407890,3407890,-8.988813e-06,0.0005011846,0.00014003171,0.013179887,-0.0052744984,-0.054293994,4999,4999,0,0,1,1
265503775,265503647,3407890,3407890,-0.00077006023,0.0008363927,-2.3860666e-06,0.0077065597,0.0067695095,-0.047387052,4999,4999,0,0,1,1
266003774,266003647,3407890,3407890,3.795193e-05,0.00074446783,-0.00013765776,0.0029662822,-0.014666892,-0.044294752,4999,4999,0,0,1,1
266503773,266503647,3407890,3407890,4.277262e-05,0.00041917877,-9.1783644e-05,-0.0066033867,-0.0061123227,-0.025568055,5000,5000,0,0,1,1
267003777,267003647,3407890,3407890,-0.00012253225,4.5477518e-05,7.2962546e-05,0.011070122,0.002482014,-0.05105501,4999,4999,0,0,1,1
267503773,267503647,3407890,3407890,0.00013833345,-1.2454314e-05,0.00013308357,0.0052904114,0.0029025215,-0.03886663,4999,4999,0,0,1,1
268003774,268003647,3407890,3407890,9.6035394e-05,-0.00044243748,-0.00019914155,-0.009123942,0.005178695,-0.055990193,5000,5000,0,0,1,1
268503774,268503647,3407890,3407890,-0.00019059978,-0.00051098276,-0.00019109769,0.0010577625,0.0023742293,-0.059539236,5000,5000,0,0,1,1
269003773,269003648,3407890,3407890,-0.00065446703,0.0023783843,0.0016604664,-0.004465253,0.005507203,-0.046414763,5001,5001,0,0,1,1
269503777,269503648,3407890,3407890,-1.799344e-05,-0.0008503303,0.0043620295,-0.006454998,0.008461298,-0.04545892,5000,5000,0,0,1,1
270003777,270003648,3407890,3407890,-0.00021327249,-0.00016222132,0.004690397,0.013926967,0.005337021,-0.05137669,5000,5000,0,0,1,1
270503777,270503648,3407890,3407890,-0.00017851774,2.882406e-05,0.0052657924,-0.0089183105,-0.003430105,-0.04860793,5000,5000,0,0,1,1
271003776,271003648,3407890,3407890,-0.000103749815,-8.49019e-06,0.0054909275,-0.00013404674,-0.0068793325,-0.04955081,5000,5000,0,0,1,1
271503776,271503647,3407890,3407890,-0.00021766822,-0.00075117033,0.004932151,-0.009739965,-0.006447127,-0.040224295,4999,4999,0,0,1,1
272003778,272003648,3407890,3407890,-1.5658978e-06,-0.00022646596,0.0047292123,0.0003214354,0.00264447,-0.04058401,5000,5000,0,0,1,1
272503776,272503648,3407890,3407890,-0.00010478411,-0.0002957901,0.0046883095,0.010455723,0.0034537192,-0.05154448,5001,5001,0,0,1,1
273003776,273003648,3407890,3407890,-0.000113926326,-6.29176e-05,0.0049514254,-0.006107939,-0.0068063894,-0.057965554,5000,5000,0,0,1,1
274003776,274003648,3407890,3407890,0.00010791451,0.000100214515,0.0044830246,-0.012352476,-0.01573674,-0.05625431,5000,5000,0,0,1,1
274503784,274503648,3407890,3407890,8.792457e-05,-8.16346e-05,0.005151155,-0.0053486438,-0.006732649,-0.051739268,5000,5000,0,0,1,1
275003777,275003647,3407890,3407890,1.7423146e-05,0.00033252346,0.0052636405,0.013781582,0.0035577128,-0.055164263,4999,4999,0,0,1,1
275503778,275503648,3407890,3407890,-0.0006147795,0.00017479986,0.0047826967,0.0054117697,0.0013716999,-0.045077324,5000,5000,0,0,1,1
276003773,276003648,3407890,3407890,1.6934837e-05,-0.00018891992,0.004501136,-0.011220627,0.013777206,-0.053420395,5000,5000,0,0,1,1
276503776,276503647,3407890,3407890,-0.00011266493,-0.00057835755,0.0051855496,-0.003799964,-0.0022723384,-0.057331003,4999,4999,0,0,1,1
277003774,277003647,3407890,3407890,-2.353542e-05,-0.00018553996,0.0047487416,-0.005076409,0.0014276953,-0.046498984,5000,5000,0,0,1,1
277503775,277503648,3407890,3407890,0.00038985087,0.00035154235,0.0022886852,-0.010265555,-0.0024112563,-0.047288902,5000,5000,0,0,1,1
278003777,278003648,3407890,3407890,6.886726e-05,0.0003790409,-7.734717e-05,-0.011791842,0.0006835858,-0.051505215,5000,5000,0,0,1,1
278503775,278503648,3407890,3407890,0.0003630897,-0.0003426108,-0.00076697394,-0.008098313,0.0146797225,-0.053484045,5001,5001,0,0,1,1
279003781,279003648,3407890,3407890,-0.00017396966,-0.00013483898,-1.3010704e-05,0.010643793,0.0011297688,-0.033942323,5000,5000,0,0,1,1
279503778,279503648,3407890,3407890,0.0005653294,-2.2737088e-07,-0.0002762697,-0.019781081,0.0068993475,-0.047003143,5000,5000,0,0,1,1
280503779,280503648,3407890,3407890,0.00030751314,-0.00013783087,-0.00014304944,0.008550958,-0.0008414912,-0.034841083,5000,5000,0,0,1,1
281003775,281003648,3407890,3407890,-0.00019258243,-4.0984927e-05,0.00038211927,0.001314456,0.01186843,-0.051223412,5000,5000,0,0,1,1
281503774,281503648,3407890,3407890,-0.00025946644,0.00027523906,-0.00017628194,0.015943296,0.0043231626,-0.053765915,5001,5001,0,0,1,1
282003776,282003648,3407890,3407890,0.000256803,-0.00033921993,-9.3718256e-05,-0.016396405,-0.0032879435,-0.047614753,5000,5000,0,0,1,1
282503777,282503648,3407890,3407890,-0.00039741443,-0.00046007553,8.419453e-05,0.0011149799,0.0042304993,-0.057671215,5000,5000,0,0,1,1
283003776,283003648,3407890,3407890,0.00044318315,-0.00011326707,-9.7959484e-05,0.0059194546,0.0077796727,-0.06737534,5001,5001,0,0,1,1
284003776,284003648,3407890,3407890,0.0010339391,0.0009502686,-0.010646469,0.03333737,-0.01506546,-0.0750364,5000,5000,0,0,1,1
284503774,284503648,3407890,3407890,-1.9658044e-05,-0.0013538632,-0.0034320701,-0.011351324,-0.004170692,-0.026742121,5000,5000,0,0,1,1
285003777,285003647,3407890,3407890,0.00027817374,0.0008541785,-0.0009050411,-0.015099069,-0.008031259,-0.053570904,4999,4999,0,0,1,1
285503773,285503647,3407890,3407890,0.00052468554,-0.00026482134,0.00060333067,-0.009446935,0.030385604,-0.061516445,4999,4999,0,0,1,1
286003777,286003649,3407890,3407890,0.00011027379,-0.00036913587,0.00031836037,-0.0034446097,0.0024506429,-0.05336742,5001,5001,0,0,1,1
286503774,286503648,3407890,3407890,-0.00068573136,0.00034283745,0.0007761765,-0.004739992,0.015773876,-0.052303836,5000,5000,0,0,1,1
287003774,287003647,3407890,3407890,-0.00025109766,0.00028654598,2.5354959e-05,0.01088861,-0.006318501,-0.03904549,4999,4999,0,0,1,1
287503774,287503648,3407890,3407890,8.06994e-05,-0.00038294113,-0.00022574159,0.0016765919,-0.0082990425,-0.019806262,5000,5000,0,0,1,1
288003778,288003647,3407890,3407890,1.9023915e-05,-0.00022284662,-0.0003045549,0.010571603,0.008028324,-0.07553419,4999,4999,0,0,1,1
288503777,288503647,3407890,3407890,3.3383873e-05,0.00039253014,-0.00013178712,0.011408334,0.02233666,-0.053731248,4999,4999,0,0,1,1
289003774,289003648,3407890,3407890,-0.00032129296,6.577763e-05,-0.00029180042,-0.009059489,0.016622884,-0.040683355,5001,5001,0,0,1,1
289503776,289503648,3407890,3407890,-9.997781e-05,-0.0007657562,-4.8059075e-05,-0.01590152,0.012397069,-0.046610285,5000,5000,0,0,1,1
290003771,290003648,3407890,3407890,0.00060227694,0.0006630507,-8.211576e-05,-0.021726757,0.001193273,-0.04335988,5000,5000,0,0,1,1
290503775,290503648,3407890,3407890,-0.00037464174,-0.00028850167,-1.413347e-05,-0.010291973,0.00443625,-0.047291525,5000,5000,0,0,1,1
291003777,291003648,3407890,3407890,9.683884e-05,0.00035167107,-0.0003201504,0.009902832,0.009328604,-0.046453867,5000,5000,0,0,1,1
291503773,291503648,3407890,3407890,-1.9575655e-05,8.175899e-05,8.149965e-05,0.004605325,0.004941888,-0.05753824,5000,5000,0,0,1,1
292003773,292003647,3407890,3407890,-0.00014714386,0.0011316371,-0.00021558887,0.013541274,-0.0065105716,-0.0348205,4999,4999,0,0,1,1
292503781,292503647,3407890,3407890,0.0008211129,0.00042040384,0.00078501005,-0.009889989,0.002093491,-0.053277966,4999,4999,0,0,1,1
293003774,293003648,3407890,3407890,-0.0001906987,-0.00050748273,2.9373849e-05,-0.01331727,-0.0015074578,-0.051373575,5000,5000,0,0,1,1
293503775,293503647,3407890,3407890,-6.505114e-06,0.0005227333,-0.00075918954,-0.0008014624,-0.0016070567,-0.0636205,4999,4999,0,0,1,1
294003775,294003648,3407890,3407890,-8.980067e-05,-0.00056972745,0.0003431952,-0.012860234,0.0060318154,-0.044851176,5000,5000,0,0,1,1
294503775,294503647,3407890,3407890,-2.5797723e-05,-0.00062678906,-3.989323e-05,-0.0030544219,0.008169724,-0.043337815,4999,4999,0,0,1,1
295003781,295003647,3407890,3407890,3.550128e-05,-0.00052670675,-5.0805e-05,0.0048902896,0.0019552382,-0.052685812,5000,5000,0,0,1,1
295503779,295503652,3407890,3407890,-0.00026322037,7.917775e-05,-0.00014319042,-0.0009830047,-0.004026476,-0.038589075,5004,5004,0,0,1,1
296003799,296003648,3407890,3407890,-0.003920436,-2.7781416e-05,9.5652555e-05,-0.003272512,-0.0020595174,-0.03902071,5000,5000,0,0,1,1
297003773,297003647,3407890,3407890,0.0024212538,-0.0008506978,-0.00053551974,-0.007874037,0.011407665,-0.060279846,5000,5000,0,0,1,1
297503778,297503648,3407890,3407890,0.0009985449,0.0004652703,-0.00048501798,0.006646932,-0.00012632392,-0.010219485,5000,5000,0,0,1,1
298503776,298503647,3407890,3407890,-0.00039817952,-0.0012766767,0.00030409818,-0.030420227,0.013264605,-0.042006362,4999,4999,0,0,1,1
299003776,299003648,3407890,3407890,-0.0005144289,3.536522e-05,-3.0617382e-05,-0.014572175,-0.011950473,-0.03918499,5000,5000,0,0,1,1
299503775,299503648,3407890,3407890,-0.0003872203,0.0004408791,-0.00025664567,-0.011730204,0.029497117,-0.0657664,5000,5000,0,0,1,1
300003798,300003647,3407890,3407890,-1.3385769e-05,0.002053999,-0.00016249059,-0.023650227,0.00427115,-0.05742082,4999,4999,0,0,1,1
300503778,300503648,3407890,3407890,0.0003631808,0.0007970059,-0.00024710695,-0.0026780844,0.0058224634,-0.04655917,5000,5000,0,0,1,1
301003774,301003648,3407890,3407890,-8.887989e-05,-0.00022846687,0.00021599111,-0.015974907,0.0071275276,-0.04719478,5000,5000,0,0,1,1
301503775,301503648,3407890,3407890,-0.00070735835,-6.890153e-05,-6.668444e-05,-0.007086259,0.0175074,-0.048539042,5000,5000,0,0,1,1
302003773,302003648,3407890,3407890,0.00026897533,-0.0003408445,-7.1793394e-05,-0.011392998,0.0033731896,-0.045461405,5000,5000,0,0,1,1
302503775,302503648,3407890,3407890,0.00012572201,0.00026127737,0.00015885298,0.025262067,-0.0008584532,-0.051469386,5000,5000,0,0,1,1
303003775,303003648,3407890,3407890,-0.00034339013,9.184977e-05,-0.00015126687,-0.017139433,0.003954846,-0.03185506,5000,5000,0,0,1,1
303503776,303503647,3407890,3407890,-0.0009420644,0.0008636233,-0.00059221324,0.040286988,0.0037297078,-0.066243716,4999,4999,0,0,1,1
304003774,304003648,3407890,3407890,0.002499459,-0.0010096513,9.529067e-05,-0.02440946,-0.0034108518,-0.04852272,5000,5000,0,0,1,1
304503774,304503647,3407890,3407890,-0.0022326838,-0.00013420364,-0.000169881,-0.017358044,0.00064127584,-0.07700158,4999,4999,0,0,1,1
305003775,305003648,3407890,3407890,0.0014876763,-0.00030136234,3.5385438e-05,0.0011832913,-0.006234533,-0.033860885,5000,5000,0,0,1,1
305503774,305503648,3407890,3407890,0.00088274165,-0.00040316675,0.00014864247,-0.00764948,-0.007866295,-0.050227668,5000,5000,0,0,1,1
306003781,306003648,3407890,3407890,6.163383e-05,0.0003400005,-4.1345193e-05,0.0022692247,0.0019609134,-0.043917324,5000,5000,0,0,1,1
306503774,306503648,3407890,3407890,0.00026349386,-4.592752e-05,-0.0004402854,-0.029179227,0.0003342323,-0.046761878,5000,5000,0,0,1,1
307003775,307003647,3407890,3407890,-0.00041128098,0.00028491227,-0.00035060043,0.020534825,0.010084275,-0.04379526,5000,5000,0,0,1,1
307503775,307503648,3407890,3407890,0.0006581662,-0.00020113065,-7.768054e-06,-0.049323227,-0.017353244,-0.016292358,5000,5000,0,0,1,1
308003792,308003650,3407890,3407890,-0.0019685954,0.00037518574,5.3428234e-05,-0.013811839,-0.010482641,-0.03856522,5002,5002,0,0,1,1
308503792,308503647,3407890,3407890,0.0052252426,-0.0013692691,0.00095316686,-0.018014539,0.0022814968,-0.05040874,4999,4999,0,0,1,1
309003789,309003647,3407890,3407890,-0.0006924443,-0.0003385955,0.00051765837,0.0039468636,-0.0025863885,-0.05300292,5000,5000,0,0,1,1
309503789,309503648,3407890,3407890,-0.002639661,0.000440156,-5.322978e-05,-0.011292194,0.011236696,-0.067937724,5000,5000,0,0,1,1
310003789,310003648,3407890,3407890,-0.0018870512,0.0013365388,-1.9768146e-05,0.008819074,0.0019064893,-0.044282764,5000,5000,0,0,1,1
310503786,310503647,3407890,3407890,0.00014472633,8.661244e-05,-0.0002392162,0.014845606,-0.00034004057,-0.052296072,4999,4999,0,0,1,1
311003780,311003647,3407890,3407890,0.0002627604,5.5752877e-05,0.00014711029,-0.0042121927,-0.016072948,-0.036905427,4999,4999,0,0,1,1
311503791,311503648,3407890,3407890,0.00059287774,-7.32417e-05,0.00043735545,0.018008174,0.0059086955,-0.032605495,5000,5000,0,0,1,1
312003778,312003648,3407890,3407890,0.0019925758,-0.00069016294,0.0001731221,-0.003402702,-0.0060169934,-0.046964176,5000,5000,0,0,1,1
312503784,312503648,3407890,3407890,0.0027890175,-0.0012410932,0.00028203495,-0.012377669,-0.016639512,-0.044394087,5000,5000,0,0,1,1
313003778,313003648,3407890,3407890,0.0009929048,-0.00053637836,-0.00010302319,0.0025216988,0.006323349,-0.0708324,5001,5001,0,0,1,1
313503779,313503648,3407890,3407890,-0.00011270553,-2.2817494e-05,-7.367046e-05,0.00070467725,-0.00029428213,-0.03824475,5000,5000,0,0,1,1
314003777,314003647,3407890,3407890,0.0017932043,-0.0001526077,0.0001872958,0.0115419,0.004510609,-0.04039505,4999,4999,0,0,1,1
314503778,314503648,3407890,3407890,0.0006384329,-0.0006528723,8.202356e-05,-0.0040732156,1.3361424e-05,-0.058866967,5000,5000,0,0,1,1
315003779,315003648,3407890,3407890,0.0015496409,0.0005713009,-0.00022284217,0.011725809,-0.00087917066,-0.051922157,5001,5001,0,0,1,1
315503783,315503652,3407890,3407890,0.00037075413,-7.041345e-05,-0.0007124114,-0.011272063,0.0010360822,-0.054218646,5005,5005,0,0,1,1
316003776,316003647,3407890,3407890,0.001231784,-0.00072900456,0.0004865466,-0.007763855,0.0026173673,-0.047899675,4999,4999,0,0,1,1
316503778,316503648,3407890,3407890,-0.0015618936,0.00019053955,5.403933e-06,0.0043939007,0.004891602,-0.049856212,5000,5000,0,0,1,1
317003780,317003651,3407890,3407890,-0.00024310172,3.9533024e-05,-0.00017789949,0.009947896,-0.0060494626,-0.063568525,5003,5003,0,0,1,1
317503823,317503695,3407890,3407890,0.00043907057,0.00074724015,1.3392854e-05,0.0045854915,0.0072062644,-0.033792414,5047,5047,0,0,1,1
318003806,318003690,3407890,3407890,0.00015050787,-0.00011219315,3.1691925e-05,0.0068210824,0.0052982853,-0.05256023,5042,5042,0,0,1,1
318503813,318503685,3407890,3407890,-3.7880276e-05,0.00078344485,-0.00013619561,0.04503695,-0.004569443,-0.053065147,5037,5037,0,0,1,1
319003798,319003680,3407890,3407890,-0.00053791236,-0.0003432437,-0.00030652544,-0.003016762,0.006845797,-0.06426352,5032,5032,0,0,1,1
319503804,319503675,3407890,3407890,-0.0010501319,-0.00032535358,-9.5269104e-05,-0.0104050515,-0.007734135,-0.03608093,5027,5027,0,0,1,1
320003800,320003670,3407890,3407890,-0.00011123578,0.00064335926,0.0003520595,0.008835812,0.008374482,-0.05292507,5022,5022,0,0,1,1
320503796,320503665,3407890,3407890,0.0020798093,-0.00022164655,0.0006304543,-0.009154454,0.032635815,-0.044224534,5017,5017,0,0,1,1
321003792,321003660,3407890,3407890,-0.0008834048,0.0019903958,0.0010167422,0.014940354,-0.016206745,-0.029598208,5013,5013,0,0,1,1
321503785,321503656,3407890,3407890,0.00021740329,-0.00071286183,-0.0006746274,-0.044262614,0.001705848,-0.043899007,5009,5009,0,0,1,1
322003779,322003650,3407890,3407890,4.799858e-06,0.00040998278,-0.00029243916,-0.013297421,0.025131296,-0.047107466,5002,5002,0,0,1,1
322503783,322503648,3407890,3407890,-0.00031928005,-0.00038216004,-0.0005599102,-0.0027937626,-0.0009783313,-0.05446891,5000,5000,0,0,1,1
323003778,323003647,3407890,3407890,1.1714116e-05,0.00031757168,-0.00015587895,-0.00038872403,0.0019074286,-0.04833093,4999,4999,0,0,1,1
323503780,323503647,3407890,3407890,0.0006543661,-0.0006202584,1.9838726e-05,-0.013878224,-0.0041982206,-0.062392015,4999,4999,0,0,1,1
324003776,324003647,3407890,3407890,-0.00012892068,-0.00090446655,0.00046941979,-0.0068639554,0.0043630204,-0.040009532,4999,4999,0,0,1,1
324503773,324503647,3407890,3407890,9.4659394e-05,-0.0001685583,0.00022954198,-0.0027865835,-0.0072124847,-0.0355289,4999,4999,0,0,1,1
325003780,325003647,3407890,3407890,-0.00055834994,0.0005155768,-0.00041820516,0.0117638325,-0.0030103703,-0.0524889,4996,4996,0,0,1,1
325503777,325503647,3407890,3407890,6.7779656e-05,0.000101757854,-5.3452688e-05,-0.002623695,0.00780058,-0.050212163,4999,4999,0,0,1,1
326003784,326003647,3407890,3407890,-0.00022926029,-0.0028640076,1.1892821e-05,-0.0019983812,0.007562711,-0.047370095,4999,4999,0,0,1,1
326503779,326503647,3407890,3407890,0.0001991607,0.00011009791,-1.7210135e-05,-0.0087376805,0.0074757454,-0.045556217,4999,4999,0,0,1,1
327003785,327003647,3407890,3407890,-0.00021852083,7.919825e-05,9.819294e-05,-0.0016322399,0.0011962141,-0.04454481,5000,5000,0,0,1,1
327503777,327503648,3407890,3407890,0.0002814657,0.0002971096,8.1915416e-05,-0.0065426575,-0.0036253687,-0.056555666,5000,5000,0,0,1,1
328003780,328003648,3407890,3407890,-0.0002969671,-0.00041016328,-5.169874e-05,0.007476349,-0.0034636706,-0.04883762,5000,5000,0,0,1,1
328503778,328503647,3407890,3407890,8.6735985e-05,-4.9333794e-05,-7.657471e-05,0.002273619,-2.5767336e-06,-0.06032599,4999,4999,0,0,1,1
329003779,329003647,3407890,3407890,-0.00045949273,0.00014424241,-9.1633265e-05,-0.004777037,0.0010937606,-0.055392712,4964,4964,0,0,1,1
330003779,330003647,3407890,3407890,-0.002503003,0.0007248393,-0.00022712734,-0.011014652,-0.0077805268,-0.04435609,4999,4999,0,0,1,1
330503779,330503647,3407890,3407890,0.0038879572,-0.0012417753,-2.4574596e-05,-0.013411552,-0.0035163504,-0.045106992,4999,4999,0,0,1,1
331003777,331003647,3407890,3407890,-0.0012758749,-0.00078988465,-0.0003004589,0.0036887547,-0.010355499,-0.04494251,4998,4998,0,0,1,1
331503776,331503648,3407890,3407890,2.9104547e-05,-2.2026677e-06,0.00060617656,-0.0023545264,-0.0037168453,-0.060326427,5001,5001,0,0,1,1
332003777,332003648,3407890,3407890,-0.001439959,8.4905965e-05,-0.00024637106,-0.00797822,-0.0010446415,-0.06045032,5000,5000,0,0,1,1
332503774,332503647,3407890,3407890,0.00012024051,-7.989167e-05,-1.23527525e-05,0.008844245,0.011276056,-0.042962253,4999,4999,0,0,1,1
333003775,333003647,3407890,3407890,0.0018884277,-0.0015344407,-4.2551143e-05,-0.00049323466,0.00043545224,-0.052316662,4999,4999,0,0,1,1
333503777,333503647,3407890,3407890,-0.0014231654,0.00043780264,-7.393086e-05,-0.016300948,0.00016844344,-0.05895568,4999,4999,0,0,1,1
334003774,334003647,3407890,3407890,-7.526855e-05,-0.0005010007,0.0006914483,-0.00067934376,-0.00076754694,-0.04831016,5000,5000,0,0,1,1
334503773,334503647,3407890,3407890,-0.00018528257,-0.0010516788,0.00014067773,0.0011116359,0.01049369,-0.0430897,4999,4999,0,0,1,1
335003777,335003647,3407890,3407890,-0.0005310579,0.00090118725,1.1622807e-05,-0.009435318,0.008498418,-0.04354419,4999,4999,0,0,1,1
335503778,335503647,3407890,3407890,-0.00047186817,0.00040981732,-0.00029595543,0.0014411951,0.010819998,-0.04202013,5000,5000,0,0,1,1
336003777,336003647,3407890,3407890,-2.8992558e-06,0.0009324255,0.00062408944,-0.00814499,0.007926416,-0.037898213,4999,4999,0,0,1,1
336503780,336503650,3407890,3407890,-0.0003839553,-0.00023808333,0.0009875856,-0.0033406182,-0.005226158,-0.025577348,5002,5002,0,0,1,1
337003790,337003648,3407890,3407890,2.2152493e-05,-3.2776217e-05,0.0002009638,-0.017060038,0.011272725,-0.03495829,5000,5000,0,0,1,1
337503774,337503647,3407890,3407890,-0.00010567269,0.00018349184,-0.00015194733,-0.0068966243,0.008323566,-0.039189544,4999,4999,0,0,1,1
338003774,338003647,3407890,3407890,0.00087593315,-0.0013340418,0.0012678651,0.0022800379,-0.017390503,-0.040716577,4999,4999,0,0,1,1
338503777,338503647,3407890,3407890,-0.000118618875,0.0012466443,0.0005975428,0.00018315103,0.03534871,-0.06197333,4999,4999,0,0,1,1
339503780,339503647,3407890,3407890,7.761578e-05,-0.00049721345,-2.2544617e-05,-0.0047292705,0.00213776,-0.03866248,4999,4999,0,0,1,1
340003774,340003647,3407890,3407890,-4.9615992e-05,-0.00023263863,9.517664e-05,-0.0013900925,0.0017507507,-0.045016885,5000,5000,0,0,1,1
340503777,340503647,3407890,3407890,0.00013742397,9.053585e-05,-0.00018543811,-0.001802508,0.003477681,-0.047466855,4999,4999,0,0,1,1
341003777,341003648,3407890,3407890,-0.00020935858,-0.00030627556,-4.6887842e-05,-0.006362761,0.0032041543,-0.05687466,5000,5000,0,0,1,1
341503777,341503647,3407890,3407890,8.699475e-05,-7.1723356e-05,7.104082e-05,0.0027930092,0.010566942,-0.052631162,4999,4999,0,0,1,1
342003775,342003647,3407890,3407890,5.9111706e-05,-0.00011619439,1.1068015e-05,0.00080847973,0.0032841202,-0.060780667,4999,4999,0,0,1,1
342503779,342503647,3407890,3407890,2.1172747e-05,-6.784985e-05,1.2366717e-05,-0.0011843829,0.0031515583,-0.056452233,4999,4999,0,0,1,1
343003796,343003648,3407890,3407890,8.68537e-06,-0.00030418887,6.3992197e-06,-0.0023316632,0.007868666,-0.05657877,5000,5000,0,0,1,1
343503814,343503647,3407890,3407890,-0.00010583588,-6.855341e-05,-2.2563794e-05,-0.0018066358,-0.0002536385,-0.03393222,5000,5000,0,0,1,1
344003797,344003648,3407890,3407890,0.00033084373,0.0004747904,-0.00015368772,-0.011099424,-0.0042269216,-0.05614123,5000,5000,0,0,1,1
344503799,344503648,3407890,3407890,0.00017501455,-0.00026317348,-1.6627357e-05,-0.014706761,-0.009195537,-0.056285664,5000,5000,0,0,1,1
345003795,345003647,3407890,3407890,-0.00018461632,7.952217e-05,-1.1972906e-05,0.01179919,0.01923198,-0.057071418,4999,4999,0,0,1,1
345503796,345503648,3407890,3407890,-0.00022503105,-0.00019990995,-6.4076456e-05,-0.0108515285,-0.01396198,-0.047314353,5000,5000,0,0,1,1
346003809,346003647,3407890,3407890,3.5167835e-05,-0.00022074065,0.00022233783,-0.011958846,-0.0012196836,-0.062434647,5000,5000,0,0,1,1
346503796,346503647,3407890,3407890,-0.00014699444,-0.0001334032,-8.852738e-05,-0.00455982,0.0037315032,-0.05851103,4999,4999,0,0,1,1
347003796,347003647,3407890,3407890,8.1285885e-05,-4.2531257e-05,8.380811e-05,-0.004682584,-0.0036003275,-0.054339018,4999,4999,0,0,1,1
347503794,347503647,3407890,3407890,-3.7250913e-05,0.00033856835,3.889555e-05,-0.00014351793,-0.00134471,-0.052022576,4999,4999,0,0,1,1
348003789,348003648,3407890,3407890,0.00012427462,-0.00039407623,0.0002583551,-0.0007983775,-0.0016267076,-0.0580159,5000,5000,0,0,1,1
348503786,348503647,3407890,3407890,-0.000119247,-1.1276983e-05,-1.03987395e-05,0.003380131,0.0020751962,-0.03475544,4999,4999,0,0,1,1
349003795,349003647,3407890,3407890,-3.944324e-05,3.783471e-05,0.00017711542,-0.0045140507,0.0013188567,-0.056942955,4999,4999,0,0,1,1
349503785,349503648,3407890,3407890,-1.9978615e-05,5.139699e-06,7.703024e-05,0.00063089415,-0.007518942,-0.0454628,5000,5000,0,0,1,1
350003783,350003648,3407890,3407890,9.7289114e-05,-0.00026127938,0.00014421913,0.0020261097,-0.0028343818,-0.05725702,5001,5001,0,0,1,1
350503780,350503647,3407890,3407890,-0.00010212163,4.4309403e-05,-8.328076e-06,0.00024105108,0.00039634664,-0.05151423,4999,4999,0,0,1,1
351003779,351003647,3407890,3407890,-7.456897e-05,-0.00023775235,3.7912207e-05,0.0018198452,0.0056086658,-0.047250886,4999,4999,0,0,1,1
351503778,351503650,3407890,3407890,3.11601e-05,6.4741515e-05,2.6503349e-05,-0.0019731806,0.0018691038,-0.063511185,5002,5002,0,0,1,1
352003776,352003648,3407890,3407890,-7.2945026e-05,-5.365698e-05,4.5832025e-05,0.0012660581,0.003977964,-0.048164748,5001,5001,0,0,1,1
352503774,352503647,3407890,3407890,-7.524772e-05,0.000110023044,-2.9248105e-05,0.00513307,0.0008656739,-0.04116414,4999,4999,0,0,1,1
353003771,353003647,3407890,3407890,6.483073e-05,-6.178115e-05,2.694971e-06,0.0011767354,0.0010207337,-0.051942136,4999,4999,0,0,1,1
353503777,353503647,3407890,3407890,-7.936131e-06,-1.8348182e-05,5.5892826e-05,-0.00096623733,0.0038086954,-0.048578426,4999,4999,0,0,1,1
354003776,354003648,3407890,3407890,4.491368e-05,9.125039e-05,8.250688e-05,0.0020196203,0.00066849653,-0.04655043,5000,5000,0,0,1,1
354503797,354503648,3407890,3407890,2.9528816e-05,5.2756946e-05,-4.46827e-05,-0.00034020524,0.0018884729,-0.048488602,5000,5000,0,0,1,1
355003778,355003647,3407890,3407890,-1.15083885e-05,1.4352705e-05,-2.8715593e-05,-1.7285778e-05,0.0018631421,-0.04889285,4999,4999,0,0,1,1
355503780,355503648,3407890,3407890,-1.370003e-05,-3.2879278e-05,1.8783532e-05,7.99123e-05,0.0019596033,-0.04883892,5000,5000,0,0,1,1
356003778,356003648,3407890,3407890,-1.3994146e-05,-2.360139e-05,2.9825574e-06,-2.3445138e-05,0.0018946806,-0.048895836,5000,5000,0,0,1,1
356503777,356503650,3407890,3407890,-6.447181e-06,-2.006301e-05,4.1549424e-06,1.7713079e-05,0.0019603304,-0.048844963,5002,5002,0,0,1,1
357003778,357003648,3407890,3407890,-1.0142136e-05,-2.0211226e-05,3.895953e-06,7.0512564e-05,0.0020254746,-0.048917178,5000,5000,0,0,1,1
357503780,357503648,3407890,3407890,-1.5917252e-05,-1.824266e-05,1.09664325e-05,-1.2702764e-05,0.0019212808,-0.048941243,5000,5000,0,0,1,1
358003783,358003647,3407890,3407890,-1.0383334e-05,-2.1173964e-05,7.2246894e-06,-2.9281871e-05,0.0019405842,-0.04881509,5000,5000,0,0,1,1
359003773,359003648,3407890,3407890,-1.8411823e-05,-1.9003257e-05,1.6657652e-06,6.1027724e-05,0.0019177301,-0.048945084,5000,5000,0,0,1,1
359503780,359503648,3407890,3407890,-7.5155226e-06,-1.9211859e-05,-4.3372737e-07,6.132625e-05,0.0019289787,-0.04894727,4999,4999,0,0,1,1
360003778,360003648,3407890,3407890,-1.054103e-05,-1.6763315e-05,3.1234767e-06,-4.7392678e-06,0.0019691603,-0.048884995,5000,5000,0,0,1,1
