timestamp,timestamp_sample,device_id,magnetometer_ga[0],magnetometer_ga[1],magnetometer_ga[2],calibration_count
199985177,199971029,466953,-0.09666659,0.083044216,0.49538082,3
200232187,200185534,466953,-0.09606602,0.08351343,0.49399,3
200271187,200257028,466953,-0.09547275,0.085253164,0.49288684,3
200375195,200328533,466953,-0.09712534,0.087669276,0.49383715,3
200414204,200400030,466953,-0.09610428,0.08548042,0.4932286,3
200518179,200471530,466953,-0.09649291,0.086724415,0.49399742,3
200557190,200543039,466953,-0.096379384,0.086431846,0.49369258,3
200661186,200614529,466953,-0.09669777,0.0867492,0.49350873,3
200700193,200686033,466953,-0.094746195,0.08531955,0.49440572,3
200804213,200757533,466953,-0.09655633,0.085726306,0.49335936,3
200843209,200829029,466953,-0.09697591,0.08785017,0.49341282,3
200947190,200900531,466953,-0.09502702,0.08517342,0.49441192,3
200986190,200972028,466953,-0.09632771,0.08565267,0.49409255,3
201090189,201043531,466953,-0.09682131,0.087585084,0.49359545,3
201129203,201115029,466953,-0.09506994,0.08632811,0.49400192,3
201233191,201186528,466953,-0.095652625,0.08497724,0.49407083,3
201272182,201258029,466953,-0.09750715,0.08621858,0.49317116,3
201376188,201329530,466953,-0.09629391,0.086920165,0.49328044,3
201415176,201401029,466953,-0.09484124,0.0856484,0.49366438,3
201519185,201472534,466953,-0.09672446,0.08594083,0.49400634,3
201558179,201544027,466953,-0.09723905,0.0868034,0.49355492,3
201662180,201615531,466953,-0.09498682,0.08659383,0.49408558,3
201701188,201687027,466953,-0.096912324,0.08560653,0.49443787,3
201805188,201758529,466953,-0.09675781,0.085572556,0.49347433,3
201844203,201830035,466953,-0.097292624,0.087678134,0.492807,3
201948181,201901529,466953,-0.09604348,0.08751331,0.49346906,3
201987184,201973029,466953,-0.095294446,0.086281836,0.49417505,3
202091187,202044528,466953,-0.09531379,0.08512287,0.4945091,3
202130186,202116036,466953,-0.09668463,0.085197076,0.4943137,3
202234181,202187529,466953,-0.097128004,0.08747847,0.49276668,3
202273204,202259029,466953,-0.09575951,0.087846,0.4931137,3
202377183,202330531,466953,-0.09559526,0.0865134,0.49401945,3
202416183,202402028,466953,-0.0948382,0.08554886,0.49431583,3
202520186,202473675,466953,-0.096043624,0.08545393,0.4943561,3
202559181,202545029,466953,-0.096638076,0.084880434,0.4941444,3
202663197,202616531,466953,-0.09710562,0.08675893,0.4929708,3
202702185,202688029,466953,-0.09738411,0.087994516,0.49301943,3
202806183,202759533,466953,-0.09577002,0.08710123,0.49352387,3
202845191,202831030,466953,-0.09506687,0.08596172,0.4941799,3
202949206,202902531,466953,-0.09534627,0.0850017,0.49465677,3
202988191,202974163,466953,-0.09705152,0.085887894,0.49387038,3
203092187,203045529,466953,-0.09707405,0.08713336,0.4930312,3
203131183,203117028,466953,-0.09747474,0.08777434,0.49250174,3
203235188,203188531,466953,-0.09546177,0.08658545,0.49366143,3
203274205,203260029,466953,-0.095117494,0.08687064,0.49429846,3
203378176,203331528,466953,-0.095549844,0.08503868,0.49454182,3
203417185,203403036,466953,-0.096370205,0.0850214,0.49366683,3
203521184,203474528,466953,-0.097481586,0.087242104,0.49275213,3
203560192,203546030,466953,-0.09704511,0.084798336,0.49366722,3
203664203,203617531,466953,-0.09585039,0.086253464,0.49314398,3
203703195,203689028,466953,-0.096562,0.086485356,0.49317116,3
203807176,203760528,466953,-0.095969826,0.08642473,0.49315768,3
203846189,203832027,466953,-0.09597852,0.086535454,0.49252242,3
203950190,203903531,466953,-0.09580087,0.08627401,0.49285132,3
203989181,203975029,466953,-0.09561083,0.085530564,0.49262285,3
204093180,204046532,466953,-0.09582067,0.08645097,0.49237767,3
204132183,204118029,466953,-0.09539168,0.08617364,0.49205214,3
204236185,204189530,466953,-0.09601108,0.08701782,0.4921912,3
204275187,204261030,466953,-0.09535354,0.08717584,0.49195313,3
204379180,204332528,466953,-0.09613172,0.08699317,0.49152464,3
204418175,204404027,466953,-0.0957592,0.08722236,0.49208117,3
204522180,204475532,466953,-0.09615607,0.087686226,0.4907357,3
204561185,204547027,466953,-0.09649737,0.088886164,0.49049747,3
204665189,204618529,466953,-0.096443556,0.08753814,0.49046016,3
204704199,204690036,466953,-0.09496005,0.0877943,0.48969287,3
204808192,204761528,466953,-0.09686121,0.088732615,0.48937106,3
204847182,204833029,466953,-0.09595591,0.08768079,0.48843372,3
204951189,204904528,466953,-0.096718565,0.08934854,0.4878685,3
204990189,204976036,466953,-0.09488615,0.08865094,0.48677826,3
205094206,205047529,466953,-0.09599993,0.08942335,0.48569193,3
205133192,205119028,466953,-0.09620603,0.08932465,0.4846413,3
205237182,205190531,466953,-0.09541374,0.08953924,0.4843597,3
205276184,205262027,466953,-0.09726711,0.09172732,0.48239708,3
205380207,205333532,466953,-0.097867794,0.09334914,0.48134542,3
205419179,205405435,466953,-0.097498104,0.09746339,0.47885737,3
205523206,205476531,466953,-0.09882497,0.10698418,0.47528845,3
205562177,205548029,466953,-0.09993075,0.120643616,0.47179896,3
205666183,205619528,466953,-0.103247605,0.12791859,0.46872225,3
205705193,205691029,466953,-0.10796853,0.12716286,0.46800527,3
205809204,205762531,466953,-0.10920079,0.12525111,0.46823055,3
205848180,205834027,466953,-0.10788773,0.1164314,0.47082627,3
205952188,205905587,466953,-0.10411835,0.108631,0.47339633,3
205991187,205977028,466953,-0.098129354,0.1023823,0.47536975,3
206095180,206048531,466953,-0.09450162,0.10024509,0.4755824,3
206134180,206120029,466953,-0.093562186,0.10057335,0.47566837,3
206238176,206191528,466953,-0.088686995,0.098871894,0.47716412,3
206277176,206263035,466953,-0.084693,0.097116105,0.47803974,3
206524201,206477531,466953,-0.0800778,0.08946757,0.4794405,3
206667176,206620529,466953,-0.08530697,0.09292677,0.4798668,3
206706184,206692035,466953,-0.08399822,0.09495759,0.47919604,3
206810186,206763531,466953,-0.08159663,0.09654701,0.47910348,3
206849209,206835029,466953,-0.07836883,0.0965017,0.48006356,3
206953197,206906528,466953,-0.0765601,0.099366255,0.47889107,3
206992180,206978030,466953,-0.07914536,0.10372417,0.47797722,3
207096189,207049531,466953,-0.08134423,0.10351294,0.47740862,3
207135187,207121029,466953,-0.08306238,0.10270631,0.47775933,3
207239179,207192529,466953,-0.08389932,0.10371922,0.47728327,3
207278179,207264027,466953,-0.08347183,0.10325521,0.4777511,3
207382182,207335532,466953,-0.084534466,0.10301393,0.47803748,3
207421183,207407027,466953,-0.08757198,0.10255946,0.47735518,3
207525187,207478528,466953,-0.089273326,0.101216555,0.4782545,3
207564206,207550032,466953,-0.091259405,0.10134785,0.47792077,3
207668192,207621528,466953,-0.091380835,0.10251835,0.4776457,3
207707177,207693030,466953,-0.09082496,0.10398139,0.47814965,3
207811198,207764529,466953,-0.09127555,0.10903408,0.4765249,3
207850189,207836035,466953,-0.09332883,0.112819694,0.47517025,3
207954210,207907529,466953,-0.09279927,0.11383725,0.47538707,3
207993181,207979036,466953,-0.09413268,0.11771262,0.47376293,3
208097186,208050531,466953,-0.09942239,0.12396107,0.47188953,3
208136190,208122028,466953,-0.10072878,0.1254274,0.47178006,3
208240197,208193529,466953,-0.100454964,0.12187847,0.4724644,3
208279181,208265029,466953,-0.09946151,0.11866471,0.47325557,3
208383184,208336530,466953,-0.09696373,0.1164245,0.47408864,3
208422176,208408029,466953,-0.09500941,0.11451834,0.47488317,3
208526183,208479529,466953,-0.094252944,0.11562128,0.47410816,3
208565187,208551030,466953,-0.09085431,0.11384547,0.47551298,3
208669185,208622532,466953,-0.08267187,0.11249951,0.4772923,3
208708190,208694027,466953,-0.07653342,0.11143513,0.47858414,3
208812182,208765529,466953,-0.067729756,0.10784315,0.48128754,3
208851193,208837028,466953,-0.059722833,0.10772979,0.4819836,3
208955188,208908531,466953,-0.05441475,0.107797295,0.48326924,3
208994203,208980028,466953,-0.0489896,0.10827725,0.48340154,3
209098178,209051528,466953,-0.045902137,0.10924286,0.4832487,3
209137176,209123035,466953,-0.04092416,0.10953482,0.48406452,3
209241182,209194528,466953,-0.038468562,0.11041766,0.4836016,3
209280187,209266030,466953,-0.038378827,0.11267303,0.48290747,3
209384202,209337531,466953,-0.040221073,0.11352723,0.48159,3
209423202,209409028,466953,-0.040877014,0.114842445,0.48183143,3
209527181,209480529,466953,-0.036060467,0.11373034,0.4822198,3
209566201,209552027,466953,-0.028961517,0.11339124,0.48236817,3
209670185,209623531,466953,-0.017703341,0.11272354,0.48335338,3
209709195,209695031,466953,-0.0060203914,0.114923224,0.48234308,3
209813192,209766528,466953,0.0019560233,0.11584386,0.48271728,3
209852184,209838029,466953,0.0069726985,0.114192486,0.482918,3
209956187,209909531,466953,0.0049294163,0.113957256,0.48323882,3
209995180,209981029,466953,0.0003164002,0.11266401,0.48486418,3
210099183,210052529,466953,-0.005580592,0.11502542,0.48257092,3
210138184,210124028,466953,-0.00945076,0.11584681,0.48305643,3
210242184,210195531,466953,-0.01333732,0.11901279,0.4817302,3
210281184,210267028,466953,-0.014993859,0.12158726,0.48188198,3
210385190,210338529,466953,-0.013693364,0.11978544,0.48285714,3
210424198,210410035,466953,-0.013121586,0.118247114,0.48232016,3
210528176,210481528,466953,-0.011733552,0.11991188,0.4826349,3
210567180,210553029,466953,-0.01402682,0.1246916,0.4806332,3
210671183,210624529,466953,-0.015961044,0.13083959,0.47908705,3
210710186,210696035,466953,-0.019265274,0.13747315,0.47677156,3
210814181,210767528,466953,-0.019223861,0.13939807,0.47614098,3
210853195,210839028,466953,-0.021806916,0.1384366,0.47397655,3
210957185,210910531,466953,-0.027877312,0.13624644,0.47619843,3
210996188,210982028,466953,-0.033674777,0.12924843,0.47968388,3
211243213,211196530,466953,-0.038692474,0.12377632,0.47873724,3
211282175,211268028,466953,-0.037986618,0.12570475,0.47793555,3
211387419,211339681,466953,-0.04007583,0.1253171,0.4777542,3
211425187,211411029,466953,-0.044260018,0.12536529,0.47575045,3
211529203,211482531,466953,-0.053339995,0.12963203,0.47422427,3
211568191,211554027,466953,-0.06027521,0.13241246,0.47391614,3
211672190,211625529,466953,-0.06297791,0.12964347,0.4743203,3
211711183,211697028,466953,-0.06776142,0.12697189,0.476168,3
211815187,211768531,466953,-0.07052157,0.12483778,0.47895357,3
211854208,211840029,466953,-0.071729675,0.122750565,0.4808445,3
211958177,211911587,466953,-0.07062549,0.119617924,0.48277283,3
211997180,211983035,466953,-0.06973346,0.11653512,0.48534998,3
212101186,212054528,466953,-0.07108595,0.11593168,0.48432866,3
212140188,212126030,466953,-0.07217386,0.11501381,0.48111242,3
212244210,212197531,466953,-0.07363424,0.11773278,0.47968102,3
212283175,212269027,466953,-0.07551085,0.11972888,0.47718436,3
212387182,212340529,466953,-0.07904282,0.12002851,0.47519597,3
212426185,212412027,466953,-0.083504245,0.119201005,0.47287154,3
212530187,212483532,466953,-0.0929044,0.120263755,0.4720559,3
212569181,212555031,466953,-0.10528662,0.12006563,0.47347778,3
212673175,212626528,466953,-0.1176756,0.11835449,0.46879032,3
212816185,212769530,466953,-0.14603838,0.118527636,0.45815542,3
212855188,212841029,466953,-0.15524374,0.11715436,0.4569102,3
212998180,212984028,466953,-0.15963636,0.11357846,0.45767602,3
213141182,213127028,466953,-0.1536999,0.1097908,0.45895764,3
213245194,213198529,466953,-0.15251079,0.10881629,0.4602364,3
213284204,213270035,466953,-0.14913517,0.108568475,0.45963907,3
213388194,213341528,466953,-0.14394125,0.107746445,0.46201906,3
213427178,213413030,466953,-0.13890205,0.10550808,0.4657815,3
213531183,213484528,466953,-0.13237141,0.10681485,0.46606997,3
213570187,213556036,466953,-0.12721133,0.10507863,0.468342,3
213674202,213627529,466953,-0.12352173,0.10504282,0.4692115,3
213713196,213699027,466953,-0.12094738,0.10567345,0.46839994,3
213817189,213770532,466953,-0.12057925,0.10718264,0.46851254,3
213856200,213842027,466953,-0.12019851,0.108753815,0.4691012,3
213960188,213913529,466953,-0.116866864,0.11111252,0.46886688,3
213999185,213985029,466953,-0.11508565,0.11272946,0.46872303,3
214103203,214056530,466953,-0.11119464,0.11305886,0.46983793,3
214142180,214128030,466953,-0.108189136,0.11416051,0.47063673,3
214246189,214199528,466953,-0.105351925,0.112722605,0.4717157,3
214285188,214271029,466953,-0.10217675,0.11255649,0.47193485,3
214389193,214342531,466953,-0.09660344,0.11053346,0.47417933,3
214428195,214414034,466953,-0.09150367,0.10966474,0.47538924,3
214532183,214485529,466953,-0.08529952,0.1082202,0.47701114,3
214571183,214557027,466953,-0.07931428,0.10775544,0.47601932,3
214675177,214628531,466953,-0.07524039,0.10911169,0.4781245,3
214714181,214700029,466953,-0.0689071,0.111098126,0.4796121,3
214818175,214771528,466953,-0.06499032,0.11144431,0.4785542,3
214857177,214843035,466953,-0.06337327,0.112305894,0.47840285,3
214961183,214914528,466953,-0.065103956,0.112988174,0.4779982,3
215000198,214986029,466953,-0.06725216,0.11286835,0.47911915,3
215104200,215057532,466953,-0.06651356,0.10717267,0.47973973,3
215143204,215129027,466953,-0.06886613,0.10459664,0.4791295,3
215247181,215200529,466953,-0.07218276,0.100645855,0.4806136,3
215286184,215272028,466953,-0.075439185,0.09684287,0.4803297,3
215390193,215343531,466953,-0.07631802,0.09591883,0.47878847,3
215429194,215415029,466953,-0.07578643,0.10166858,0.48035523,3
215533192,215486528,466953,-0.06718282,0.106501944,0.48047715,3
215572176,215558030,466953,-0.05723646,0.10657986,0.48165983,3
215676185,215629530,466953,-0.052316688,0.10865502,0.4805514,3
215715188,215701029,466953,-0.050292205,0.112605,0.48022234,3
215819180,215772529,466953,-0.049550842,0.11268979,0.48119372,3
215858178,215844027,466953,-0.04968956,0.10442733,0.48236328,3
215962183,215915531,466953,-0.048206136,0.099916376,0.48379534,3
216001187,215987027,466953,-0.039708164,0.096723035,0.4853115,3
216105188,216058530,466953,-0.026426138,0.10254835,0.48419678,3
216144213,216130031,466953,-0.0153379105,0.111769736,0.48113582,3
216248196,216201528,466953,-0.013315488,0.11771156,0.48073858,3
216287184,216273029,466953,-0.008674122,0.120588124,0.48200333,3
216391188,216344529,466953,-0.00076237257,0.11501391,0.48231167,3
216430186,216416036,466953,0.001709704,0.11195926,0.48236376,3
216534182,216487529,466953,0.003584837,0.107816905,0.4836842,3
216573176,216559028,466953,0.0034221923,0.10543587,0.48271084,3
216677183,216630531,466953,0.0027567823,0.10507704,0.4835203,3
216716184,216702029,466953,-0.0014079501,0.10681999,0.48371696,3
216820186,216773529,466953,-0.012398165,0.10971045,0.48139387,3
216859186,216845029,466953,-0.027044617,0.10947438,0.4816433,3
216963185,216916531,466953,-0.044482447,0.11222184,0.47916928,3
217002185,216988029,466953,-0.05752417,0.11400204,0.4779689,3
217106183,217059528,466953,-0.06638536,0.11429314,0.47672588,3
217145194,217131030,466953,-0.07101651,0.11448054,0.47605166,3
217249188,217202531,466953,-0.070366174,0.112617604,0.4763751,3
217288193,217274028,466953,-0.06877784,0.11045128,0.47680312,3
217392187,217345681,466953,-0.06771536,0.11107112,0.4771513,3
217431183,217417028,466953,-0.068364926,0.10997926,0.47789407,3
217535187,217488531,466953,-0.066151746,0.10757267,0.47767162,3
217574200,217560029,466953,-0.06015184,0.10910289,0.4781072,3
217678182,217631529,466953,-0.043932475,0.10904364,0.48051107,3
217717185,217703036,466953,-0.019984353,0.111140095,0.4794368,3
217821182,217774529,466953,0.009195611,0.11112718,0.4795504,3
217860190,217846031,466953,0.03780753,0.11272888,0.47827655,3
217964206,217917590,466953,0.06728117,0.114519514,0.47254413,3
218003202,217989027,466953,0.09349607,0.12077069,0.46840286,3
218107176,218060528,466953,0.11014859,0.12356402,0.46645445,3
218146180,218132027,466953,0.1180595,0.12029457,0.4645073,3
218250192,218203531,466953,0.10823257,0.117582045,0.46813118,3
218289203,218275029,466953,0.092573576,0.11275305,0.47300717,3
218393195,218346528,466953,0.0707413,0.109589875,0.4758522,3
218432181,218418030,466953,0.0516728,0.11007109,0.4796153,3
218536185,218489530,466953,0.029112354,0.11031319,0.48211747,3
218575176,218561030,466953,0.0039005016,0.107895546,0.48229188,3
218679181,218632528,466953,-0.022098282,0.10677646,0.48230645,3
218718175,218704028,466953,-0.048013236,0.10841434,0.4793721,3
218822180,218775530,466953,-0.06684251,0.10969497,0.47754532,3
218861184,218847028,466953,-0.07767418,0.11251219,0.47683296,3
218965188,218918533,466953,-0.07628872,0.10928513,0.4784437,3
219004199,218990036,466953,-0.07109523,0.10801437,0.4799028,3
219108176,219061528,466953,-0.063269675,0.10700195,0.48332927,3
219147180,219133028,466953,-0.053961094,0.10321226,0.48349032,3
219251188,219204528,466953,-0.051088236,0.104798056,0.48125386,3
219290194,219276036,466953,-0.049346097,0.10617493,0.48078236,3
219394185,219347529,466953,-0.045304835,0.10959559,0.48075944,3
219433190,219419028,466953,-0.040182546,0.1124182,0.48242745,3
219537209,219490531,466953,-0.037965022,0.114747204,0.48111138,3
219576184,219562028,466953,-0.033529185,0.11484625,0.48129368,3
219680187,219633529,466953,-0.031234514,0.11423433,0.48037744,3
219719180,219705029,466953,-0.032039646,0.113897465,0.48001036,3
219823202,219776531,466953,-0.03254646,0.11371834,0.4813545,3
219862193,219848029,466953,-0.033110328,0.113330744,0.48213762,3
219966202,219919528,466953,-0.027325276,0.110078014,0.48304358,3
220005176,219991029,466953,-0.022995323,0.104608685,0.48280165,3
220109181,220062531,466953,-0.023430392,0.10361179,0.48225984,3
220148195,220134028,466953,-0.02630214,0.10610588,0.481341,3
220252190,220205532,466953,-0.029671574,0.108011395,0.480444,3
220291207,220277028,466953,-0.03486354,0.11132257,0.47998905,3
220395192,220348531,466953,-0.04180633,0.11399865,0.47896153,3
220434203,220420029,466953,-0.048681676,0.11415078,0.47951525,3
220681184,220634528,466953,-0.073294304,0.1087936,0.4779727,3
220720187,220706029,466953,-0.07840818,0.108045936,0.47770938,3
221006176,220992028,466953,-0.09355002,0.10566806,0.47582182,3
221110175,221063531,466953,-0.0918544,0.10381463,0.4753198,3
221149185,221135029,466953,-0.09031816,0.107654765,0.47537506,3
221253179,221206528,466953,-0.084913924,0.105402365,0.47566584,3
221292188,221278029,466953,-0.08409245,0.106758595,0.47462782,3
221396189,221349678,466953,-0.08658492,0.10912223,0.47392327,3
221435187,221421029,466953,-0.08740928,0.11020281,0.4739232,3
221539191,221492530,466953,-0.084927484,0.107300594,0.47536588,3
221578180,221564028,466953,-0.082458936,0.10564517,0.47542763,3
221682182,221635531,466953,-0.0802104,0.10745536,0.4754943,3
221721183,221707027,466953,-0.0789138,0.108972035,0.4767425,3
221825639,221778579,466953,-0.07468458,0.10643892,0.4773469,3
221864199,221850035,466953,-0.07060303,0.106601536,0.47632432,3
221968191,221921529,466953,-0.06676565,0.10822831,0.4774338,3
222007185,221993029,466953,-0.06239794,0.11324697,0.47553378,3
222111185,222064529,466953,-0.05719585,0.11824253,0.4767254,3
222150190,222136035,466953,-0.050611734,0.11838038,0.47720194,3
222254205,222207529,466953,-0.042422727,0.1133368,0.48030052,3
222293194,222279027,466953,-0.037172772,0.107078575,0.48207098,3
222397186,222350531,466953,-0.036482714,0.10355772,0.4825722,3
222436185,222422027,466953,-0.036544584,0.10096979,0.4825825,3
222579179,222565028,466953,-0.04657297,0.1033659,0.48191065,3
222683192,222636531,466953,-0.051533457,0.10523726,0.48051536,3
222722181,222708030,466953,-0.056030795,0.107502446,0.48009214,3
222826184,222779528,466953,-0.060093097,0.11009208,0.47899452,3
222865187,222851030,466953,-0.06290171,0.10947406,0.4789599,3
222969202,222922531,466953,-0.064585075,0.10729061,0.48018387,3
223008178,222994029,466953,-0.06424627,0.10244952,0.48090625,3
223112183,223065529,466953,-0.06587509,0.102696195,0.47983006,3
223151190,223137028,466953,-0.06884139,0.107024,0.4779291,3
223255176,223208531,466953,-0.071327165,0.11052075,0.47800696,3
223294185,223280029,466953,-0.07132955,0.11482923,0.47738993,3
223398184,223351528,466953,-0.06900267,0.11662423,0.47727287,3
223437184,223423035,466953,-0.06871117,0.120294385,0.47572744,3
223541186,223494528,466953,-0.0679283,0.12410795,0.47471297,3
223580186,223566029,466953,-0.06863653,0.12797536,0.47294492,3
223684203,223637531,466953,-0.07035072,0.13289542,0.4707917,3
223723202,223709028,466953,-0.07434711,0.13676383,0.46843767,3
223827176,223780529,466953,-0.07917085,0.14056934,0.46783707,3
223866184,223852027,466953,-0.07919972,0.14084984,0.46815312,3
223970186,223923531,466953,-0.07650406,0.13729964,0.4698864,3
224009204,223995029,466953,-0.07448423,0.13185626,0.47144568,3
224113192,224066528,466953,-0.075822115,0.12967889,0.47159263,3
224152186,224138029,466953,-0.07809179,0.12598751,0.47315305,3
224257417,224209683,466953,-0.07536995,0.12412859,0.47429645,3
224295191,224281029,466953,-0.06905472,0.12439581,0.47545856,3
224399186,224352529,466953,-0.067136824,0.124764495,0.47500023,3
224438174,224424028,466953,-0.0689991,0.12280242,0.4754786,3
224542185,224495531,466953,-0.071950614,0.11939026,0.47604156,3
224581183,224567027,466953,-0.075757794,0.11582421,0.47662514,3
224685187,224638529,466953,-0.076164566,0.11062365,0.4778099,3
224724205,224710033,466953,-0.07641399,0.10679695,0.47825205,3
224828191,224781543,466953,-0.07540524,0.10647119,0.47916448,3
224867175,224853029,466953,-0.0738037,0.108131394,0.47928497,3
224971187,224924528,466953,-0.07129712,0.11111728,0.4780484,3
225010177,224996037,466953,-0.07031851,0.112266324,0.4779888,3
225114204,225067529,466953,-0.069749415,0.11457873,0.47747448,3
225153179,225139028,466953,-0.06709522,0.11557244,0.47756898,3
225257183,225210531,466953,-0.06561756,0.116007224,0.4770649,3
225296189,225282027,466953,-0.06327869,0.117115915,0.4759161,3
225400190,225353529,466953,-0.06393123,0.11865568,0.47594884,3
225439179,225425029,466953,-0.064612314,0.12068343,0.47521687,3
225686200,225639528,466953,-0.06324668,0.11145938,0.47912905,3
225725191,225711029,466953,-0.060681146,0.102371715,0.48156995,3
225829180,225782531,466953,-0.059821527,0.098837025,0.48217493,3
225868190,225854027,466953,-0.061106093,0.09832659,0.48140198,3
225972190,225925528,466953,-0.06436268,0.102193356,0.48097944,3
226011184,225997030,466953,-0.06779814,0.10390397,0.48633727,3
226115187,226068532,466953,-0.078138374,0.111989,0.47225934,3
226154208,226140028,466953,-0.08447089,0.121321484,0.47128138,3
226258181,226211528,466953,-0.07325718,0.12860449,0.47285038,3
226297187,226283036,466953,-0.061136182,0.1330998,0.47399125,3
226401186,226354529,466953,-0.0564595,0.13397518,0.47515088,3
226440186,226426029,466953,-0.052893907,0.13503551,0.47490644,3
226544204,226497531,466953,-0.055111587,0.1351004,0.47585687,3
226583198,226569027,466953,-0.0672726,0.12950751,0.46642876,3
226687186,226640528,466953,-0.073098324,0.13475975,0.47186416,3
226726175,226712027,466953,-0.060134348,0.13824074,0.47358415,3
226830186,226783531,466953,-0.048461147,0.14051856,0.47313088,3
226869203,226855029,466953,-0.04316921,0.14336333,0.47345012,3
226973193,226926528,466953,-0.047311638,0.14513214,0.47208613,3
227012184,226998030,466953,-0.054613262,0.14129238,0.48453218,3
227116185,227069530,466953,-0.07110583,0.14197104,0.4609397,3
227155176,227141029,466953,-0.08635479,0.14509398,0.46738172,3
227259180,227212529,466953,-0.07651908,0.14432313,0.4691489,3
227402186,227355531,466953,-0.05889149,0.13594054,0.47485787,3
227441184,227427027,466953,-0.05463367,0.13355845,0.4773894,3
227545192,227498529,466953,-0.056449354,0.13479903,0.47478306,3
227584199,227570035,466953,-0.07289733,0.13512978,0.46737945,3
227688181,227641529,466953,-0.080052376,0.1352704,0.47157335,3
227727185,227713029,466953,-0.06891021,0.13641572,0.47491968,3
227831185,227784528,466953,-0.0587606,0.13708884,0.4757218,3
227870185,227856036,466953,-0.05250671,0.13821045,0.47551855,3
227974182,227927530,466953,-0.05232672,0.1405539,0.4750024,3
228013190,227999028,466953,-0.05585281,0.1448457,0.48487377,3
228117183,228070531,466953,-0.06636114,0.14589125,0.46150917,3
228156186,228142029,466953,-0.07577094,0.15238504,0.46472764,3
228260186,228213529,466953,-0.06525248,0.16117796,0.46384263,3
228299184,228285029,466953,-0.057401534,0.16328028,0.4643968,3
228403201,228356531,466953,-0.05387771,0.1608462,0.46648753,3
228442185,228428030,466953,-0.05212933,0.15333933,0.47026047,3
228546187,228499528,466953,-0.052727636,0.13960566,0.47463897,3
228585186,228571030,466953,-0.06621081,0.12630197,0.4674259,3
228689202,228642530,466953,-0.071418434,0.1219279,0.47354117,3
228728190,228714028,466953,-0.0631388,0.123258874,0.4758836,3
228832185,228785528,466953,-0.05462174,0.117002726,0.48019585,3
228871189,228857027,466953,-0.049244072,0.11184828,0.48188254,3
228975190,228928531,466953,-0.050885223,0.10780669,0.4820624,3
229014204,229000029,466953,-0.05879211,0.10940169,0.49288926,3
229118176,229071528,466953,-0.07497951,0.11124576,0.47006908,3
229157187,229143035,466953,-0.08762084,0.114892766,0.47382087,3
229261182,229214528,466953,-0.074669,0.11857695,0.47566825,3
229300180,229286029,466953,-0.06283875,0.12477863,0.47434872,3
229404204,229357532,466953,-0.05808771,0.13179296,0.47450578,3
229443182,229429027,466953,-0.05638343,0.1376537,0.47481832,3
229547180,229500529,466953,-0.056555398,0.13523258,0.47430593,3
229586185,229572027,466953,-0.0713367,0.1292432,0.4643371,3
229690190,229643531,466953,-0.081239864,0.12824488,0.4717702,3
229729186,229715029,466953,-0.07246129,0.12748328,0.47423792,3
229833176,229786528,466953,-0.06159776,0.12883091,0.47573313,3
229872186,229858030,466953,-0.056141283,0.12934415,0.47678623,3
229976185,229929530,466953,-0.055227123,0.1276778,0.47716773,3
230015186,230001029,466953,-0.05992519,0.1271087,0.48612007,3
230119180,230072529,466953,-0.071531035,0.12486995,0.46653095,3
230158181,230144027,466953,-0.08048618,0.1265525,0.47292086,3
230262205,230215684,466953,-0.06996145,0.1249357,0.47508568,3
230301188,230287027,466953,-0.06129072,0.12396063,0.47696504,3
230405187,230358529,466953,-0.060109954,0.12649529,0.47610873,3
230444211,230430035,466953,-0.060553893,0.1279279,0.47596475,3
230548195,230501528,466953,-0.06486958,0.1272716,0.47526962,3
230587176,230573029,466953,-0.06836277,0.12304753,0.47729832,3
230691190,230644528,466953,-0.06932864,0.1201866,0.4777639,3
230730185,230716035,466953,-0.06948703,0.11639523,0.47850394,3
230834199,230787587,466953,-0.06636758,0.11592413,0.4798916,3
230873194,230859028,466953,-0.06611877,0.11833268,0.47827503,3
230977183,230930532,466953,-0.069640756,0.118698254,0.4729699,3
231016184,231002027,466953,-0.084306106,0.124131545,0.47207063,3
231120186,231073529,466953,-0.076536536,0.12453583,0.47506753,3
231159181,231145029,466953,-0.06494976,0.124985814,0.4769828,3
231263199,231216530,466953,-0.057486236,0.12010551,0.47926942,3
231302184,231288029,466953,-0.05266141,0.11639625,0.48034024,3
231406184,231359528,466953,-0.051829364,0.11679294,0.4804683,3
231445192,231431029,466953,-0.052812092,0.11862972,0.48013863,3
231549211,231502532,466953,-0.056228444,0.11688093,0.47988284,3
231588174,231574027,466953,-0.059763692,0.11285256,0.4800126,3
231692188,231645529,466953,-0.060894664,0.11619173,0.4788347,3
231731186,231717027,466953,-0.06342288,0.119015485,0.47688895,3
231835176,231788532,466953,-0.06616662,0.119982615,0.47740367,3
231874181,231860029,466953,-0.06864976,0.118858725,0.47760937,3
231978180,231931529,466953,-0.06984951,0.11686798,0.47733188,3
232017185,232003036,466953,-0.07186108,0.113598794,0.47779346,3
232121185,232074528,466953,-0.071553566,0.1116957,0.47831663,3
232160196,232146029,466953,-0.07235976,0.10807397,0.47946414,3
232264200,232217531,466953,-0.07353106,0.10425861,0.47906852,3
232303202,232289027,466953,-0.07185402,0.106169164,0.47870934,3
232407183,232360529,466953,-0.06650542,0.112856954,0.47830373,3
232446188,232432027,466953,-0.062151175,0.118041575,0.4776424,3
232550190,232503531,466953,-0.059344072,0.11684958,0.47863692,3
232589203,232575029,466953,-0.05910515,0.11473348,0.47851774,3
232693195,232646528,466953,-0.0595269,0.11153611,0.47920614,3
232732186,232718029,466953,-0.05800502,0.10685864,0.4816103,3
232836185,232789531,466953,-0.0576805,0.100262895,0.4829775,3
232875186,232861029,466953,-0.059906438,0.09568922,0.4841264,3
232979180,232932529,466953,-0.065019056,0.093689546,0.48041633,3
233018174,233004027,466953,-0.07084741,0.098128736,0.48058996,3
233122181,233075531,466953,-0.0658866,0.10706396,0.47990578,3
233161183,233147027,466953,-0.06303274,0.11588681,0.4793132,3
233265187,233218529,466953,-0.062502205,0.118249446,0.4775844,3
233304191,233290033,466953,-0.0652791,0.12012079,0.47682533,3
233408191,233361528,466953,-0.0684433,0.12161927,0.47737533,3
233447179,233433030,466953,-0.06985105,0.12301364,0.4771634,3
233551188,233504528,466953,-0.07429185,0.12063307,0.47614795,3
233590190,233576035,466953,-0.092730016,0.1198003,0.46650314,3
233694208,233647681,466953,-0.094106704,0.12516443,0.47112933,3
233733179,233719027,466953,-0.08249553,0.12445133,0.47454375,3
233837183,233790532,466953,-0.07030389,0.12662019,0.4769491,3
233876184,233862027,466953,-0.061821442,0.12906519,0.47663972,3
234123190,234076530,466953,-0.05879067,0.15104476,0.46945283,3
234162180,234148030,466953,-0.06004578,0.15605861,0.46816158,3
234266183,234219587,466953,-0.06255332,0.15195028,0.46866438,3
234305187,234291030,466953,-0.06395605,0.14854601,0.47045183,3
234409181,234362532,466953,-0.064353414,0.14200643,0.47180495,3
234448202,234434029,466953,-0.06640194,0.13721399,0.4717543,3
234838175,234791528,466953,-0.06271715,0.13070971,0.4735602,3
234877186,234863035,466953,-0.07353799,0.12740593,0.46326858,3
234981191,234934528,466953,-0.081530966,0.13021928,0.46969658,3
235020186,235006029,466953,-0.06753911,0.12653674,0.47452706,3
235124209,235077531,466953,-0.056953017,0.12460713,0.4805808,3
235163191,235149027,466953,-0.056435138,0.11984348,0.46567664,3
235267182,235220529,466953,-0.06730369,0.11486761,0.47632536,3
235306183,235292028,466953,-0.057470433,0.11047955,0.48633528,3
235410186,235363531,466953,-0.05170099,0.1129888,0.47637105,3
235449208,235435029,466953,-0.046717223,0.116918564,0.479141,3
235553207,235506528,466953,-0.040839106,0.11456412,0.4809085,3
235592188,235578030,466953,-0.03755548,0.11013681,0.4815548,3
235696189,235649531,466953,-0.039863966,0.11042421,0.4811909,3
235735176,235721029,466953,-0.044575036,0.113890134,0.47996637,3
235839182,235792534,466953,-0.050372306,0.11821638,0.4791879,3
235878180,235864028,466953,-0.064925686,0.12243541,0.46665487,3
235982181,235935531,466953,-0.07420284,0.12750575,0.47121897,3
236125189,236078529,466953,-0.059452422,0.12659776,0.47576842,3
236164199,236150034,466953,-0.054905437,0.120132945,0.47759855,3
236268178,236221528,466953,-0.056290627,0.113418475,0.4797793,3
236307176,236293029,466953,-0.059256338,0.10825053,0.48718023,3
236411184,236364528,466953,-0.07226786,0.103217304,0.47583497,3
236450190,236436035,466953,-0.0820246,0.102963984,0.47840998,3
236554193,236507528,466953,-0.07478278,0.10197501,0.47946635,3
236593195,236579035,466953,-0.066721685,0.10156028,0.48056182,3
236697187,236650531,466953,-0.06521708,0.10562387,0.48007235,3
236736184,236722028,466953,-0.06555225,0.10870105,0.48026055,3
236840189,236793529,466953,-0.06783435,0.116394326,0.4772961,3
236879180,236865029,466953,-0.07947932,0.120402455,0.46593544,3
236983199,236936530,466953,-0.08502846,0.12373616,0.47265813,3
237022184,237008029,466953,-0.07187226,0.120642565,0.47506183,3
237127385,237079682,466953,-0.062102005,0.117190376,0.47876927,3
237165187,237151030,466953,-0.056702457,0.11298336,0.4788947,3
237269192,237222531,466953,-0.057385083,0.107972436,0.4805096,3
237308190,237294027,466953,-0.06158597,0.10416668,0.4839718,3
237412186,237365529,466953,-0.062488876,0.101449475,0.48341724,3
237451190,237437028,466953,-0.06299556,0.102971785,0.47860682,3
237555187,237508531,466953,-0.062401913,0.10442634,0.48017836,3
237698178,237651540,466953,-0.06543844,0.10548064,0.47939068,3
237737182,237723036,466953,-0.06815516,0.106229275,0.4791984,3
237841197,237794528,466953,-0.07063043,0.10861106,0.48014623,3
237880186,237866029,466953,-0.07199826,0.11276151,0.47576612,3
237984199,237937531,466953,-0.070346266,0.11287381,0.4776561,3
238023192,238009027,466953,-0.06704795,0.109048866,0.47877717,3
238127181,238080529,466953,-0.06649573,0.10695258,0.4795962,3
238166184,238152028,466953,-0.068826884,0.105239235,0.47868818,3
238270186,238223531,466953,-0.07142965,0.10387853,0.47966582,3
238309182,238295030,466953,-0.07382419,0.10313089,0.48935995,3
238413187,238366529,466953,-0.0729992,0.10674739,0.47638997,3
238452189,238438029,466953,-0.07151517,0.1096226,0.47892773,3
238556185,238509531,466953,-0.069624744,0.10926905,0.47890624,3
238595190,238581029,466953,-0.067678034,0.109226644,0.47942293,3
238699184,238652529,466953,-0.06851504,0.11095125,0.4802059,3
238738183,238724028,466953,-0.072948694,0.11420283,0.47739205,3
238842184,238795532,466953,-0.07903667,0.12541959,0.4726908,3
238881183,238867027,466953,-0.08128257,0.13464466,0.46696588,3
238985186,238938532,466953,-0.079579204,0.13264155,0.47139636,3
239024200,239010035,466953,-0.074628904,0.12170442,0.475299,3
239128190,239081528,466953,-0.06966094,0.11652431,0.47741807,3
239167175,239153029,466953,-0.06641379,0.11523911,0.47835574,3
239271185,239224528,466953,-0.066251725,0.121627,0.48482764,3
239310185,239296035,466953,-0.07646336,0.1565363,0.46779454,3
239414201,239367529,466953,-0.09611649,0.22320741,0.43521687,3
239453196,239439028,466953,-0.10941662,0.25668523,0.41567668,3
239557189,239510532,466953,-0.11423894,0.26821163,0.4062134,3
239596187,239582028,466953,-0.115462534,0.2657668,0.40630993,3
239700191,239653529,466953,-0.11405672,0.25366232,0.41603383,3
239739180,239725029,466953,-0.10853027,0.23698485,0.42537388,3
239843207,239796531,466953,-0.10402668,0.22435671,0.43354928,3
239882192,239868029,466953,-0.10048908,0.20906,0.44096345,3
239986183,239939529,466953,-0.09741507,0.19816881,0.4466578,3
240025186,240011030,466953,-0.09574582,0.18671583,0.45252758,3
240129204,240082534,466953,-0.09394548,0.1793463,0.45534,3
240168178,240154028,466953,-0.09218922,0.17054465,0.4589394,3
240272184,240225529,466953,-0.089146174,0.16488953,0.46094924,3
240311186,240297028,466953,-0.08564824,0.15964001,0.46477622,3
240415176,240368531,466953,-0.08095103,0.14901128,0.46783972,3
240454185,240440029,466953,-0.07513456,0.14128831,0.47084945,3
240558183,240511528,466953,-0.07238948,0.13323355,0.47338107,3
240597188,240583035,466953,-0.07060891,0.12741409,0.4751122,3
240701188,240654528,466953,-0.06908311,0.12086354,0.4767648,3
240740186,240726029,466953,-0.06974428,0.11359371,0.4771074,3
240844206,240797532,466953,-0.06917228,0.1075373,0.4793032,3
240883199,240869027,466953,-0.067972094,0.10068124,0.4823022,3
240987176,240940529,466953,-0.06582762,0.09395086,0.48172688,3
241026175,241012027,466953,-0.0647947,0.09100363,0.48299706,3
241130186,241083679,466953,-0.06131008,0.08483867,0.48461926,3
241169203,241155029,466953,-0.058373973,0.08224999,0.4844721,3
241273197,241226528,466953,-0.056176387,0.081059106,0.48525316,3
241312185,241298029,466953,-0.054513395,0.07883748,0.48595846,3
241416185,241369530,466953,-0.055346493,0.07825549,0.48520964,3
241455187,241441028,466953,-0.05585782,0.07779454,0.48635682,3
241559180,241512528,466953,-0.054354087,0.07670767,0.48562247,3
241598180,241584155,466953,-0.05428126,0.07761213,0.48558438,3
241702182,241655531,466953,-0.053425536,0.07709021,0.48591354,3
241741200,241727027,466953,-0.051751047,0.07686645,0.4856459,3
241845191,241798529,466953,-0.05088711,0.0769999,0.48631367,3
241884208,241870032,466953,-0.051324468,0.07487934,0.48775268,3
241988181,241941528,466953,-0.051904257,0.07251233,0.48678854,3
242027184,242013029,466953,-0.053392194,0.07349181,0.4870258,3
242131186,242084529,466953,-0.05112666,0.07282485,0.48729125,3
242170186,242156035,466953,-0.048805557,0.07519582,0.48663062,3
242274205,242227529,466953,-0.04879563,0.07790507,0.4865049,3
242313191,242299027,466953,-0.04908576,0.08268072,0.48510623,3
242560189,242513529,466953,-0.04979641,0.09223255,0.4836414,3
242599185,242585030,466953,-0.050311886,0.09632822,0.48259172,3
242703192,242656531,466953,-0.053560793,0.09864786,0.4830283,3
242742184,242728029,466953,-0.0540139,0.09734635,0.4831729,3
242846180,242799528,466953,-0.056570966,0.098101646,0.48195165,3
242885187,242871029,466953,-0.060430523,0.09890303,0.48222074,3
242989181,242942531,466953,-0.06164148,0.10052013,0.48227766,3
243028191,243014027,466953,-0.06315001,0.10065922,0.4815392,3
243132177,243085529,466953,-0.06337935,0.09828385,0.47929218,3
243171186,243157028,466953,-0.054352533,0.089979224,0.4759811,3
243275188,243228531,466953,-0.028384056,0.030573715,0.48996034,3
243314192,243300029,466953,-0.0028546515,-0.025516003,0.4915541,3
243418175,243371529,466953,0.0070966408,-0.041624397,0.49120945,3
243457184,243443035,466953,0.0051004747,-0.04137788,0.4929495,3
243561185,243514528,466953,-0.0035920937,-0.025186505,0.4923981,3
243600194,243586031,466953,-0.01396613,-0.008344233,0.49251544,3
243704209,243657532,466953,-0.023777824,0.012832427,0.49235877,3
243743205,243729028,466953,-0.030743828,0.032917317,0.49159718,3
243847182,243800529,466953,-0.03980438,0.051985472,0.4896055,3
243886184,243872027,466953,-0.045593053,0.067242436,0.48769435,3
243990189,243943531,466953,-0.050778586,0.07833408,0.48602116,3
244029193,244015434,466953,-0.056391742,0.089025736,0.4838314,3
244133191,244086529,466953,-0.060293935,0.09630968,0.48254603,3
244172183,244158029,466953,-0.06381127,0.104591995,0.48040438,3
244276185,244229531,466953,-0.066285945,0.113223575,0.47886884,3
244315176,244301029,466953,-0.06892176,0.119221255,0.477864,3
244419181,244372528,466953,-0.07135485,0.12801223,0.47411606,3
244458186,244444028,466953,-0.07424362,0.13671678,0.47199303,3
244562176,244515590,466953,-0.07458841,0.14396654,0.4693389,3
244601201,244587027,466953,-0.07651621,0.15027037,0.4667452,3
244705205,244658529,466953,-0.078289956,0.15456793,0.46568322,3
244744205,244730036,466953,-0.079627395,0.15591654,0.46458352,3
244848180,244801528,466953,-0.08054884,0.15556777,0.46475255,3
244887176,244873029,466953,-0.079772234,0.15719587,0.46426368,3
244991189,244944529,466953,-0.080792256,0.1607295,0.46294832,3
245030185,245016035,466953,-0.08077335,0.16392766,0.46153247,3
245134182,245087529,466953,-0.08052446,0.16738376,0.46028215,3
245173193,245159028,466953,-0.07998901,0.16819738,0.46174225,3
245277176,245230531,466953,-0.07767589,0.16903104,0.4607593,3
245316185,245302029,466953,-0.077199996,0.16886938,0.4611369,3
245420186,245373529,466953,-0.076295696,0.16773474,0.4613167,3
245563193,245516531,466953,-0.076950036,0.16305116,0.4635507,3
245602186,245588029,466953,-0.07803358,0.15996629,0.46380195,3
245706183,245659528,466953,-0.0784545,0.15873954,0.46517566,3
245745191,245731030,466953,-0.07741526,0.15580395,0.46511286,3
245849208,245802530,466953,-0.07819347,0.15543501,0.46588406,3
245888191,245874027,466953,-0.078111164,0.15287362,0.4668373,3
245992181,245945529,466953,-0.0771698,0.14972611,0.46737275,3
246031186,246017027,466953,-0.077654354,0.14655681,0.46943146,3
246135187,246088531,466953,-0.07687411,0.14424185,0.4690186,3
246174207,246160029,466953,-0.07614112,0.14276844,0.46952718,3
246278180,246231528,466953,-0.07524271,0.14112598,0.47026592,3
246317183,246303036,466953,-0.07380911,0.13854972,0.47080144,3
246421184,246374528,466953,-0.075012505,0.13535115,0.47198018,3
246460189,246446030,466953,-0.073671326,0.13264692,0.4732159,3
246564204,246517531,466953,-0.07615992,0.13508339,0.47215828,3
246603197,246589028,466953,-0.09293859,0.17556159,0.44799465,3
246707180,246660529,466953,-0.117613316,0.2295961,0.4221069,3
246746188,246732028,466953,-0.13615993,0.26261267,0.40046796,3
246850194,246803537,466953,-0.1400333,0.2646126,0.402185,3
246889181,246875029,466953,-0.13717088,0.25149783,0.4123059,3
246993179,246946528,466953,-0.1284966,0.22816879,0.42585745,3
247032182,247018029,466953,-0.11950953,0.20653217,0.43858728,3
247136185,247089530,466953,-0.10917606,0.18111445,0.45050183,3
247422182,247375532,466953,-0.08155296,0.11618496,0.47546244,3
247461189,247447027,466953,-0.07589936,0.10446098,0.4791498,3
247708192,247661528,466953,-0.06655205,0.077209555,0.48474434,3
247747180,247733030,466953,-0.06276118,0.07151696,0.48619378,3
247851189,247804528,466953,-0.060415965,0.06606014,0.48731008,3
247890189,247876035,466953,-0.05799809,0.061713986,0.4887163,3
247994205,247947529,466953,-0.057125367,0.057505816,0.4886145,3
248033197,248019027,466953,-0.054986857,0.05668051,0.48930955,3
248137184,248090533,466953,-0.054057024,0.05192173,0.48996255,3
248176183,248162028,466953,-0.05488064,0.047751635,0.48998436,3
248280186,248233529,466953,-0.05334325,0.046601,0.49063253,3
248319181,248305029,466953,-0.05352747,0.047207735,0.48912895,3
248423211,248376530,466953,-0.054746233,0.04639167,0.4903864,3
248462185,248448029,466953,-0.05383295,0.046151638,0.49000794,3
248566183,248519528,466953,-0.051334355,0.04899278,0.48940706,3
248605194,248591030,466953,-0.052118868,0.052565068,0.4893708,3
248709180,248662531,466953,-0.051299233,0.05606798,0.4886041,3
248748182,248734028,466953,-0.050238058,0.060225498,0.48724493,3
248852191,248805529,466953,-0.05179142,0.06372447,0.4879871,3
248891190,248877029,466953,-0.05103227,0.06517378,0.48856777,3
248995180,248948531,466953,-0.05013348,0.06578731,0.48730087,3
249034181,249020029,466953,-0.050594192,0.066371754,0.48721075,3
249138174,249091528,466953,-0.05046297,0.067352116,0.48786545,3
249177182,249163035,466953,-0.051023938,0.07005959,0.48729342,3
249281182,249234528,466953,-0.054175414,0.07306254,0.48631856,3
249320185,249306030,466953,-0.055972017,0.07492055,0.48695558,3
249424201,249377534,466953,-0.056393567,0.07839118,0.4858057,3
249463192,249449028,466953,-0.059455715,0.08229989,0.4846844,3
249567183,249520528,466953,-0.061087683,0.08427797,0.48431817,3
249606185,249592028,466953,-0.060516834,0.08554754,0.48394677,3
249710186,249663531,466953,-0.060844228,0.08823928,0.484026,3
249749211,249735029,466953,-0.060249105,0.09207128,0.48256633,3
249853204,249806529,466953,-0.06261302,0.09638357,0.4819843,3
249892187,249878029,466953,-0.06597476,0.098309636,0.48168847,3
249997419,249949683,466953,-0.06906514,0.09948636,0.48026508,3
250035186,250021029,466953,-0.07137915,0.10221416,0.47815332,3
250139182,250092529,466953,-0.0728076,0.1096536,0.47851643,3
250178176,250164027,466953,-0.07227446,0.115628794,0.4793706,3
250282193,250235531,466953,-0.069002464,0.121426865,0.4767093,3
250321184,250307027,466953,-0.06736394,0.12806553,0.47585243,3
250425188,250378529,466953,-0.067878164,0.13408332,0.4739716,3
250464189,250450032,466953,-0.0669454,0.1383374,0.47312552,3
250568191,250521586,466953,-0.06908147,0.14166431,0.4729629,3
250711198,250664532,466953,-0.07049056,0.14845625,0.46975267,3
250750192,250736035,466953,-0.07125734,0.15394086,0.46875533,3
250854207,250807528,466953,-0.070772864,0.15656282,0.46722907,3
250893179,250879027,466953,-0.07147433,0.15878323,0.46743745,3
250997187,250950531,466953,-0.071154006,0.1596908,0.46572593,3
251036185,251022029,466953,-0.07164191,0.16227621,0.46487936,3
251140186,251093529,466953,-0.07131459,0.16291484,0.46459624,3
251179180,251165029,466953,-0.07029517,0.16277748,0.46414098,3
251283180,251236530,466953,-0.070810325,0.16124572,0.465399,3
251322181,251308029,466953,-0.070791334,0.15711048,0.4662469,3
251426183,251379528,466953,-0.070658945,0.15488453,0.46762413,3
251465187,251451030,466953,-0.069753125,0.15182924,0.4693937,3
251569182,251522531,466953,-0.06668353,0.15059951,0.46965817,3
251608190,251594027,466953,-0.06667482,0.15012184,0.4696425,3
251712184,251665529,466953,-0.06682289,0.14657825,0.47056913,3
251751188,251737027,466953,-0.06631708,0.14454803,0.47114342,3
251855189,251808531,466953,-0.066688254,0.14433636,0.47098756,3
251894204,251880029,466953,-0.06520334,0.14618872,0.47039005,3
251998182,251951532,466953,-0.06537852,0.14551038,0.47058746,3
252037182,252023036,466953,-0.064312674,0.14201836,0.4721788,3
252141175,252094528,466953,-0.061570935,0.13931222,0.47415632,3
252180186,252166029,466953,-0.06015046,0.13524963,0.4761353,3
252284199,252237531,466953,-0.05707642,0.13108855,0.47697258,3
252323204,252309027,466953,-0.057851285,0.12929875,0.47764772,3
252427187,252380529,466953,-0.059077743,0.12723632,0.47764733,3
252466183,252452027,466953,-0.058383055,0.12793574,0.47774947,3
252570187,252523531,466953,-0.05926763,0.12966111,0.47631615,3
252609204,252595030,466953,-0.06058597,0.1327532,0.47586137,3
252713201,252666530,466953,-0.060922984,0.13396892,0.47528157,3
252752198,252738029,466953,-0.05999556,0.13237892,0.47634488,3
252856184,252809531,466953,-0.060843818,0.1302176,0.47631997,3
252895179,252881029,466953,-0.061690956,0.12952566,0.47615764,3
252999186,252952529,466953,-0.06288593,0.12951693,0.47612643,3
253038175,253024027,466953,-0.0637699,0.1297988,0.48767695,3
253142185,253095531,466953,-0.07008203,0.15031168,0.47382724,3
253181183,253167027,466953,-0.078663,0.17857711,0.46075106,3
253285187,253238532,466953,-0.08151856,0.19225407,0.45506084,3
253324201,253310036,466953,-0.08149539,0.19371131,0.4532277,3
253428175,253381528,466953,-0.08238119,0.18744056,0.45558897,3
253467176,253453424,466953,-0.0830487,0.17302057,0.4598511,3
253571185,253524529,466953,-0.08061454,0.16054821,0.46498305,3
253610186,253596035,466953,-0.076723054,0.14860609,0.46884578,3
253714182,253667529,466953,-0.07178692,0.13870482,0.47227496,3
253753195,253739028,466953,-0.06817196,0.13332883,0.47396368,3
253857183,253810532,466953,-0.06785824,0.12891914,0.47476724,3
253896188,253882029,466953,-0.064529896,0.12257753,0.476494,3
254000192,253953588,466953,-0.06221596,0.11632535,0.47842202,3
254039181,254025030,466953,-0.059449933,0.10723071,0.48173064,3
254143207,254096531,466953,-0.05648741,0.098521434,0.48243442,3
254182182,254168030,466953,-0.05475031,0.092932984,0.4834852,3
254286183,254239528,466953,-0.053463362,0.08744484,0.48492333,3
254325187,254311029,466953,-0.051245075,0.0829439,0.48695928,3
254429204,254382531,466953,-0.049071983,0.07917767,0.48720333,3
254468196,254454027,466953,-0.048130956,0.07608691,0.48774892,3
254572195,254525532,466953,-0.04699748,0.07223616,0.48715052,3
254611184,254597028,466953,-0.047700457,0.07230747,0.48771068,3
254715187,254668531,466953,-0.045287583,0.07002458,0.48837057,3
254754207,254740029,466953,-0.042348888,0.068519205,0.48933703,3
254858180,254811528,466953,-0.04026928,0.06802848,0.4883968,3
254897186,254883035,466953,-0.03907488,0.07016017,0.4874642,3
255001186,254954528,466953,-0.040265426,0.074277945,0.48680747,3
255040186,255026029,466953,-0.040842537,0.07823084,0.48714107,3
255144210,255097531,466953,-0.040803272,0.083409995,0.4856031,3
255183181,255169027,466953,-0.041181333,0.087853044,0.4857633,3
255287182,255240528,466953,-0.041853096,0.090902075,0.48479116,3
255326185,255312032,466953,-0.04317942,0.095453426,0.4832345,3
255430186,255383531,466953,-0.047473267,0.100700736,0.48216265,3
255469180,255455029,466953,-0.050421115,0.105401024,0.48135167,3
255573177,255526528,466953,-0.053827923,0.107394025,0.48117945,3
255612181,255598029,466953,-0.054813854,0.10762974,0.48018155,3
255716187,255669530,466953,-0.054949988,0.10805603,0.48071215,3
255755186,255741029,466953,-0.05358856,0.107238784,0.48162112,3
255859183,255812529,466953,-0.053168435,0.10953286,0.4804075,3
255898181,255884030,466953,-0.054537874,0.11314644,0.47924706,3
256002184,255955533,466953,-0.055158004,0.11784867,0.47841164,3
256041190,256027028,466953,-0.05332939,0.120841615,0.47828883,3
256145190,256098529,466953,-0.0506067,0.12018626,0.47874,3
256184204,256170035,466953,-0.04830479,0.11811762,0.47873044,3
256288192,256241528,466953,-0.05079783,0.11611902,0.47927746,3
256327184,256313029,466953,-0.053462993,0.11427655,0.47928017,3
256431185,256384528,466953,-0.05663962,0.11253242,0.47985414,3
256470185,256456035,466953,-0.058616154,0.10983981,0.4801407,3
256574201,256527529,466953,-0.058357444,0.10934245,0.48063546,3
256613193,256599028,466953,-0.058608487,0.10865696,0.48011208,3
256717182,256670532,466953,-0.0591049,0.11183606,0.4795453,3
256756183,256742028,466953,-0.06041386,0.11501247,0.4787264,3
257185186,257171030,466953,-0.06304979,0.123484716,0.47596782,3
257289193,257242531,466953,-0.059283093,0.1244026,0.47651148,3
257328175,257314027,466953,-0.05521452,0.1250715,0.47593233,3
257432182,257385588,466953,-0.054855064,0.124214664,0.4755866,3
257471183,257457027,466953,-0.054661565,0.12347027,0.47630093,3
257575176,257528531,466953,-0.05400068,0.12336096,0.47649422,3
257718175,257671528,466953,-0.052639432,0.11987862,0.47719246,3
257757183,257743035,466953,-0.053051323,0.11872375,0.4765389,3
257861184,257814528,466953,-0.05596241,0.12244974,0.47015932,3
257900192,257886029,466953,-0.06325706,0.12876152,0.46575862,3
258004199,257957532,466953,-0.073680945,0.14400584,0.46324608,3
258043212,258029027,466953,-0.08331698,0.15368977,0.46273434,3
258147186,258100529,466953,-0.087412365,0.15246302,0.4642306,3
258186184,258172028,466953,-0.08825694,0.14615804,0.4670151,3
258290190,258243531,466953,-0.08738569,0.14102906,0.46947667,3
258329194,258315031,466953,-0.085093275,0.1343258,0.472418,3
258433192,258386528,466953,-0.082696274,0.12700261,0.47355232,3
258472184,258458029,466953,-0.08473483,0.122811936,0.47576994,3
258576185,258529530,466953,-0.08334034,0.11386919,0.4772892,3
258615187,258601029,466953,-0.08162139,0.11015314,0.47827876,3
258719181,258672529,466953,-0.08164345,0.11049358,0.47748336,3
258758185,258744028,466953,-0.082561865,0.11465149,0.47579217,3
258862185,258815531,466953,-0.08524184,0.11623492,0.47481492,3
258901188,258887027,466953,-0.08761722,0.114969075,0.47494692,3
259005190,258958529,466953,-0.088153996,0.10997075,0.47639418,3
259044208,259030033,466953,-0.08794139,0.10432625,0.47815555,3
259148198,259101528,466953,-0.086634494,0.099069364,0.47929823,3
259187183,259173029,466953,-0.08359574,0.0966118,0.4812575,3
259291188,259244528,466953,-0.07885724,0.0954528,0.48179245,3
259330186,259316036,466953,-0.07623166,0.09504709,0.48234314,3
259434205,259387529,466953,-0.07370266,0.09577893,0.48164394,3
259473178,259459028,466953,-0.07124194,0.09675802,0.48121244,3
259577183,259530531,466953,-0.069112666,0.09763243,0.48243356,3
259616184,259602027,466953,-0.06524174,0.09670835,0.48197103,3
259720188,259673528,466953,-0.063722424,0.09606765,0.48321965,3
259759181,259745029,466953,-0.06305637,0.093775176,0.48244858,3
259863198,259816531,466953,-0.061695196,0.093967795,0.48356172,3
259902185,259888029,466953,-0.059618395,0.09278059,0.48368675,3
260006183,259959528,466953,-0.05721088,0.09354339,0.48372906,3
260045192,260031029,466953,-0.0553752,0.09278139,0.48495865,3
260149185,260102531,466953,-0.052284855,0.09104901,0.48537034,3
260188190,260174028,466953,-0.05079688,0.08902147,0.48480472,3
260292187,260245529,466953,-0.05216439,0.08813066,0.4853257,3
260331188,260317027,466953,-0.05087523,0.087735705,0.4857307,3
260435187,260388532,466953,-0.049671948,0.08961706,0.48523474,3
260474201,260460029,466953,-0.05214114,0.094004504,0.48374113,3
260578176,260531528,466953,-0.056784593,0.09784801,0.48318943,3
260617182,260603037,466953,-0.06128521,0.09885701,0.4826951,3
260721182,260674528,466953,-0.0626796,0.09698065,0.48334205,3
260760187,260746029,466953,-0.06283062,0.09461753,0.48404273,3
260864209,260817531,466953,-0.06297144,0.09081823,0.48494548,3
260903201,260889027,466953,-0.062719375,0.085359834,0.48550186,3
261007181,260960528,466953,-0.0670912,0.07951626,0.48479503,3
261046188,261032030,466953,-0.072202146,0.073415846,0.48496664,3
261150201,261103531,466953,-0.07374262,0.077003986,0.4832262,3
261189202,261175029,466953,-0.0708568,0.08039317,0.4831509,3
261293195,261246528,466953,-0.06583585,0.08604032,0.4837594,3
261332181,261318029,466953,-0.057456754,0.09322074,0.48373222,3
261436186,261389530,466953,-0.0506839,0.10064755,0.48263967,3
261475175,261461029,466953,-0.04570777,0.108112276,0.48042428,3
261722181,261675531,466953,-0.045532152,0.11802049,0.4799713,3
261761182,261747027,466953,-0.04565911,0.12015264,0.4783677,3
261865189,261818529,466953,-0.04569106,0.12785181,0.47729665,3
261904212,261890036,466953,-0.044080503,0.1325497,0.4760953,3
262008176,261961528,466953,-0.04221462,0.1359669,0.47613528,3
262047180,262033029,466953,-0.041673124,0.13676535,0.4761381,3
262151204,262104528,466953,-0.04142218,0.13650334,0.47647274,3
262190190,262176035,466953,-0.04206276,0.13422139,0.47599494,3
262294184,262247529,466953,-0.04185335,0.13313282,0.4773583,3
262333191,262319028,466953,-0.039962653,0.13104935,0.47738546,3
262437186,262390531,466953,-0.03966058,0.13358769,0.47669396,3
262476184,262462028,466953,-0.040219717,0.13525197,0.476292,3
262580188,262533529,466953,-0.03896458,0.13121368,0.4777987,3
262619182,262605029,466953,-0.036785655,0.12820002,0.47790882,3
262723213,262676531,466953,-0.035503276,0.12948252,0.47792992,3
262762182,262748029,466953,-0.03270589,0.13154595,0.47749147,3
262867416,262819680,466953,-0.031450905,0.13024355,0.4777071,3
262905176,262891029,466953,-0.032408766,0.12767184,0.4778007,3
263009204,262962531,466953,-0.034877304,0.12685052,0.477916,3
263048195,263034028,466953,-0.038143236,0.12809235,0.47638828,3
263152186,263105529,466953,-0.038975775,0.12743317,0.4771954,3
263191187,263177029,466953,-0.04029116,0.12622589,0.4775309,3
263295192,263248531,466953,-0.04054618,0.12013913,0.47854835,3
263334192,263320029,466953,-0.042851135,0.118268356,0.4783576,3
263438174,263391589,466953,-0.04188059,0.1178162,0.47938526,3
263477183,263463035,466953,-0.04089087,0.11600244,0.48012647,3
263581183,263534528,466953,-0.04302583,0.1101274,0.48069584,3
263620185,263606029,466953,-0.047294445,0.10310385,0.48143455,3
263724205,263677531,466953,-0.053717382,0.09886432,0.4822123,3
263763177,263749027,466953,-0.057120126,0.09588151,0.48192316,3
263867176,263820529,466953,-0.05785732,0.096137896,0.48270303,3
263906185,263892027,466953,-0.05650797,0.098701015,0.48176023,3
264010178,263963531,466953,-0.055502325,0.09969264,0.48110667,3
264049185,264035030,466953,-0.0538996,0.10366755,0.47646284,3
264153183,264106528,466953,-0.033664707,0.12843588,0.47481218,3
264192185,264178029,466953,-0.011671218,0.15210323,0.4711983,3
264296188,264249530,466953,0.0069156946,0.16223508,0.47040635,3
264335187,264321029,466953,0.0144660305,0.16090468,0.47044402,3
264439181,264392529,466953,0.012595078,0.15391606,0.47339043,3
264478180,264464028,466953,0.0082248,0.14599867,0.47554868,3
264582197,264535531,466953,0.0018833636,0.13947849,0.47756332,3
264621187,264607028,466953,-0.006204252,0.1338166,0.47833666,3
264725188,264678529,466953,-0.01120889,0.13115653,0.47984758,3
264764206,264750035,466953,-0.0138258785,0.12842189,0.48063087,3
264868193,264821528,466953,-0.014358912,0.12926765,0.4797299,3
264907184,264893029,466953,-0.014463026,0.12906897,0.48018715,3
265011183,264964529,466953,-0.015130022,0.13261864,0.4783364,3
265050190,265036036,466953,-0.017562049,0.13280517,0.4779192,3
265154204,265107528,466953,-0.019722812,0.13122514,0.47760612,3
265193195,265179027,466953,-0.023758594,0.12888625,0.47798944,3
265297192,265250531,466953,-0.029060462,0.1247192,0.47874314,3
265336185,265322028,466953,-0.0331183,0.12027442,0.48010075,3
265440185,265393528,466953,-0.03582209,0.117659345,0.4804813,3
265479179,265465029,466953,-0.039616227,0.11444023,0.48062718,3
265583196,265536530,466953,-0.04306696,0.11175389,0.48161823,3
265622175,265608029,466953,-0.045343723,0.108809814,0.4825842,3
265726184,265679528,466953,-0.045964524,0.107991055,0.48243505,3
265765187,265751029,466953,-0.047272295,0.1073634,0.4828121,3
265869193,265822531,466953,-0.050991885,0.10777549,0.48058328,3
265908175,265894028,466953,-0.05622245,0.10923271,0.48011336,3
266012181,265965529,466953,-0.06281129,0.10738499,0.47989637,3
266051187,266037027,466953,-0.067363255,0.109094225,0.47894892,3
266155176,266108531,466953,-0.07551827,0.10764613,0.4781092,3
266194186,266180030,466953,-0.080948144,0.103688434,0.4781447,3
266298183,266251528,466953,-0.0840061,0.09996892,0.47833726,3
266337177,266323035,466953,-0.0881668,0.097144954,0.47759375,3
266441188,266394528,466953,-0.092041,0.09693805,0.47667244,3
266480186,266466030,466953,-0.09438431,0.09601158,0.4769358,3
266584199,266537531,466953,-0.096699454,0.09548807,0.4763815,3
266623203,266609028,466953,-0.098430574,0.093817435,0.47625527,3
266870187,266823532,466953,-0.098567344,0.09420147,0.4765372,3
266909195,266895029,466953,-0.09956642,0.09496626,0.47597694,3
267013191,266966528,466953,-0.09948093,0.09665252,0.4761784,3
267052180,267038029,466953,-0.09992719,0.0955468,0.47700876,3
267156185,267109531,466953,-0.099605,0.09469669,0.4757309,3
267195190,267181029,466953,-0.099926636,0.09474449,0.47571835,3
267299184,267252529,466953,-0.10013745,0.0938196,0.47652015,3
267338175,267324027,466953,-0.0976222,0.094623946,0.4768116,3
267442185,267395532,466953,-0.09665353,0.09607146,0.4761143,3
267481182,267467027,466953,-0.096480206,0.098857634,0.47611284,3
267585188,267538529,466953,-0.09486621,0.101947956,0.4760476,3
267624203,267610029,466953,-0.09452133,0.10311216,0.47689044,3
267728191,267681528,466953,-0.093232185,0.10267584,0.47567043,3
267767175,267753029,466953,-0.09368038,0.10449573,0.4750557,3
267871187,267824528,466953,-0.093118586,0.10605219,0.47580773,3
267910180,267896035,466953,-0.0897201,0.106053255,0.47574377,3
268014204,267967529,466953,-0.08762555,0.10863517,0.475161,3
268053180,268039030,466953,-0.08672499,0.10977052,0.47531804,3
268157187,268110529,466953,-0.08605306,0.111552075,0.47576421,3
268196188,268182028,466953,-0.08299964,0.11278549,0.4760306,3
268300190,268253530,466953,-0.0843199,0.1128543,0.4757867,3
268339184,268325029,466953,-0.08379762,0.11136462,0.47721577,3
268443198,268396531,466953,-0.08208273,0.10815185,0.47799858,3
268482180,268468029,466953,-0.07901054,0.10439186,0.47905302,3
268586183,268539528,466953,-0.07558015,0.10227281,0.47928107,3
268625186,268611029,466953,-0.07422611,0.10398844,0.4796384,3
268729181,268682532,466953,-0.07249372,0.10589106,0.47898686,3
268768190,268754028,466953,-0.071618766,0.11131524,0.47829947,3
268872185,268825534,466953,-0.07648909,0.11334725,0.47718972,3
268911183,268897027,466953,-0.10042723,0.1073949,0.47252524,3
269015188,268968531,466953,-0.1315499,0.10070447,0.46704277,3
269054201,269040029,466953,-0.14821404,0.10144597,0.4644555,3
269158175,269111528,466953,-0.14311315,0.104690105,0.4656522,3
269197188,269183035,466953,-0.13090114,0.109990835,0.46692428,3
269301186,269254528,466953,-0.11426886,0.117820874,0.47002807,3
269340187,269326029,466953,-0.09455588,0.12655938,0.4725679,3
269444207,269397531,466953,-0.07677384,0.1299597,0.47540566,3
269483198,269469027,466953,-0.05975029,0.1298627,0.4772439,3
269587181,269540528,466953,-0.043618865,0.13363543,0.47635433,3
269626183,269612028,466953,-0.029497046,0.13765936,0.4781637,3
269730185,269683532,466953,-0.017127618,0.13782655,0.47780955,3
269769203,269755028,466953,-0.002314282,0.13901968,0.47867584,3
269873191,269826528,466953,0.0106039075,0.13630193,0.47986028,3
269912181,269898029,466953,0.02306071,0.13380155,0.47856975,3
270016185,269969530,466953,0.03502503,0.13035795,0.4796299,3
270055187,270041029,466953,0.044048898,0.12432023,0.47958493,3
270159181,270112533,466953,0.0571237,0.12039658,0.47981504,3
270198225,270184028,466953,0.06638588,0.11462154,0.47913373,3
270302185,270255531,466953,0.07684378,0.107154004,0.4802602,3
270341186,270327028,466953,0.084017836,0.10071522,0.47919506,3
270445190,270398529,466953,0.09138795,0.093650855,0.47976387,3
270484201,270470035,466953,0.098999016,0.085592054,0.47969565,3
270588177,270541529,466953,0.104505315,0.0790033,0.48007318,3
270627176,270613029,466953,0.10906186,0.070690565,0.47965607,3
270731183,270684529,466953,0.11366034,0.0625412,0.4802123,3
270770187,270756035,466953,0.118694514,0.052295826,0.47900814,3
270874192,270827529,466953,0.12165538,0.044462316,0.47929463,3
270913190,270899028,466953,0.12423056,0.034082223,0.48051083,3
271017183,270970531,466953,0.12834483,0.022468125,0.47960755,3
