timestamp,timestamp_last_signal,rssi,rssi_dbm,rc_lost_frame_count,rc_total_frame_count,rc_ppm_frame_length,values[0],values[1],values[2],values[3],values[4],values[5],values[6],values[7],values[8],values[9],values[10],values[11],values[12],values[13],values[14],values[15],values[16],values[17],channel_count,rc_failsafe,rc_lost,input_source,link_quality
200552506,200540362,-1,-38.0,0,0,0,1500,1500,1000,1999,1988,1000,1000,1000,1000,1000,1499,1500,1500,1000,2000,2000,0,0,16,0,0,14,100
201056099,201055724,-1,-38.0,0,0,0,1499,1500,1000,1500,1988,1000,1000,1000,1000,1000,1499,1500,1500,1000,2000,2000,0,0,16,0,0,14,100
201556125,201555725,-1,-36.0,0,0,0,1500,1500,1000,1500,1988,1000,1000,1000,1000,1000,1499,1500,1500,1000,1990,2000,0,0,16,0,0,14,99
202056092,202056070,-1,-37.0,0,0,0,1499,1502,1263,1500,1988,1000,1000,1000,1000,1000,1499,1500,1500,1000,1990,2000,0,0,16,0,0,14,99
202555670,202555649,-1,-37.0,0,0,0,1499,1501,1478,1500,1988,1000,1000,1000,1000,1000,1499,1500,1500,1000,1990,2000,0,0,16,0,0,14,99
203055669,203055648,-1,-37.0,0,0,0,1499,1500,1538,1500,1988,1000,1000,1000,1000,1000,1499,1500,1500,1000,1990,2000,0,0,16,0,0,14,99
203552417,203539720,-1,-37.0,0,0,0,1500,1500,1762,1500,1988,1000,1000,1000,1000,1000,1499,1500,1500,1000,2000,2000,0,0,16,0,0,14,100
204055659,204055638,-1,-38.0,0,0,0,1499,1501,1888,1500,1988,1000,1000,1000,1000,1000,1499,1500,1500,1000,2000,2000,0,0,16,0,0,14,100
204555645,204555626,-1,-37.0,0,0,0,1499,1508,1977,1500,1988,1000,1000,1000,1000,1000,1499,1500,1500,1000,2000,2000,0,0,16,0,0,14,100
205055684,205055663,-1,-37.0,0,0,0,1500,1518,1999,1500,1988,1000,1000,1000,1000,1000,1499,1500,1500,1000,2000,2000,0,0,16,0,0,14,100
205556471,205556451,-1,-37.0,0,0,0,1500,1502,1999,1500,1988,1000,1000,1000,1000,1000,1499,1500,1500,1000,2000,2000,0,0,16,0,0,14,100
206055653,206055633,-1,-39.0,0,0,0,1499,1502,1999,1500,1988,1000,1000,1000,1000,1000,1499,1500,1500,1000,2000,2000,0,0,16,0,0,14,100
207055647,207055626,-1,-39.0,0,0,0,1499,1510,1999,1500,1988,1000,1000,1000,1000,1000,1499,1500,1500,1000,1990,2000,0,0,16,0,0,14,99
207555656,207555636,-1,-39.0,0,0,0,1499,1534,1999,1500,1988,1000,1000,1000,1000,1000,1499,1500,1500,1000,1990,2000,0,0,16,0,0,14,99
208053541,208053521,-1,-40.0,0,0,0,1499,1604,1999,1500,1988,1000,1000,1000,1000,1000,1499,1500,1500,1000,1990,2000,0,0,16,0,0,14,99
208554444,208554316,-1,-40.0,0,0,0,1499,1701,1999,1500,1988,1000,1000,1000,1000,1000,1499,1500,1500,1000,1990,2000,0,0,16,0,0,14,99
209059714,209055534,-1,-40.0,0,0,0,1497,1783,1999,1500,1988,1000,1000,1000,1000,1000,1499,1500,1500,1000,2000,2000,0,0,16,0,0,14,100
209564378,209555457,-1,-39.0,0,0,0,1497,1841,1999,1499,1988,1000,1000,1000,1000,1000,1499,1500,1500,1000,1990,2000,0,0,16,0,0,14,99
210065332,210055441,-1,-39.0,0,0,0,1500,1841,1999,1499,1988,1000,1000,1000,1000,1000,1499,1500,1500,1000,1990,2000,0,0,16,0,0,14,99
210555643,210555623,-1,-39.0,0,0,0,1500,1850,1999,1572,1988,1000,1000,1000,1000,1000,1499,1500,1500,1000,1990,2000,0,0,16,0,0,14,99
211555443,211555423,-1,-43.0,0,0,0,1497,1785,1944,1500,1988,1000,1000,1000,1000,1000,1499,1500,1500,1000,2000,2000,0,0,16,0,0,14,100
212055642,212055532,-1,-42.0,0,0,0,1499,1766,1787,1522,1988,1000,1000,1000,1000,1000,1499,1500,1500,1000,2000,2000,0,0,16,0,0,14,100
212555663,212555628,-1,-42.0,0,0,0,1499,1578,1755,1500,1988,1000,1000,1000,1000,1000,1499,1500,1500,1000,2000,2000,0,0,16,0,0,14,100
213055421,213055401,-1,-43.0,0,0,0,1500,1500,1746,1500,1988,1000,1000,1000,1000,1000,1499,1500,1500,1000,2000,2000,0,0,16,0,0,14,100
213555408,213555388,-1,-44.0,0,0,0,1500,1500,1745,1499,1988,1000,1000,1000,1000,1000,1499,1500,1500,1000,2000,2000,0,0,16,0,0,14,100
214055409,214055389,-1,-45.0,0,0,0,1500,1500,1746,1500,1988,1000,1000,1000,1000,1000,1499,1500,1500,1000,2000,2000,0,0,16,0,0,14,100
214555477,214555458,-1,-45.0,0,0,0,1500,1500,1746,1499,1988,1000,1000,1000,1000,1000,1499,1500,1500,1000,2000,2000,0,0,16,0,0,14,100
215055427,215055407,-1,-45.0,0,0,0,1500,1500,1746,1500,1988,1000,1000,1000,1000,1000,1499,1500,1500,1000,2000,2000,0,0,16,0,0,14,100
215555460,215555440,-1,-46.0,0,0,0,1500,1568,1739,1499,1988,1000,1000,1000,1000,1000,1499,1500,1500,1000,2000,2000,0,0,16,0,0,14,100
216055325,216055304,-1,-45.0,0,0,0,1499,1723,1737,1499,1988,1000,1000,1000,1000,1000,1499,1500,1500,1000,2000,2000,0,0,16,0,0,14,100
216555434,216555412,-1,-46.0,0,0,0,1500,1756,1728,1500,1988,1000,1000,1000,1000,1000,1499,1500,1500,1000,2000,2000,0,0,16,0,0,14,100
217055380,217055348,-1,-46.0,0,0,0,1499,1502,1729,1500,1988,1000,1000,1000,1000,1000,1499,1500,1500,1000,2000,2000,0,0,16,0,0,14,100
217555405,217555385,-1,-44.0,0,0,0,1500,1727,1729,1500,1988,1000,1000,1000,1000,1000,1499,1500,1500,1000,2000,2000,0,0,16,0,0,14,100
218052428,218052389,-1,-48.0,0,0,0,1497,1910,1728,1499,1988,1000,1000,1000,1000,1000,1499,1500,1500,1000,2000,2000,0,0,16,0,0,14,100
218553153,218553032,-1,-51.0,0,0,0,1499,1693,1717,1500,1988,1000,1000,1000,1000,1000,1499,1500,1500,1000,1990,1967,0,0,16,0,0,14,99
219055345,219055324,-1,-48.0,0,0,0,1499,1658,1695,1499,1988,1000,1000,1000,1000,1000,1499,1500,1500,1000,1990,2000,0,0,16,0,0,14,99
219563431,219555296,-1,-46.0,0,0,0,1499,1699,1655,1500,1988,1000,1000,1000,1000,1000,1499,1500,1500,1000,1990,2000,0,0,16,0,0,14,99
220064070,220055398,-1,-46.0,0,0,0,1499,1680,1657,1499,1988,1000,1000,1000,1000,1000,1499,1500,1500,1000,1969,2000,0,0,16,0,0,14,97
221055303,221055283,-1,-46.0,0,0,0,1500,1500,1658,1499,1988,1000,1000,1000,1000,1000,1499,1500,1500,1000,1980,2000,0,0,16,0,0,14,98
221555314,221555284,-1,-45.0,0,0,0,1500,1500,1657,1500,1988,1000,1000,1000,1000,1000,1499,1500,1500,1000,1980,2000,0,0,16,0,0,14,98
222055221,222055199,-1,-46.0,0,0,0,1500,1500,1657,1500,1988,1000,1000,1000,1000,1000,1499,1500,1500,1000,2000,2000,0,0,16,0,0,14,100
222555460,222555440,-1,-47.0,0,0,0,1500,1500,1658,1500,1988,1000,1000,1000,1000,1000,1499,1500,1500,1000,2000,2000,0,0,16,0,0,14,100
223055160,223055141,-1,-46.0,0,0,0,1500,1500,1656,1500,1988,1000,1000,1000,1000,1000,1499,1500,1500,1000,1959,2000,0,0,16,0,0,14,96
223555293,223555272,-1,-46.0,0,0,0,1500,1500,1657,1500,1988,1000,1000,1000,1000,1000,1499,1500,1500,1000,1959,2000,0,0,16,0,0,14,96
224055347,224055326,-1,-46.0,0,0,0,1500,1500,1658,1500,1988,1000,1000,1000,1000,1000,1499,1500,1500,1000,1959,2000,0,0,16,0,0,14,96
224555200,224555139,-1,-46.0,0,0,0,1500,1500,1657,1500,1988,1000,1000,1000,1000,1000,1499,1500,1500,1000,1959,2000,0,0,16,0,0,14,96
225055130,225055110,-1,-46.0,0,0,0,1500,1500,1657,1500,1988,1000,1000,1000,1000,1000,1499,1500,1500,1000,2000,2000,0,0,16,0,0,14,100
225555248,225555211,-1,-47.0,0,0,0,1500,1500,1658,1499,1988,1000,1000,1000,1000,1000,1499,1500,1500,1000,2000,2000,0,0,16,0,0,14,100
226055204,226055184,-1,-48.0,0,0,0,1500,1500,1657,1499,1988,1000,1000,1000,1000,1000,1499,1500,1500,1000,1990,2000,0,0,16,0,0,14,99
226555133,226555114,-1,-48.0,0,0,0,1500,1500,1657,1499,1988,1000,1000,1000,1000,1000,1499,1500,1500,1000,1959,2000,0,0,16,0,0,14,96
227055160,227055140,-1,-49.0,0,0,0,1500,1500,1657,1499,1988,1000,1000,1000,1000,1000,1499,1500,1500,1000,1959,2000,0,0,16,0,0,14,96
227555098,227555078,-1,-49.0,0,0,0,1500,1500,1656,1500,1988,1000,1000,1000,1000,1000,1499,1500,1500,1000,1959,2000,0,0,16,0,0,14,96
228055322,228055303,-1,-50.0,0,0,0,1499,1500,1657,1500,1988,1000,1000,1000,1000,1000,1499,1500,1500,1000,1969,2000,0,0,16,0,0,14,97
228552455,228552432,-1,-50.0,0,0,0,1500,1500,1658,1500,1988,1000,1000,1000,1000,1000,1499,1500,1500,1000,2000,2000,0,0,16,0,0,14,100
229055238,229055204,-1,-50.0,0,0,0,1500,1500,1657,1499,1988,1000,1000,1000,1000,1000,1499,1500,1500,1000,2000,2000,0,0,16,0,0,14,100
229559161,229555077,-1,-49.0,0,0,0,1500,1500,1657,1499,1988,1000,1000,1000,1000,1000,1499,1500,1500,1000,1969,1920,0,0,16,0,0,14,97
230062846,230055079,-1,-49.0,0,0,0,1499,1500,1657,1500,1988,1000,1000,1000,1000,1000,1499,1500,1500,1000,1929,2000,0,0,16,0,0,14,93
230555267,230555248,-1,-48.0,0,0,0,1499,1500,1657,1500,1988,1000,1000,1000,1000,1000,1499,1500,1500,1000,1910,2000,0,0,16,0,0,14,91
231055201,231055133,-1,-50.0,0,0,0,1500,1500,1658,1499,1988,1000,1000,1000,1000,1000,1499,1500,1500,1000,1879,2000,0,0,16,0,0,14,88
231555110,231555090,-1,-50.0,0,0,0,1500,1500,1657,1499,1988,1000,1000,1000,1000,1000,1499,1500,1500,1000,1910,2000,0,0,16,0,0,14,90
232055108,232055088,-1,-50.0,0,0,0,1500,1500,1658,1500,1988,1000,1000,1000,1000,1000,1499,1500,1500,1000,1949,1984,0,0,16,0,0,14,95
232555095,232555076,-1,-51.0,0,0,0,1500,1500,1657,1500,1988,1000,1000,1000,1000,1000,1499,1500,1500,1000,1929,1984,0,0,16,0,0,14,93
233054954,233054935,-1,-52.0,0,0,0,1500,1500,1657,1500,1988,1000,1000,1000,1000,1000,1499,1500,1500,1000,1940,1984,0,0,16,0,0,14,94
233555093,233555073,-1,-54.0,0,0,0,1500,1500,1658,1500,1988,1000,1000,1000,1000,1000,1499,1500,1500,1000,1929,1935,0,0,16,0,0,14,93
235054958,235054939,-1,-50.0,0,0,0,1500,1500,1657,1500,1988,1000,1000,1000,1000,1000,1499,1500,1500,1000,1980,2000,0,0,16,0,0,14,98
235554958,235554936,-1,-50.0,0,0,0,1500,1500,1657,1499,1988,1000,1000,1000,1000,1000,1499,1500,1500,1000,1980,2000,0,0,16,0,0,14,98
236054957,236054937,-1,-50.0,0,0,0,1500,1500,1657,1500,1988,1000,1000,1000,1000,1000,1499,1500,1500,1000,1980,2000,0,0,16,0,0,14,98
236555127,236555107,-1,-50.0,0,0,0,1500,1500,1656,1499,1988,1000,1000,1000,1000,1000,1499,1500,1500,1000,1980,2000,0,0,16,0,0,14,98
237054957,237054937,-1,-50.0,0,0,0,1500,1500,1658,1500,1988,1000,1000,1000,1000,1000,1499,1500,1500,1000,1990,2000,0,0,16,0,0,14,99
237554957,237554937,-1,-50.0,0,0,0,1500,1500,1657,1499,1988,1000,1000,1000,1000,1000,1499,1500,1500,1000,1980,2000,0,0,16,0,0,14,98
238054963,238054943,-1,-49.0,0,0,0,1500,1500,1658,1499,1988,1000,1000,1000,1000,1000,1499,1500,1500,1000,1959,2000,0,0,16,0,0,14,96
238550667,238514936,-1,-50.0,0,0,0,1500,1500,1657,1500,1988,1000,1000,1000,1000,1000,1499,1500,1500,1000,1940,2000,0,0,16,0,0,14,93
239054973,239054940,-1,-51.0,0,0,0,1500,1500,1658,1499,1988,1000,1000,1000,1000,1000,1499,1500,1500,1000,1860,1984,0,0,16,0,0,14,86
239560734,239534936,-1,-44.0,0,0,0,1500,1500,1658,1499,1988,1000,1000,1000,1999,1000,1499,1500,1500,1000,1829,2000,0,0,16,0,0,14,82
240065660,240054937,-1,-36.0,0,0,0,1500,1500,1656,1499,1988,1000,1000,1000,1999,1000,1499,1500,1500,1000,1839,2000,0,0,16,0,0,14,84
240554956,240554937,-1,-37.0,0,0,0,1499,1500,1656,1500,1988,1000,1000,1000,1999,1000,1499,1500,1500,1000,1829,2000,0,0,16,0,0,14,83
241054741,241054720,-1,-46.0,0,0,0,1500,1500,1657,1499,1988,1000,1000,1000,1999,1000,1499,1500,1500,1000,1870,2000,0,0,16,0,0,14,87
241554885,241554864,-1,-43.0,0,0,0,1500,1500,1656,1499,1988,1000,1000,1000,1999,1000,1499,1500,1500,1000,1910,2000,0,0,16,0,0,14,92
242054753,242054721,-1,-42.0,0,0,0,1500,1500,1657,1500,1988,1000,1000,1000,1999,1000,1499,1500,1500,1000,1900,2000,0,0,16,0,0,14,91
242554956,242554936,-1,-43.0,0,0,0,1500,1500,1656,1499,1988,1000,1000,1000,1999,1000,1499,1500,1500,1000,1920,2000,0,0,16,0,0,14,91
243054674,243054654,-1,-42.0,0,0,0,1500,1500,1657,1500,1988,1000,1000,1000,1999,1000,1499,1500,1500,1000,1929,2000,0,0,16,0,0,14,93
243554718,243554696,-1,-47.0,0,0,0,1500,1500,1656,1499,1988,1000,1000,1000,1999,1000,1499,1500,1500,1000,1929,2000,0,0,16,0,0,14,92
244054712,244054691,-1,-43.0,0,0,0,1500,1500,1657,1500,1988,1000,1000,1000,1999,1000,1499,1500,1500,1000,1929,2000,0,0,16,0,0,14,92
244554747,244554727,-1,-37.0,0,0,0,1500,1500,1657,1500,1988,1000,1000,1000,1999,1000,1499,1500,1500,1000,1940,2000,0,0,16,0,0,14,94
245054729,245054707,-1,-52.0,0,0,0,1500,1500,1657,1499,1988,1000,1000,1000,1999,1000,1499,1500,1500,1000,1940,1967,0,0,16,0,0,14,94
245554718,245554698,-1,-47.0,0,0,0,1500,1500,1657,1500,1988,1000,1000,1000,1999,1000,1499,1500,1500,1000,1860,2000,0,0,16,0,0,14,86
246054689,246054670,-1,-47.0,0,0,0,1500,1500,1657,1499,1988,1000,1000,1000,1999,1000,1499,1500,1500,1000,1860,2000,0,0,16,0,0,14,86
246554713,246554693,-1,-50.0,0,0,0,1500,1500,1656,1500,1988,1000,1000,1000,1999,1000,1499,1500,1500,1000,1850,2000,0,0,16,0,0,14,85
247054675,247054656,-1,-42.0,0,0,0,1500,1500,1656,1499,1988,1000,1000,1000,1999,1000,1499,1500,1500,1000,1870,2000,0,0,16,0,0,14,87
248054713,248054694,-1,-40.0,0,0,0,1500,1500,1657,1500,1988,1000,1000,1000,1999,1000,1499,1500,1500,1000,1949,2000,0,0,16,0,0,14,95
248553552,248553532,-1,-54.0,0,0,0,1500,1500,1656,1500,1988,1000,1000,1000,1999,1000,1499,1500,1500,1000,1910,2000,0,0,16,0,0,14,91
249559433,249534736,-1,-51.0,0,0,0,1500,1500,1657,1499,1988,1000,1000,1000,1999,1000,1499,1500,1500,1000,1860,1984,0,0,16,0,0,14,86
250064374,250034693,-1,-51.0,0,0,0,1500,1500,1657,1499,1988,1000,1000,1000,1999,1000,1499,1500,1500,1000,1839,2000,0,0,16,0,0,14,83
250565306,250554867,-1,-41.0,0,0,0,1500,1500,1657,1500,1988,1000,1000,1000,1999,1000,1499,1500,1500,1000,1889,2000,0,0,16,0,0,14,88
251054701,251054670,-1,-41.0,0,0,0,1500,1500,1657,1500,1988,1000,1000,1000,1999,1000,1499,1500,1500,1000,1929,2000,0,0,16,0,0,14,93
251554742,251554722,-1,-42.0,0,0,0,1500,1500,1656,1499,1988,1000,1000,1000,1999,1000,1499,1500,1500,1000,1940,2000,0,0,16,0,0,14,96
252054545,252054523,-1,-49.0,0,0,0,1500,1500,1656,1499,1988,1000,1000,1000,1999,1000,1499,1500,1500,1000,1940,2000,0,0,16,0,0,14,94
252554692,252554670,-1,-47.0,0,0,0,1500,1500,1657,1500,1988,1000,1000,1000,1999,1000,1499,1500,1500,1000,1900,1984,0,0,16,0,0,14,91
253054468,253054436,-1,-51.0,0,0,0,1500,1500,1656,1500,1988,1000,1000,1000,1999,1000,1499,1500,1500,1000,1879,1902,0,0,16,0,0,14,90
253554516,253554474,-1,-48.0,0,0,0,1500,1500,1657,1500,1988,1000,1000,1000,1999,1000,1499,1500,1500,1000,1889,2000,0,0,16,0,0,14,87
254054420,254054399,-1,-50.0,0,0,0,1500,1500,1656,1500,1988,1000,1000,1000,1999,1000,1499,1500,1500,1000,1879,2000,0,0,16,0,0,14,88
254512411,254512391,-1,-49.0,0,0,0,1500,1500,1657,1500,1988,1000,1000,1000,1999,1000,1499,1500,1500,1000,1900,2000,0,0,16,0,0,14,90
255054429,255054409,-1,-39.0,0,0,0,1499,1500,1656,1499,1988,1000,1000,1000,1999,1000,1499,1500,1500,1000,1850,2000,0,0,16,0,0,14,83
255534688,255534668,-1,-37.0,0,0,0,1500,1500,1656,1500,1988,1000,1000,1000,1999,1000,1499,1500,1500,1000,1839,2000,0,0,16,0,0,14,84
256054716,256054696,-1,-39.0,0,0,0,1500,1500,1657,1499,1988,1000,1000,1000,1999,1000,1499,1500,1500,1000,1860,2000,0,0,16,0,0,14,86
256554420,256554400,-1,-37.0,0,0,0,1500,1500,1656,1499,1988,1000,1000,1000,1999,1000,1499,1500,1500,1000,1870,2000,0,0,16,0,0,14,86
257554423,257554402,-1,-40.0,0,0,0,1500,1500,1656,1500,1988,1000,1000,1000,1999,1000,1499,1500,1500,1000,1959,2000,0,0,16,0,0,14,96
258054551,258054530,-1,-50.0,0,0,0,1500,1500,1656,1499,1988,1000,1000,1000,1999,1000,1499,1500,1500,1000,1940,2000,0,0,16,0,0,14,94
258552424,258552386,-1,-46.0,0,0,0,1500,1500,1657,1500,1988,1000,1000,1000,1999,1000,1499,1500,1500,1000,1949,2000,0,0,16,0,0,14,95
259053169,259053135,-1,-48.0,0,0,0,1500,1500,1657,1499,1988,1000,1000,1000,1999,1000,1499,1500,1500,1000,1929,2000,0,0,16,0,0,14,93
259554456,259554315,-1,-49.0,0,0,0,1500,1500,1656,1499,1988,1000,1000,1000,1999,1000,1499,1500,1500,1000,1920,2000,0,0,16,0,0,14,92
260063209,260054370,-1,-51.0,0,0,0,1499,1500,1657,1499,1988,1000,1000,1000,1999,1000,1499,1500,1500,1000,1920,1984,0,0,16,0,0,14,92
260564060,260554282,-1,-50.0,0,0,0,1500,1500,1656,1499,1988,1000,1000,1000,1999,1000,1499,1500,1500,1000,1910,2000,0,0,16,0,0,14,91
261054414,261054303,-1,-49.0,0,0,0,1500,1500,1657,1499,1988,1000,1000,1000,1999,1000,1499,1500,1500,1000,1900,1920,0,0,16,0,0,14,91
261554397,261554282,-1,-50.0,0,0,0,1500,1500,1656,1500,1988,1000,1000,1000,1999,1000,1499,1500,1500,1000,1889,1920,0,0,16,0,0,14,90
262054395,262054375,-1,-53.0,0,0,0,1500,1500,1657,1499,1988,1000,1000,1000,1999,1000,1499,1500,1500,1000,1900,1967,0,0,16,0,0,14,90
262554413,262554391,-1,-52.0,0,0,0,1500,1500,1657,1500,1988,1000,1000,1000,1999,1000,1499,1500,1500,1000,1920,1951,0,0,16,0,0,14,92
263034415,263034305,-1,-53.0,0,0,0,1500,1500,1657,1499,1988,1000,1000,1000,1999,1000,1499,1500,1500,1000,1940,1951,0,0,16,0,0,14,94
263554403,263554293,-1,-52.0,0,0,0,1500,1500,1656,1500,1988,1000,1000,1000,1999,1000,1499,1500,1500,1000,1959,1951,0,0,16,0,0,14,95
264054288,264054268,-1,-52.0,0,0,0,1499,1500,1657,1499,1988,1000,1000,1000,1999,1000,1499,1500,1500,1000,1990,1967,0,0,16,0,0,14,99
264554375,264554282,-1,-54.0,0,0,0,1500,1500,1656,1500,1988,1000,1000,1000,1999,1000,1499,1500,1500,1000,1990,1935,0,0,16,0,0,14,99
265054411,265054389,-1,-54.0,0,0,0,1500,1500,1655,1500,1988,1000,1000,1000,1999,1000,1499,1500,1500,1000,1969,1920,0,0,16,0,0,14,97
265554288,265554268,-1,-54.0,0,0,0,1500,1500,1656,1499,1988,1000,1000,1000,1999,1000,1499,1500,1500,1000,1980,1920,0,0,16,0,0,14,98
266054377,266054284,-1,-50.0,0,0,0,1500,1500,1657,1500,1988,1000,1000,1000,1999,1000,1499,1500,1500,1000,1929,2000,0,0,16,0,0,14,93
266554143,266554123,-1,-47.0,0,0,0,1499,1500,1656,1500,1988,1000,1000,1000,1999,1000,1499,1500,1500,1000,1920,2000,0,0,16,0,0,14,92
267054288,267054267,-1,-47.0,0,0,0,1500,1500,1656,1500,1988,1000,1000,1000,1999,1000,1499,1500,1500,1000,1940,2000,0,0,16,0,0,14,94
267554394,267554282,-1,-47.0,0,0,0,1500,1500,1656,1500,1988,1000,1000,1000,1999,1000,1499,1500,1500,1000,1940,2000,0,0,16,0,0,14,94
268054374,268054282,-1,-47.0,0,0,0,1500,1500,1656,1499,1988,1000,1000,1000,1999,1000,1499,1500,1500,1000,1969,2000,0,0,16,0,0,14,97
268551277,268551255,-1,-47.0,0,0,0,1500,1500,1656,1500,1988,1000,1000,1000,1999,1000,1499,1500,1500,1000,1980,2000,0,0,16,0,0,14,98
269052447,269034159,-1,-47.0,0,0,0,1499,1500,1656,1500,1988,1000,1000,1000,1999,1000,1499,1500,1500,1000,1980,2000,0,0,16,0,0,14,98
269554141,269554120,-1,-50.0,0,0,0,1500,1500,1656,1500,1988,1000,1000,1000,1999,1000,1499,1500,1500,1000,1940,2000,0,0,16,0,0,14,94
270058401,270054118,-1,-69.0,0,0,0,1500,1500,1657,1500,1988,1000,1000,1000,1999,1000,1499,1500,1500,1000,1949,1694,0,0,16,0,0,14,95
270562856,270554116,-1,-57.0,0,0,0,1499,1500,1656,1500,1988,1000,1000,1000,1999,1000,1499,1500,1500,1000,1940,1967,0,0,16,0,0,14,94
271054051,271054030,-1,-49.0,0,0,0,1500,1500,1656,1499,1988,1000,1000,1000,1999,1000,1499,1500,1500,1000,1900,2000,0,0,16,0,0,14,90
272054083,272054063,-1,-56.0,0,0,0,1500,1500,1657,1500,1988,1000,1000,1000,1999,1000,1499,1500,1500,1000,1920,1887,0,0,16,0,0,14,93
272554114,272554095,-1,-56.0,0,0,0,1499,1500,1656,1500,1988,1000,1000,1000,1999,1000,1499,1500,1500,1000,1910,1920,0,0,16,0,0,14,91
273054061,273054040,-1,-57.0,0,0,0,1500,1500,1657,1500,1988,1000,1000,1000,1999,1000,1499,1500,1500,1000,1940,1823,0,0,16,0,0,14,94
274054393,274054282,-1,-56.0,0,0,0,1500,1500,1656,1499,1988,1000,1000,1000,1999,1000,1499,1500,1500,1000,1940,1790,0,0,16,0,0,14,94
274553991,274553970,-1,-63.0,0,0,0,1500,1500,1656,1500,1988,1000,1000,1000,1999,1000,1499,1500,1500,1000,1959,1887,0,0,16,0,0,14,96
275053987,275053966,-1,-52.0,0,0,0,1500,1500,1656,1500,1988,1000,1000,1000,1999,1000,1499,1500,1500,1000,1949,1967,0,0,16,0,0,14,95
275554070,275554049,-1,-50.0,0,0,0,1499,1500,1657,1499,1988,1000,1000,1000,1999,1000,1499,1500,1500,1000,1929,2000,0,0,16,0,0,14,93
276034289,276034251,-1,-54.0,0,0,0,1499,1500,1657,1499,1988,1000,1000,1000,1999,1000,1499,1500,1500,1000,1940,1935,0,0,16,0,0,14,94
276554040,276554020,-1,-62.0,0,0,0,1500,1500,1657,1499,1988,1000,1000,1000,1999,1000,1499,1500,1500,1000,1839,1984,0,0,16,0,0,14,84
277030665,277013967,-1,-40.0,0,0,0,1500,1500,1657,1499,1988,1000,1000,1000,1999,1000,1499,1500,1500,1000,1839,2000,0,0,16,0,0,14,84
277553988,277553967,-1,-33.0,0,0,0,1500,1500,1656,1500,1988,1000,1000,1000,1999,1000,1499,1500,1500,1000,1790,2000,0,0,16,0,0,14,79
278053986,278053966,-1,-36.0,0,0,0,1499,1500,1656,1500,1988,1000,1000,1000,1999,1000,1499,1500,1500,1000,1810,2000,0,0,16,0,0,14,81
278554019,278553997,-1,-37.0,0,0,0,1499,1500,1657,1500,1988,1000,1000,1000,1999,1000,1499,1500,1500,1000,1910,2000,0,0,16,0,0,14,91
279050645,279050534,-1,-50.0,0,0,0,1500,1500,1656,1500,1988,1000,1000,1000,1999,1000,1499,1500,1500,1000,1929,2000,0,0,16,0,0,14,93
279553993,279553969,-1,-50.0,0,0,0,1499,1500,1656,1500,1988,1000,1000,1000,1999,1000,1499,1500,1500,1000,1990,2000,0,0,16,0,0,14,99
280565657,280553963,-1,-48.0,0,0,0,1500,1500,1656,1499,1988,1000,1000,1000,1999,1000,1499,1500,1500,1000,1969,2000,0,0,16,0,0,14,97
281053992,281053970,-1,-48.0,0,0,0,1500,1500,1656,1499,1988,1000,1000,1000,1999,1000,1499,1500,1500,1000,1959,2000,0,0,16,0,0,14,95
281554060,281554041,-1,-47.0,0,0,0,1500,1500,1656,1500,1988,1000,1000,1000,1999,1000,1499,1500,1500,1000,1949,2000,0,0,16,0,0,14,95
282054029,282054008,-1,-48.0,0,0,0,1500,1500,1657,1500,1988,1000,1000,1000,1999,1000,1499,1500,1500,1000,1949,2000,0,0,16,0,0,14,95
282534608,282534587,-1,-48.0,0,0,0,1500,1500,1656,1500,1988,1000,1000,1000,1999,1000,1499,1500,1500,1000,1969,2000,0,0,16,0,0,14,97
283054001,283053967,-1,-48.0,0,0,0,1500,1500,1657,1499,1988,1000,1000,1000,1999,1000,1499,1500,1500,1000,1969,2000,0,0,16,0,0,14,97
283554017,283553995,-1,-49.0,0,0,0,1500,1500,1657,1499,1988,1000,1000,1000,1999,1000,1499,1500,1500,1000,1969,2000,0,0,16,0,0,14,97
284053990,284053967,-1,-52.0,0,0,0,1499,1500,1657,1499,1988,1000,1000,1000,1999,1000,1499,1500,1500,1000,1929,1758,0,0,16,0,0,14,94
284553985,284553964,-1,-50.0,0,0,0,1499,1500,1657,1500,1988,1000,1000,1000,1999,1000,1499,1500,1500,1000,1910,2000,0,0,16,0,0,14,91
285553990,285553968,-1,-50.0,0,0,0,1500,1500,1656,1500,1988,1000,1000,1000,1999,1000,1499,1500,1500,1000,1940,2000,0,0,16,0,0,14,94
286053989,286053968,-1,-50.0,0,0,0,1500,1500,1656,1500,1988,1000,1000,1000,1999,1000,1499,1500,1500,1000,1980,2000,0,0,16,0,0,14,98
286553991,286553970,-1,-47.0,0,0,0,1500,1500,1657,1499,1988,1000,1000,1000,1999,1000,1499,1500,1500,1000,1980,2000,0,0,16,0,0,14,98
287054021,287054000,-1,-48.0,0,0,0,1500,1500,1656,1499,1988,1000,1000,1000,1999,1000,1499,1500,1500,1000,1949,2000,0,0,16,0,0,14,95
287553989,287553967,-1,-48.0,0,0,0,1500,1500,1656,1499,1988,1000,1000,1000,1999,1000,1499,1500,1500,1000,1940,2000,0,0,16,0,0,14,94
288053650,288053630,-1,-48.0,0,0,0,1499,1500,1657,1500,1988,1000,1000,1000,1999,1000,1499,1500,1500,1000,1940,2000,0,0,16,0,0,14,94
288554025,288554005,-1,-48.0,0,0,0,1500,1500,1656,1499,1988,1000,1000,1000,1999,1000,1499,1500,1500,1000,1959,2000,0,0,16,0,0,14,96
289053556,289053535,-1,-48.0,0,0,0,1500,1500,1656,1500,1988,1000,1000,1000,1999,1000,1499,1500,1500,1000,1990,2000,0,0,16,0,0,14,99
289553705,289553637,-1,-49.0,0,0,0,1500,1500,1657,1500,1988,1000,1000,1000,1999,1000,1499,1500,1500,1000,1969,2000,0,0,16,0,0,14,97
290058331,290053701,-1,-48.0,0,0,0,1499,1500,1657,1499,1988,1000,1000,1000,1999,1000,1499,1500,1500,1000,1959,2000,0,0,16,0,0,14,96
290564373,290553625,-1,-49.0,0,0,0,1500,1500,1657,1500,1988,1000,1000,1000,1999,1000,1499,1500,1500,1000,1959,2000,0,0,16,0,0,14,96
291065243,291053586,-1,-49.0,0,0,0,1500,1500,1656,1500,1988,1000,1000,1000,1999,1000,1499,1500,1500,1000,1959,2000,0,0,16,0,0,14,96
291553571,291553550,-1,-50.0,0,0,0,1500,1500,1656,1500,1988,1000,1000,1000,1999,1000,1499,1500,1500,1000,1980,1935,0,0,16,0,0,14,97
292053598,292053577,-1,-50.0,0,0,0,1500,1500,1657,1499,1988,1000,1000,1000,1999,1000,1499,1500,1500,1000,1990,2000,0,0,16,0,0,14,98
292553580,292553559,-1,-51.0,0,0,0,1500,1500,1656,1500,1988,1000,1000,1000,1999,1000,1499,1500,1500,1000,1990,1984,0,0,16,0,0,14,99
293053625,293053605,-1,-51.0,0,0,0,1500,1500,1657,1500,1988,1000,1000,1000,1999,1000,1499,1500,1500,1000,1959,2000,0,0,16,0,0,14,96
293554029,293553996,-1,-51.0,0,0,0,1500,1500,1656,1499,1988,1000,1000,1000,1999,1000,1499,1500,1500,1000,1949,1984,0,0,16,0,0,14,94
294053583,294053563,-1,-50.0,0,0,0,1500,1500,1656,1499,1988,1000,1000,1000,1999,1000,1499,1500,1500,1000,1940,1984,0,0,16,0,0,14,94
294553565,294553545,-1,-50.0,0,0,0,1500,1500,1656,1499,1988,1000,1000,1000,1999,1000,1499,1500,1500,1000,1929,1984,0,0,16,0,0,14,93
295053592,295053569,-1,-51.0,0,0,0,1500,1500,1656,1499,1988,1000,1000,1000,1999,1000,1499,1500,1500,1000,1910,1984,0,0,16,0,0,14,91
295553572,295553553,-1,-52.0,0,0,0,1499,1500,1656,1500,1988,1000,1000,1000,1999,1000,1499,1500,1500,1000,1929,1967,0,0,16,0,0,14,93
296053974,296053701,-1,-52.0,0,0,0,1285,1496,1657,1499,1988,1000,1000,1000,1999,1000,1499,1500,1500,1000,1940,1967,0,0,16,0,0,14,94
296553548,296553517,-1,-48.0,0,0,0,1146,1466,1657,1500,1988,1000,1000,1000,1999,1000,1499,1500,1500,1000,1910,1951,0,0,16,0,0,14,91
297053562,297053541,-1,-49.0,0,0,0,1317,1578,1657,1499,1988,1000,1000,1000,1999,1000,1499,1500,1500,1000,1949,2000,0,0,16,0,0,14,95
297533262,297513545,-1,-52.0,0,0,0,1366,1667,1656,1499,1988,1000,1000,1000,1999,1000,1499,1500,1500,1000,1929,1967,0,0,16,0,0,14,93
298553548,298553528,-1,-43.0,0,0,0,1407,1646,1395,1500,1988,1000,1000,1000,1999,1000,1499,1500,1500,1000,1920,2000,0,0,16,0,0,14,92
299052499,299052456,-1,-45.0,0,0,0,1402,1651,1330,1500,1988,1000,1000,1000,1999,1000,1499,1500,1500,1000,1929,2000,0,0,16,0,0,14,93
299553209,299553136,-1,-46.0,0,0,0,1411,1663,1316,1500,1988,1000,1000,1000,1999,1000,1499,1500,1500,1000,1940,2000,0,0,16,0,0,14,94
300057634,300053549,-1,-46.0,0,0,0,1440,1552,1290,1500,1988,1000,1000,1000,1999,1000,1499,1500,1500,1000,1949,2000,0,0,16,0,0,14,95
300563188,300553538,-1,-46.0,0,0,0,1468,1501,1231,1500,1988,1000,1000,1000,1999,1000,1499,1500,1500,1000,1969,1984,0,0,16,0,0,14,97
301064048,301053540,-1,-51.0,0,0,0,1500,1500,1167,1500,1988,1000,1000,1000,1999,1000,1499,1500,1500,1000,1969,1984,0,0,16,0,0,14,97
301553591,301553571,-1,-51.0,0,0,0,1500,1500,1112,1500,1988,1000,1000,1000,1999,1000,1499,1500,1500,1000,1990,1984,0,0,16,0,0,14,99
302053557,302053536,-1,-49.0,0,0,0,1500,1499,1073,1500,1988,1000,1000,1000,1999,1000,1499,1500,1500,1000,1980,2000,0,0,16,0,0,14,99
302553546,302553526,-1,-49.0,0,0,0,1500,1500,1036,1500,1988,1000,1000,1000,1999,1000,1499,1500,1500,1000,1959,1935,0,0,16,0,0,14,97
303053311,303053290,-1,-50.0,0,0,0,1501,1497,1000,1500,1988,1000,1000,1000,1999,1000,1499,1500,1500,1000,1949,2000,0,0,16,0,0,14,95
303553330,303553297,-1,-48.0,0,0,0,1510,1458,1000,1500,1988,1000,1000,1000,1999,1000,1499,1500,1500,1000,1940,2000,0,0,16,0,0,14,94
304053573,304053552,-1,-49.0,0,0,0,1596,1496,1000,1500,1988,1000,1000,1000,1999,1000,1499,1500,1500,1000,1949,1887,0,0,16,0,0,14,96
305053548,305053527,-1,-42.0,0,0,0,1512,1499,1000,1500,1988,1000,1000,1000,1999,1000,1499,1500,1500,1000,1949,2000,0,0,16,0,0,14,95
305553534,305553514,-1,-44.0,0,0,0,1501,1500,1000,1500,1988,1000,1000,1000,1999,1000,1499,1500,1500,1000,1929,2000,0,0,16,0,0,14,94
306053269,306053227,-1,-40.0,0,0,0,1500,1500,1000,1500,1988,1000,1000,1000,1999,1000,1499,1500,1500,1000,1920,2000,0,0,16,0,0,14,91
306553544,306553524,-1,-38.0,0,0,0,1500,1500,1000,1500,1988,1000,1000,1000,1999,1000,1499,1500,1500,1000,1920,2000,0,0,16,0,0,14,92
307053501,307053481,-1,-42.0,0,0,0,1500,1499,1000,1500,1988,1000,1000,1000,1999,1000,1499,1500,1500,1000,1929,2000,0,0,16,0,0,14,93
307553265,307553224,-1,-49.0,0,0,0,1500,1500,1000,1500,1988,1000,1000,1000,1999,1000,1499,1500,1500,1000,1949,2000,0,0,16,0,0,14,95
308053308,308053286,-1,-50.0,0,0,0,1500,1500,1000,1500,1988,1000,1000,1000,1999,1000,1499,1500,1500,1000,1949,2000,0,0,16,0,0,14,95
308553248,308553227,-1,-48.0,0,0,0,1500,1500,1000,1500,1988,1000,1000,1000,1999,1000,1499,1500,1500,1000,1969,2000,0,0,16,0,0,14,97
309051281,309051260,-1,-47.0,0,0,0,1499,1500,1000,1500,1988,1000,1000,1000,1999,1000,1499,1500,1500,1000,1969,2000,0,0,16,0,0,14,97
309552690,309552657,-1,-48.0,0,0,0,1500,1500,1000,1500,1988,1000,1000,1000,1999,1000,1499,1500,1500,1000,1959,2000,0,0,16,0,0,14,96
310053251,310053228,-1,-47.0,0,0,0,1500,1500,1000,1500,1988,1000,1000,1000,1999,1000,1499,1500,1500,1000,1980,2000,0,0,16,0,0,14,98
310562679,310553137,-1,-47.0,0,0,0,1500,1500,1000,1500,1988,1000,1000,1000,1000,1000,1499,1500,1500,1000,1980,2000,0,0,16,0,0,14,98
311062796,311053158,-1,-46.0,0,0,0,1500,1500,1000,1499,1988,1000,1000,1000,1000,1000,1499,1500,1500,1000,1949,2000,0,0,16,0,0,14,95
312053164,312053143,-1,-47.0,0,0,0,1500,1500,1000,1500,1988,1000,1000,1000,1000,1000,1499,1500,1500,1000,1969,2000,0,0,16,0,0,14,97
312533154,312533134,-1,-47.0,0,0,0,1499,1500,1000,1500,1988,1000,1000,1000,1000,1000,1499,1500,1500,1000,1959,1838,0,0,16,0,0,14,97
313053176,313053156,-1,-53.0,0,0,0,1499,1499,1000,1499,1988,1000,1000,1000,1000,1000,1499,1500,1500,1000,1980,1951,0,0,16,0,0,14,98
313553234,313553213,-1,-49.0,0,0,0,1500,1500,1000,1500,1988,1000,1000,1000,1000,1000,1499,1500,1500,1000,1959,1920,0,0,16,0,0,14,97
314053152,314053043,-1,-46.0,0,0,0,1474,1500,1000,1500,1988,1000,1000,1000,1000,1000,1499,1500,1500,1000,1940,2000,0,0,16,0,0,14,94
314553314,314553272,-1,-44.0,0,0,0,1446,1500,1000,1500,1988,1000,1000,1000,1000,1000,1499,1500,1500,1000,1929,2000,0,0,16,0,0,14,93
315053190,315053152,-1,-50.0,0,0,0,1453,1500,1000,1500,1988,1000,1000,1000,1000,1000,1499,1500,1500,1000,1929,2000,0,0,16,0,0,14,93
315553299,315553279,-1,-47.0,0,0,0,1336,1499,1000,1500,1988,1000,1000,1000,1000,1000,1499,1500,1500,1000,1929,2000,0,0,16,0,0,14,92
316053183,316053138,-1,-46.0,0,0,0,1356,1500,1000,1500,1988,1000,1000,1000,1000,1000,1499,1500,1500,1000,1910,2000,0,0,16,0,0,14,91
316553140,316553032,-1,-46.0,0,0,0,1356,1500,1000,1500,1988,1000,1000,1000,1000,1000,1499,1500,1500,1000,1910,2000,0,0,16,0,0,14,91
317053190,317053154,-1,-48.0,0,0,0,1380,1500,1000,1500,1988,1000,1000,1000,1000,1000,1499,1500,1500,1000,1920,2000,0,0,16,0,0,14,92
318053264,318053225,-1,-48.0,0,0,0,1500,1500,1000,1499,1988,1000,1000,1000,1000,1000,1499,1500,1500,1000,1940,2000,0,0,16,0,0,14,94
318552959,318552926,-1,-47.0,0,0,0,1500,1500,1000,1500,1988,1000,1000,1000,1000,1000,1499,1500,1500,1000,1959,2000,0,0,16,0,0,14,96
319049711,319049690,-1,-45.0,0,0,0,1500,1500,1000,1500,1988,1000,1000,1000,1000,1000,1499,1500,1500,1000,1949,2000,0,0,16,0,0,14,95
319550657,319532919,-1,-46.0,0,0,0,1425,1499,1000,1500,1988,1000,1000,1000,1000,1000,1499,1500,1500,1000,1969,2000,0,0,16,0,0,14,97
320053267,320053224,-1,-46.0,0,0,0,1411,1500,1000,1499,1988,1000,1000,1000,1000,1000,1499,1500,1500,1000,1969,2000,0,0,16,0,0,14,97
320557125,320552944,-1,-48.0,0,0,0,1499,1500,1000,1500,1988,1000,1000,1000,1000,1000,1499,1500,1500,1000,1969,2000,0,0,16,0,0,14,97
321065686,321052919,-1,-50.0,0,0,0,1499,1500,1000,1500,1988,1000,1000,1000,1000,1000,1499,1500,1500,1000,1949,2000,0,0,16,0,0,14,95
321552941,321552920,-1,-50.0,0,0,0,1500,1500,1000,1500,1988,1000,1000,1000,1000,1000,1499,1500,1500,1000,1949,2000,0,0,16,0,0,14,95
322052868,322052848,-1,-53.0,0,0,0,1499,1500,1039,1499,1988,1000,1000,1000,1000,1000,1499,1500,1500,1000,1949,1838,0,0,16,0,0,14,96
322552940,322552921,-1,-51.0,0,0,0,1490,1500,1090,1499,1988,1000,1000,1000,1000,1000,1499,1500,1500,1000,1940,1984,0,0,16,0,0,14,94
323052957,323052937,-1,-44.0,0,0,0,1499,1500,1133,1499,1988,1000,1000,1000,1000,1000,1499,1500,1500,1000,1959,2000,0,0,16,0,0,14,95
323552939,323552919,-1,-53.0,0,0,0,1497,1500,1222,1499,1988,1000,1000,1000,1000,1000,1499,1500,1500,1000,1940,1951,0,0,16,0,0,14,94
324052950,324052930,-1,-52.0,0,0,0,1497,1501,1206,1499,1988,1000,1000,1000,1000,1000,1499,1500,1500,1000,1959,1967,0,0,16,0,0,14,95
324552869,324552849,-1,-50.0,0,0,0,1497,1500,1233,1497,1988,1000,1000,1000,1000,1000,1499,1500,1500,1000,1959,2000,0,0,16,0,0,14,96
325052864,325052844,-1,-48.0,0,0,0,1500,1500,1229,1499,1988,1000,1000,1000,1000,1000,1499,1500,1500,1000,1969,2000,0,0,16,0,0,14,97
325552877,325552857,-1,-46.0,0,0,0,1499,1501,1236,1499,1988,1000,1000,1000,1000,1000,1499,1500,1500,1000,1980,2000,0,0,16,0,0,14,99
326052864,326052841,-1,-43.0,0,0,0,1500,1629,1230,1499,1988,1000,1000,1000,1000,1000,1499,1500,1500,1000,1980,2000,0,0,16,0,0,14,98
326552866,326552846,-1,-42.0,0,0,0,1500,1613,1234,1499,1988,1000,1000,1000,1000,1000,1499,1500,1500,1000,1990,2000,0,0,16,0,0,14,99
327052867,327052846,-1,-42.0,0,0,0,1500,1606,1255,1499,1988,1000,1000,1000,1000,1000,1499,1500,1500,1000,1990,2000,0,0,16,0,0,14,99
327552865,327552842,-1,-42.0,0,0,0,1500,1585,1263,1499,1988,1000,1000,1000,1000,1000,1499,1500,1500,1000,2000,2000,0,0,16,0,0,14,100
328052867,328052844,-1,-44.0,0,0,0,1500,1577,1302,1497,1988,1000,1000,1000,1000,1000,1499,1500,1500,1000,1990,2000,0,0,16,0,0,14,99
328552864,328552843,-1,-47.0,0,0,0,1500,1514,1308,1499,1988,1000,1000,1000,1000,1000,1499,1500,1500,1000,1980,1920,0,0,16,0,0,14,98
329052857,329052836,-1,-51.0,0,0,0,1535,1523,1333,1500,1988,1000,1000,1000,1000,1000,1499,1500,1500,1000,1980,1984,0,0,16,0,0,14,98
329549532,329549478,-1,-51.0,0,0,0,1572,1558,1356,1499,1988,1000,1000,1000,1000,1000,1499,1500,1500,1000,1969,1984,0,0,16,0,0,14,97
330052879,330052843,-1,-51.0,0,0,0,1501,1511,1405,1497,1988,1000,1000,1000,1000,1000,1499,1500,1500,1000,1980,1984,0,0,16,0,0,14,98
330557082,330552859,-1,-51.0,0,0,0,1644,1533,1385,1499,1988,1000,1000,1000,1000,1000,1499,1500,1500,1000,1990,1984,0,0,16,0,0,14,99
331064376,331052703,-1,-51.0,0,0,0,1528,1501,1396,1499,1988,1000,1000,1000,1000,1000,1499,1500,1500,1000,1990,1984,0,0,16,0,0,14,99
331565271,331552681,-1,-51.0,0,0,0,1557,1502,1397,1499,1988,1000,1000,1000,1000,1000,1499,1500,1500,1000,2000,1967,0,0,16,0,0,14,100
332052842,332052821,-1,-51.0,0,0,0,1500,1503,1449,1497,1988,1000,1000,1000,1000,1000,1499,1500,1500,1000,2000,1984,0,0,16,0,0,14,100
332552939,332552919,-1,-51.0,0,0,0,1500,1500,1457,1497,1988,1000,1000,1000,1000,1000,1499,1500,1500,1000,2000,2000,0,0,16,0,0,14,100
333032716,333032697,-1,-51.0,0,0,0,1584,1583,1446,1499,1988,1000,1000,1000,1000,1000,1499,1500,1500,1000,2000,2000,0,0,16,0,0,14,100
333552705,333552686,-1,-41.0,0,0,0,1500,1556,1468,1497,1988,1000,1000,1000,1000,1000,1499,1500,1500,1000,1990,2000,0,0,16,0,0,14,99
334052718,334052698,-1,-40.0,0,0,0,1500,1555,1480,1497,1988,1000,1000,1000,1000,1000,1499,1500,1500,1000,1990,2000,0,0,16,0,0,14,99
334552869,334552846,-1,-39.0,0,0,0,1501,1563,1580,1495,1988,1000,1000,1000,1000,1000,1499,1500,1500,1000,1990,2000,0,0,16,0,0,14,99
335052657,335052636,-1,-39.0,0,0,0,1500,1556,1606,1473,1988,1000,1000,1000,1000,1000,1499,1500,1500,1000,1990,2000,0,0,16,0,0,14,99
335552877,335552857,-1,-38.0,0,0,0,1499,1551,1702,1458,1988,1000,1000,1000,1000,1000,1499,1500,1500,1000,2000,2000,0,0,16,0,0,14,100
336052705,336052683,-1,-38.0,0,0,0,1497,1500,1617,1488,1988,1000,1000,1000,1000,1000,1499,1500,1500,1000,2000,2000,0,0,16,0,0,14,100
336552865,336552845,-1,-39.0,0,0,0,1499,1500,1622,1499,1988,1000,1000,1000,1000,1000,1499,1500,1500,1000,2000,2000,0,0,16,0,0,14,100
337052539,337052520,-1,-39.0,0,0,0,1500,1501,1407,1499,1988,1000,1000,1000,1000,1000,1499,1500,1500,1000,2000,2000,0,0,16,0,0,14,100
337552557,337552537,-1,-38.0,0,0,0,1500,1500,1223,1499,1988,1000,1000,1000,1000,1000,1499,1500,1500,1000,2000,2000,0,0,16,0,0,14,100
338052543,338052523,-1,-38.0,0,0,0,1500,1501,1064,1499,1988,1000,1000,1000,1000,1000,1499,1500,1500,1000,2000,2000,0,0,16,0,0,14,100
338552875,338552844,-1,-37.0,0,0,0,1497,1502,1000,1482,1988,1000,1000,1000,1000,1000,1499,1500,1500,1000,2000,2000,0,0,16,0,0,14,100
339552660,339552638,-1,-37.0,0,0,0,1500,1500,1000,1489,1988,1000,1000,1000,1000,1000,1499,1500,1500,1000,2000,2000,0,0,16,0,0,14,100
340052538,340052516,-1,-37.0,0,0,0,1499,1500,1000,1436,1988,1000,1000,1000,1000,1000,1499,1500,1500,1000,2000,2000,0,0,16,0,0,14,100
340556639,340552509,-1,-38.0,0,0,0,1500,1500,1000,1000,1988,1000,1000,1000,1000,1000,1499,1500,1500,1000,2000,2000,0,0,16,0,0,14,100
341063190,341052640,-1,-38.0,0,0,0,1500,1500,1000,1500,1988,1000,1000,1000,1000,1000,1499,1500,1500,1000,2000,2000,0,0,16,0,0,14,100
341564168,341552633,-1,-37.0,0,0,0,1500,1500,1000,1500,1988,1000,1000,1000,1000,1000,1499,1500,1500,1000,2000,2000,0,0,16,0,0,14,100
342052703,342052684,-1,-37.0,0,0,0,1500,1500,1000,1499,1988,1000,1000,1000,1000,1000,1499,1500,1500,1000,2000,2000,0,0,16,0,0,14,100
342552715,342552695,-1,-37.0,0,0,0,1500,1500,1000,1500,1988,1000,1000,1000,1000,1000,1499,1500,1500,1000,2000,2000,0,0,16,0,0,14,100
343052402,343052383,-1,-37.0,0,0,0,1500,1500,1000,1499,1988,1000,1000,1000,1000,1000,1499,1500,1500,1000,1990,2000,0,0,16,0,0,14,99
343552395,343552376,-1,-37.0,0,0,0,1499,1500,1000,1500,1988,1000,1000,1000,1000,1000,1499,1500,1500,1000,1990,2000,0,0,16,0,0,14,99
344052414,344052383,-1,-37.0,0,0,0,1500,1500,1000,1499,1988,1000,1000,1000,1000,1000,1499,1500,1500,1000,1990,2000,0,0,16,0,0,14,99
344552635,344552615,-1,-38.0,0,0,0,1500,1500,1000,1500,1988,1000,1000,1000,1000,1000,1499,1500,1500,1000,1990,2000,0,0,16,0,0,14,99
345052454,345052434,-1,-37.0,0,0,0,1500,1500,1000,1499,1988,1000,1000,1000,1000,1000,1499,1500,1500,1000,2000,2000,0,0,16,0,0,14,100
345552433,345552413,-1,-37.0,0,0,0,1500,1500,1000,1318,1988,1000,1000,1000,1000,1000,1499,1500,1500,1000,2000,2000,0,0,16,0,0,14,100
346052629,346052609,-1,-37.0,0,0,0,1500,1500,1000,1000,1988,1000,1000,1000,1000,1000,1499,1500,1500,1000,2000,2000,0,0,16,0,0,14,100
346552454,346552405,-1,-38.0,0,0,0,1500,1500,1000,1000,1988,1000,1000,1000,1000,1000,1499,1500,1500,1000,1990,2000,0,0,16,0,0,14,100
347052428,347052391,-1,-37.0,0,0,0,1499,1500,1000,1000,1988,1000,1000,1000,1000,1000,1499,1500,1500,1000,1990,2000,0,0,16,0,0,14,99
347552531,347552510,-1,-38.0,0,0,0,1500,1500,1000,1000,1988,1000,1000,1000,1000,1000,1499,1500,1500,1000,1990,2000,0,0,16,0,0,14,99
348052636,348052614,-1,-38.0,0,0,0,1500,1500,1000,1000,1988,1000,1000,1000,1000,1000,1499,1500,1500,1000,1980,2000,0,0,16,0,0,14,98
348552666,348552645,-1,-38.0,0,0,0,1500,1500,1000,1000,1988,1000,1000,1000,1000,1000,1499,1500,1500,1000,1990,2000,0,0,16,0,0,14,98
349052386,349052366,-1,-38.0,0,0,0,1500,1500,1000,1430,1988,1000,1000,1000,1000,1000,1499,1500,1500,1000,1990,2000,0,0,16,0,0,14,99
349551271,349551250,-1,-38.0,0,0,0,1500,1500,1000,1418,1988,1000,1000,1000,1000,1000,1499,1500,1500,1000,1990,2000,0,0,16,0,0,14,99
350052632,350052611,-1,-38.0,0,0,0,1500,1499,1000,1389,1988,1000,1000,1000,1000,1000,1499,1500,1500,1000,2000,2000,0,0,16,0,0,14,100
350556486,350552376,-1,-37.0,0,0,0,1500,1500,1000,1500,1988,1000,1000,1000,1000,1000,1499,1500,1500,1000,2000,2000,0,0,16,0,0,14,100
351062419,351052373,-1,-36.0,0,0,0,1500,1500,1000,1499,1988,1000,1000,1000,1000,1000,1499,1500,1500,1000,2000,2000,0,0,16,0,0,14,100
351562734,351552487,-1,-36.0,0,0,0,1500,1500,1000,1499,1988,1000,1000,1000,1000,1000,1499,1500,1500,1000,2000,2000,0,0,16,0,0,14,100
352052606,352052511,-1,-36.0,0,0,0,1500,1500,1000,1500,1988,1000,1000,1000,1000,1000,1499,1500,1500,1000,2000,2000,0,0,16,0,0,14,100
352552689,352552650,-1,-37.0,0,0,0,1500,1500,1000,1500,1988,1000,1000,1000,1000,1000,1499,1500,1500,1000,1990,2000,0,0,16,0,0,14,99
353052666,353052645,-1,-37.0,0,0,0,1500,1500,1000,1500,1988,1000,1000,1000,1000,1000,1499,1500,1500,1000,1990,2000,0,0,16,0,0,14,99
353552612,353552532,-1,-37.0,0,0,0,1500,1500,1000,1500,1988,1000,1000,1000,1000,1000,1499,1500,1500,1000,1990,2000,0,0,16,0,0,14,99
354052620,354052538,-1,-37.0,0,0,0,1500,1500,1000,1499,1988,1000,1000,1000,1000,1000,1499,1500,1500,1000,1990,2000,0,0,16,0,0,14,99
354552655,354552635,-1,-36.0,0,0,0,1500,1500,1000,1500,1988,1000,1000,1000,1000,1999,1499,1500,1500,1000,2000,2000,0,0,16,0,0,14,100
355052633,355052612,-1,-36.0,0,0,0,1499,1500,1000,1500,1988,1000,1000,1000,1000,1999,1499,1500,1500,1000,2000,2000,0,0,16,0,0,14,100
355552536,355552515,-1,-36.0,0,0,0,1500,1500,1000,1500,1988,1000,1000,1000,1000,1999,1499,1500,1500,1000,2000,2000,0,0,16,0,0,14,100
356052636,356052616,-1,-36.0,0,0,0,1500,1500,1000,1499,1988,1000,1000,1000,1000,1999,1499,1500,1500,1000,2000,2000,0,0,16,0,0,14,100
356552662,356552642,-1,-36.0,0,0,0,1500,1500,1000,1500,1988,1000,1000,1000,1000,1999,1499,1500,1500,1000,2000,2000,0,0,16,0,0,14,100
357052627,357052607,-1,-37.0,0,0,0,1500,1500,1000,1500,1988,1000,1000,1000,1000,1999,1499,1500,1500,1000,2000,2000,0,0,16,0,0,14,100
357552626,357552606,-1,-37.0,0,0,0,1500,1500,1000,1500,1988,1000,1000,1000,1000,1999,1499,1500,1500,1000,2000,2000,0,0,16,0,0,14,100
358052671,358052650,-1,-37.0,0,0,0,1499,1500,1000,1500,1988,1000,1000,1000,1000,1999,1499,1500,1500,1000,2000,2000,0,0,16,0,0,14,100
358552629,358552608,-1,-37.0,0,0,0,1500,1500,1000,1500,1988,1000,1000,1000,1000,1999,1499,1500,1500,1000,2000,2000,0,0,16,0,0,14,100
359052684,359052663,-1,-37.0,0,0,0,1500,1500,1000,1499,1988,1000,1000,1000,1000,1999,1499,1500,1500,1000,2000,2000,0,0,16,0,0,14,100
359549725,359549704,-1,-39.0,0,0,0,1500,1500,1000,1500,1988,1000,1000,1000,1000,1999,1499,1500,1500,1000,2000,2000,0,0,16,0,0,14,100
360050657,360050623,-1,-40.0,0,0,0,1500,1500,1000,1500,1988,1000,1000,1000,1000,1000,1499,1500,1500,1000,2000,2000,0,0,16,0,0,14,100
