timestamp,timestamp_sample,gps_hvel[0],gps_hvel[1],gps_vvel,gps_hpos[0],gps_hpos[1],gps_vpos,ev_hvel[0],ev_hvel[1],ev_vvel,ev_hpos[0],ev_hpos[1],ev_vpos,rng_vpos,baro_vpos,aux_hvel[0],aux_hvel[1],flow[0],flow[1],terr_flow[0],terr_flow[1],heading,mag_field[0],mag_field[1],mag_field[2],gravity[0],gravity[1],gravity[2],drag[0],drag[1],airspeed,beta,hagl,hagl_rate
200525970,200335671,0.09628214,0.09628751,0.20678684,1.0421268,1.0421515,2.6801355,0.0,0.0,0.0,0.0,0.0,0.0,0.0,12.418874,0.0,0.0,0.0,0.0,0.0,0.0,0.0025076834,0.002507509,0.0025076834,0.0025018747,1.0000325,1.0000329,1.0,0.0,0.0,0.0,0.0,0.0,0.0
201025962,200835672,0.09629191,0.09629392,0.2067942,1.0462424,1.046267,2.6964464,0.0,0.0,0.0,0.0,0.0,0.0,0.0,12.419326,0.0,0.0,0.0,0.0,0.0,0.0,0.002507682,0.0025075092,0.002507682,0.0025018733,1.0000325,1.0000329,1.0,0.0,0.0,0.0,0.0,0.0,0.0
201525985,201335671,0.09629569,0.09629531,0.20679384,1.0523779,1.0524024,2.7097673,0.0,0.0,0.0,0.0,0.0,0.0,0.0,12.419772,0.0,0.0,0.0,0.0,0.0,0.0,0.0025076824,0.002507518,0.0025076824,0.0025018698,1.0000324,1.000033,1.0,0.0,0.0,0.0,0.0,0.0,0.0
202025985,201835671,0.0963044,0.09630077,0.20679404,1.0565091,1.0565335,2.7196248,0.0,0.0,0.0,0.0,0.0,0.0,0.0,12.419424,0.0,0.0,0.0,0.0,0.0,0.0,0.0025076866,0.002507514,0.0025076866,0.0025018675,1.0000325,1.000033,1.0,0.0,0.0,0.0,0.0,0.0,0.0
202525963,202335671,0.096303724,0.09630238,0.20679307,1.0586065,1.0586306,2.7294827,0.0,0.0,0.0,0.0,0.0,0.0,0.0,12.4198475,0.0,0.0,0.0,0.0,0.0,0.0,0.0025076885,0.0025075315,0.0025076885,0.002501864,1.0000324,1.0000329,1.0,0.0,0.0,0.0,0.0,0.0,0.0
203026218,202835671,0.09630473,0.09630521,0.20679973,1.0627373,1.0627615,2.7363038,0.0,0.0,0.0,0.0,0.0,0.0,0.0,12.420265,0.0,0.0,0.0,0.0,0.0,0.0,0.0025077022,0.002507545,0.0025077022,0.0025018626,1.0000325,1.0000329,1.0,0.0,0.0,0.0,0.0,0.0,0.0
203526250,203335671,0.09630227,0.096303776,0.20679846,1.0668646,1.0668887,2.746172,0.0,0.0,0.0,0.0,0.0,0.0,0.0,12.419528,0.0,0.0,0.0,0.0,0.0,0.0,0.0025077064,0.0025075604,0.0025077064,0.00250186,1.0000325,1.0000329,1.0,0.0,0.0,0.0,0.0,0.0,0.0
204026244,203835673,0.096303254,0.096307084,0.20679834,1.0730493,1.0730734,2.7692358,0.0,0.0,0.0,0.0,0.0,0.0,0.0,12.419943,0.0,0.0,0.0,0.0,0.0,0.0,0.002507709,0.002507564,0.002507709,0.0025018575,1.0000325,1.000033,1.0,0.0,0.0,0.0,0.0,0.0,0.0
204526210,204335671,0.096300855,0.09630692,0.20680451,1.0751548,1.0751791,2.7794068,0.0,0.0,0.0,0.0,0.0,0.0,0.0,12.420358,0.0,0.0,0.0,0.0,0.0,0.0,0.0025077148,0.0025075777,0.0025077148,0.0025018572,1.0000325,1.000033,1.0,0.0,0.0,0.0,0.0,0.0,0.0
205026263,204835671,0.09629678,0.096303225,0.20680422,1.0772622,1.0772866,2.7827475,0.0,0.0,0.0,0.0,0.0,0.0,0.0,12.420766,0.0,0.0,0.0,0.0,0.0,0.0,0.0025077271,0.0025076,0.0025077271,0.002501858,1.0000325,1.000033,1.0,0.0,0.0,0.0,0.0,0.0,0.0
205526243,205335674,0.09630465,0.096311055,0.20680296,1.0814089,1.0814333,2.7993171,0.0,0.0,0.0,0.0,0.0,0.0,0.0,12.420027,0.0,0.0,0.0,0.0,0.0,0.0,0.0025078182,0.0025077192,0.0025078182,0.002501988,1.0000325,1.000033,1.0,0.0,0.0,0.0,0.0,0.0,0.0
206026226,205835671,0.09665649,0.097559124,0.20681015,1.0835204,1.0835532,2.8059828,0.0,0.0,0.0,0.0,0.0,0.0,0.0,12.420442,0.0,0.0,0.0,0.0,0.0,0.0,0.0025157868,0.0025157868,0.0025135367,0.0025062186,1.0000324,1.000033,1.0,0.0,0.0,0.0,0.0,0.0,0.0
207026261,206835671,0.09653183,0.09688392,0.20680983,1.0897962,1.0898309,2.8128831,0.0,0.0,0.0,0.0,0.0,0.0,0.0,12.420437,0.0,0.0,0.0,0.0,0.0,0.0,0.0025321366,0.0025321366,0.0025201973,0.0025020903,1.0000321,1.0000325,1.0000001,0.0,0.0,0.0,0.0,0.0,0.0
207526246,207335671,0.09648396,0.09766798,0.20680955,1.093972,1.0939975,2.812875,0.0,0.0,0.0,0.0,0.0,0.0,0.0,12.420804,0.0,0.0,0.0,0.0,0.0,0.0,0.0025301727,0.0025301727,0.0025191659,0.0025019953,1.0000318,1.0000322,1.0,0.0,0.0,0.0,0.0,0.0,0.0
208026249,207835671,0.09654448,0.09798069,0.20681813,1.0981619,1.0981954,2.816419,0.0,0.0,0.0,0.0,0.0,0.0,0.0,12.421167,0.0,0.0,0.0,0.0,0.0,0.0,0.0025164874,0.0025164874,0.0025122669,0.002503413,1.0000318,1.0000318,1.0,0.0,0.0,0.0,0.0,0.0,0.0
208526133,208335671,0.09648401,0.097075954,0.20681924,1.1023549,1.1023964,2.8197217,0.0,0.0,0.0,0.0,0.0,0.0,0.0,12.420379,0.0,0.0,0.0,0.0,0.0,0.0,0.0032313084,0.003229782,0.0032313084,0.0032145618,1.0000318,1.0000317,1.0,0.0,0.0,0.0,0.0,0.0,0.0
209026138,208835671,0.097736925,0.096663326,0.20682098,1.1024225,1.1024603,2.816368,0.0,0.0,0.0,0.0,0.0,0.0,0.0,12.420722,0.0,0.0,0.0,0.0,0.0,0.0,0.0027442412,0.0027442412,0.002740651,0.002743314,1.0000318,1.0000316,1.0000004,0.0,0.0,0.0,0.0,0.0,0.0
209526181,209335671,0.10683591,0.098923035,0.20683368,1.1066948,1.1066462,2.8198864,0.0,0.0,0.0,0.0,0.0,0.0,0.0,12.421052,0.0,0.0,0.0,0.0,0.0,0.0,0.0026518789,0.0026518789,0.0026469629,0.0026471736,1.0000317,1.0000322,1.0000005,0.0,0.0,0.0,0.0,0.0,0.0
210026201,209835671,0.109840274,0.100363635,0.20684299,1.1068624,1.1067195,2.8165178,0.0,0.0,0.0,0.0,0.0,0.0,0.0,12.421384,0.0,0.0,0.0,0.0,0.0,0.0,0.0026435237,0.0026435237,0.0026313718,0.0026141016,1.0000311,1.0000339,1.0000012,0.0,0.0,0.0,0.0,0.0,0.0
210526128,210335670,0.106823206,0.09977116,0.20685402,1.1069596,1.1067708,2.8131366,0.0,0.0,0.0,0.0,0.0,0.0,0.0,12.420909,0.0,0.0,0.0,0.0,0.0,0.0,0.002604943,0.002604943,0.0026030357,0.0025810525,1.0000315,1.0000356,1.0000007,0.0,0.0,0.0,0.0,0.0,0.0
211526208,211335678,0.099825725,0.09689379,0.20686473,1.1132903,1.1130505,2.8132467,0.0,0.0,0.0,0.0,0.0,0.0,0.0,12.421532,0.0,0.0,0.0,0.0,0.0,0.0,0.0025776802,0.0025776802,0.0025752513,0.00255596,1.0000315,1.0000392,1.0000002,0.0,0.0,0.0,0.0,0.0,0.0
212026169,211835671,0.09734764,0.09661245,0.20685561,1.115388,1.1151575,2.8131888,0.0,0.0,0.0,0.0,0.0,0.0,0.0,12.420702,0.0,0.0,0.0,0.0,0.0,0.0,0.0025673236,0.0025673236,0.002559033,0.0025533105,1.0000315,1.000041,1.0,0.0,0.0,0.0,0.0,0.0,0.0
212526131,212335671,0.09620753,0.09626463,0.20684671,1.1257892,1.1255991,2.8364384,0.0,0.0,0.0,0.0,0.0,0.0,0.0,12.421041,0.0,0.0,0.0,0.0,0.0,0.0,0.0025556085,0.0025556085,0.0025479263,0.002547745,1.0000316,1.0000422,1.0,0.0,0.0,0.0,0.0,0.0,0.0
213025968,212835671,0.09714663,0.09686842,0.20685358,1.1404804,1.1403754,2.880235,0.0,0.0,0.0,0.0,0.0,0.0,0.0,12.421461,0.0,0.0,0.0,0.0,0.0,0.0,0.0025925487,0.0025925487,0.0025446154,0.002575168,1.0000312,1.0000418,1.0000007,0.0,0.0,0.0,0.0,0.0,0.0
213525983,213335671,0.10163372,0.09807891,0.2068745,1.1596164,1.159616,2.941211,0.0,0.0,0.0,0.0,0.0,0.0,0.0,12.420848,0.0,0.0,0.0,0.0,0.0,0.0,0.0025732755,0.0025732755,0.0025401555,0.0025621324,1.0000316,1.0000374,1.0000005,0.0,0.0,0.0,0.0,0.0,0.0
214025977,213835671,0.10217652,0.097675025,0.20688514,1.1725428,1.1725382,3.0097194,0.0,0.0,0.0,0.0,0.0,0.0,0.0,12.421395,0.0,0.0,0.0,0.0,0.0,0.0,0.0025518448,0.0025518448,0.002538922,0.0025431276,1.0000318,1.0000337,1.0000002,0.0,0.0,0.0,0.0,0.0,0.0
214525964,214335671,0.100718714,0.09724733,0.20690845,1.1899992,1.1899475,3.082889,0.0,0.0,0.0,0.0,0.0,0.0,0.0,12.422082,0.0,0.0,0.0,0.0,0.0,0.0,0.0025431751,0.0025431751,0.0025374636,0.0025335534,1.0000321,1.0000325,1.0,0.0,0.0,0.0,0.0,0.0,0.0
215025994,214835671,0.112166055,0.11009485,0.23628122,1.2056582,1.2055439,3.164003,0.0,0.0,0.0,0.0,0.0,0.0,0.0,12.423039,0.0,0.0,0.0,0.0,0.0,0.0,0.0025358933,0.0025358933,0.0025342356,0.0025271508,1.0000322,1.0000325,1.0,0.0,0.0,0.0,0.0,0.0,0.0
215525980,215335671,0.133407,0.13236979,0.28644383,1.2237769,1.2236136,3.2535298,0.0,0.0,0.0,0.0,0.0,0.0,0.0,12.423384,0.0,0.0,0.0,0.0,0.0,0.0,0.0025305278,0.002529627,0.0025305278,0.0025269326,1.0000322,1.0000328,1.0000001,0.0,0.0,0.0,0.0,0.0,0.0
216025976,215835671,0.12534654,0.12478696,0.26925588,1.24432,1.2441198,3.3407269,0.0,0.0,0.0,0.0,0.0,0.0,0.0,12.424603,0.0,0.0,0.0,0.0,0.0,0.0,0.002529416,0.002529416,0.0025274032,0.0025242632,1.0000321,1.0000333,1.0000002,0.0,0.0,0.0,0.0,0.0,0.0
216525989,216335671,0.11169603,0.11155333,0.23934555,1.2650537,1.2648484,3.4220858,0.0,0.0,0.0,0.0,0.0,0.0,0.0,12.425907,0.0,0.0,0.0,0.0,0.0,0.0,0.0025372996,0.0025372996,0.0025242227,0.002531212,1.0000314,1.0000336,1.000001,0.0,0.0,0.0,0.0,0.0,0.0
217026006,216835671,0.099989444,0.10002759,0.2138888,1.282858,1.28271,3.4888887,0.0,0.0,0.0,0.0,0.0,0.0,0.0,12.42554,0.0,0.0,0.0,0.0,0.0,0.0,0.0025308896,0.0025308896,0.002523236,0.0025261622,1.0000316,1.0000335,1.0000004,0.0,0.0,0.0,0.0,0.0,0.0
217525981,217335671,0.09672976,0.09673399,0.20705098,1.2916025,1.291496,3.492873,0.0,0.0,0.0,0.0,0.0,0.0,0.0,12.426213,0.0,0.0,0.0,0.0,0.0,0.0,0.0025230683,0.0025230683,0.0025225033,0.0025199444,1.0000318,1.0000331,1.0,0.0,0.0,0.0,0.0,0.0,0.0
218025984,217835671,0.09657313,0.096588284,0.20701857,1.2936811,1.2935992,3.4416065,0.0,0.0,0.0,0.0,0.0,0.0,0.0,12.426725,0.0,0.0,0.0,0.0,0.0,0.0,0.002539463,0.002539463,0.0025220113,0.0025306896,1.0000299,1.000033,1.0000018,0.0,0.0,0.0,0.0,0.0,0.0
218525960,218335671,0.09786756,0.09672218,0.20700109,1.2979954,1.2979629,3.4342628,0.0,0.0,0.0,0.0,0.0,0.0,0.0,12.425929,0.0,0.0,0.0,0.0,0.0,0.0,0.002574528,0.002574528,0.0025206741,0.002558925,1.0000288,1.0000325,1.0000029,0.0,0.0,0.0,0.0,0.0,0.0
219025960,218835671,0.09794837,0.096802056,0.2070036,1.3046759,1.3046731,3.4269023,0.0,0.0,0.0,0.0,0.0,0.0,0.0,12.426318,0.0,0.0,0.0,0.0,0.0,0.0,0.0025214702,0.0025214702,0.0025195598,0.0025179633,1.0000315,1.0000323,1.0,0.0,0.0,0.0,0.0,0.0,0.0
219525977,219335671,0.1027352,0.10259521,0.22072634,1.31138,1.311381,3.4234662,0.0,0.0,0.0,0.0,0.0,0.0,0.0,12.426667,0.0,0.0,0.0,0.0,0.0,0.0,0.0025185428,0.0025185428,0.0025183,0.0025163353,1.0000312,1.0000322,1.0000002,0.0,0.0,0.0,0.0,0.0,0.0
220026008,219835671,0.096513,0.09643241,0.20700239,1.3204749,1.3204778,3.4233823,0.0,0.0,0.0,0.0,0.0,0.0,0.0,12.42699,0.0,0.0,0.0,0.0,0.0,0.0,0.0025190385,0.0025190385,0.0025178164,0.002516078,1.000031,1.0000323,1.0000004,0.0,0.0,0.0,0.0,0.0,0.0
221025965,220835671,0.096453294,0.096448146,0.20702052,1.3319254,1.3319288,3.4232237,0.0,0.0,0.0,0.0,0.0,0.0,0.0,12.426821,0.0,0.0,0.0,0.0,0.0,0.0,0.0025198036,0.0025198036,0.0025166862,0.002516654,1.0000312,1.0000323,1.0,0.0,0.0,0.0,0.0,0.0,0.0
221526017,221335671,0.096616864,0.09644397,0.20701118,1.3296398,1.3296418,3.4087262,0.0,0.0,0.0,0.0,0.0,0.0,0.0,12.427089,0.0,0.0,0.0,0.0,0.0,0.0,0.002521055,0.002521055,0.002517022,0.0025166404,1.0000311,1.0000322,1.0,0.0,0.0,0.0,0.0,0.0,0.0
222026009,221835671,0.09687039,0.09648644,0.207004,1.3205357,1.3205327,3.3611393,0.0,0.0,0.0,0.0,0.0,0.0,0.0,12.426119,0.0,0.0,0.0,0.0,0.0,0.0,0.0025203377,0.0025203377,0.002517476,0.002514934,1.000031,1.000032,1.0,0.0,0.0,0.0,0.0,0.0,0.0
222525969,222335672,0.09667549,0.09647015,0.20699066,1.3159596,1.315952,3.328284,0.0,0.0,0.0,0.0,0.0,0.0,0.0,12.426276,0.0,0.0,0.0,0.0,0.0,0.0,0.0025198187,0.0025198187,0.0025178029,0.002513216,1.0000306,1.000032,1.0000002,0.0,0.0,0.0,0.0,0.0,0.0
223025961,222835671,0.09645171,0.09639807,0.2069633,1.3091269,1.3091185,3.299446,0.0,0.0,0.0,0.0,0.0,0.0,0.0,12.426404,0.0,0.0,0.0,0.0,0.0,0.0,0.0025157786,0.0025157786,0.0025150583,0.0025125805,1.0000306,1.000032,1.0,0.0,0.0,0.0,0.0,0.0,0.0
223525982,223335671,0.09641686,0.09640395,0.20693894,1.3090675,1.309059,3.2775981,0.0,0.0,0.0,0.0,0.0,0.0,0.0,12.42571,0.0,0.0,0.0,0.0,0.0,0.0,0.002515491,0.002515491,0.002514386,0.002512629,1.0000306,1.000032,1.0,0.0,0.0,0.0,0.0,0.0,0.0
224025978,223835671,0.096381806,0.09638323,0.20691974,1.3022509,1.3022442,3.2522433,0.0,0.0,0.0,0.0,0.0,0.0,0.0,12.425807,0.0,0.0,0.0,0.0,0.0,0.0,0.0025202362,0.0025202362,0.0025179174,0.002515846,1.0000306,1.000032,1.0,0.0,0.0,0.0,0.0,0.0,0.0
224525962,224335671,0.096380204,0.09640639,0.20690979,1.2999358,1.299932,3.2379427,0.0,0.0,0.0,0.0,0.0,0.0,0.0,12.425894,0.0,0.0,0.0,0.0,0.0,0.0,0.0025151435,0.0025151435,0.0025143432,0.0025120976,1.0000305,1.000032,1.0,0.0,0.0,0.0,0.0,0.0,0.0
225025990,224835671,0.10310412,0.10312541,0.22202289,1.2998892,1.299888,3.2484148,0.0,0.0,0.0,0.0,0.0,0.0,0.0,12.425697,0.0,0.0,0.0,0.0,0.0,0.0,0.002514725,0.002514725,0.0025137537,0.002511472,1.0000305,1.0000318,1.0,0.0,0.0,0.0,0.0,0.0,0.0
226025977,225835671,0.09641478,0.09640116,0.20690122,1.3021618,1.3021646,3.230172,0.0,0.0,0.0,0.0,0.0,0.0,0.0,12.425288,0.0,0.0,0.0,0.0,0.0,0.0,0.0025134974,0.002513304,0.0025134974,0.0025110631,1.0000304,1.0000316,1.0000001,0.0,0.0,0.0,0.0,0.0,0.0
226525991,226335671,0.09637834,0.09639809,0.20689487,1.3066417,1.3066447,3.23737,0.0,0.0,0.0,0.0,0.0,0.0,0.0,12.425484,0.0,0.0,0.0,0.0,0.0,0.0,0.0025137153,0.002513456,0.0025137153,0.00251129,1.0000304,1.0000317,1.0000001,0.0,0.0,0.0,0.0,0.0,0.0
227025961,226835671,0.09638364,0.0963734,0.20689236,1.3111516,1.3111552,3.2336311,0.0,0.0,0.0,0.0,0.0,0.0,0.0,12.424548,0.0,0.0,0.0,0.0,0.0,0.0,0.0025141092,0.0025133216,0.0025141092,0.0025120906,1.0000303,1.0000316,1.0000002,0.0,0.0,0.0,0.0,0.0,0.0
227525978,227335671,0.09639737,0.096351296,0.20689993,1.3088847,1.3088887,3.212106,0.0,0.0,0.0,0.0,0.0,0.0,0.0,12.424754,0.0,0.0,0.0,0.0,0.0,0.0,0.0025135987,0.0025128778,0.0025135987,0.0025113332,1.0000304,1.0000316,1.0000001,0.0,0.0,0.0,0.0,0.0,0.0
228025980,227835671,0.096447065,0.096391544,0.2069021,1.3021104,1.3021139,3.1802957,0.0,0.0,0.0,0.0,0.0,0.0,0.0,12.424942,0.0,0.0,0.0,0.0,0.0,0.0,0.0025140673,0.0025140145,0.0025140673,0.0025110259,1.0000303,1.0000315,1.0000002,0.0,0.0,0.0,0.0,0.0,0.0
228525959,228335671,0.0964628,0.09637402,0.20690033,1.2953297,1.2953318,3.151862,0.0,0.0,0.0,0.0,0.0,0.0,0.0,12.424308,0.0,0.0,0.0,0.0,0.0,0.0,0.0025177235,0.0025135444,0.0025177235,0.0025159009,1.0000304,1.0000314,1.0000002,0.0,0.0,0.0,0.0,0.0,0.0
229025960,228835671,0.09643881,0.0964068,0.20689411,1.2908039,1.2908049,3.1235452,0.0,0.0,0.0,0.0,0.0,0.0,0.0,12.424451,0.0,0.0,0.0,0.0,0.0,0.0,0.0025145733,0.0025145733,0.002513051,0.0025089334,1.0000303,1.0000314,1.0000002,0.0,0.0,0.0,0.0,0.0,0.0
229525981,229335671,0.09635609,0.09634265,0.20689836,1.2862672,1.2862673,3.095607,0.0,0.0,0.0,0.0,0.0,0.0,0.0,12.424577,0.0,0.0,0.0,0.0,0.0,0.0,0.0025123528,0.0025123528,0.0025115807,0.002508991,1.0000303,1.0000314,1.0000001,0.0,0.0,0.0,0.0,0.0,0.0
230025979,229835671,0.09636159,0.09636018,0.20689456,1.2795099,1.2795101,3.0744693,0.0,0.0,0.0,0.0,0.0,0.0,0.0,12.4235525,0.0,0.0,0.0,0.0,0.0,0.0,0.0025129388,0.0025129388,0.0025119819,0.002508897,1.0000303,1.0000314,1.0000001,0.0,0.0,0.0,0.0,0.0,0.0
230525972,230335671,0.09633683,0.09634093,0.2068894,1.274987,1.2749878,3.049938,0.0,0.0,0.0,0.0,0.0,0.0,0.0,12.423666,0.0,0.0,0.0,0.0,0.0,0.0,0.0025119002,0.0025119002,0.0025111178,0.0025084752,1.0000303,1.0000314,1.0000001,0.0,0.0,0.0,0.0,0.0,0.0
231025966,230835671,0.09638526,0.09639048,0.20689169,1.2682514,1.2682531,3.0292163,0.0,0.0,0.0,0.0,0.0,0.0,0.0,12.423785,0.0,0.0,0.0,0.0,0.0,0.0,0.0025117255,0.0025117255,0.0025108529,0.0025082682,1.0000303,1.0000314,1.0,0.0,0.0,0.0,0.0,0.0,0.0
231526011,231335671,0.09635691,0.09635945,0.20688368,1.2637379,1.2637407,3.0048666,0.0,0.0,0.0,0.0,0.0,0.0,0.0,12.423908,0.0,0.0,0.0,0.0,0.0,0.0,0.0025115646,0.0025115646,0.0025107183,0.0025080298,1.0000302,1.0000312,1.0000001,0.0,0.0,0.0,0.0,0.0,0.0
232025980,231835671,0.09634274,0.096346244,0.20687397,1.2570233,1.2570266,2.9840412,0.0,0.0,0.0,0.0,0.0,0.0,0.0,12.42289,0.0,0.0,0.0,0.0,0.0,0.0,0.0025115272,0.0025115272,0.0025105695,0.002507991,1.0000303,1.0000311,1.0,0.0,0.0,0.0,0.0,0.0,0.0
232525960,232335671,0.09632809,0.096336156,0.206871,1.2525264,1.2525299,2.963282,0.0,0.0,0.0,0.0,0.0,0.0,0.0,12.42301,0.0,0.0,0.0,0.0,0.0,0.0,0.0025117837,0.0025117837,0.0025108375,0.002508417,1.0000303,1.0000312,1.0,0.0,0.0,0.0,0.0,0.0,0.0
233025963,232835671,0.09632709,0.09633729,0.20686351,1.2480438,1.2480478,2.9428554,0.0,0.0,0.0,0.0,0.0,0.0,0.0,12.423134,0.0,0.0,0.0,0.0,0.0,0.0,0.0025115802,0.0025115802,0.00251155,0.0025086151,1.0000302,1.000031,1.0000001,0.0,0.0,0.0,0.0,0.0,0.0
233525978,233335671,0.09631376,0.0963671,0.20685923,1.2413629,1.2413678,2.9222424,0.0,0.0,0.0,0.0,0.0,0.0,0.0,12.422467,0.0,0.0,0.0,0.0,0.0,0.0,0.002511183,0.002511183,0.002510309,0.0025074668,1.0000303,1.0000312,1.0,0.0,0.0,0.0,0.0,0.0,0.0
235025965,234835671,0.09633867,0.096382186,0.20685323,1.2280055,1.2280113,2.8711832,0.0,0.0,0.0,0.0,0.0,0.0,0.0,12.421718,0.0,0.0,0.0,0.0,0.0,0.0,0.0025118992,0.0025118992,0.0025107283,0.0025074538,1.0000304,1.0000311,1.0,0.0,0.0,0.0,0.0,0.0,0.0
235525962,235335671,0.09630064,0.0963558,0.20684578,1.2257494,1.2257558,2.8541868,0.0,0.0,0.0,0.0,0.0,0.0,0.0,12.421849,0.0,0.0,0.0,0.0,0.0,0.0,0.002511234,0.002511234,0.0025102005,0.0025070321,1.0000303,1.0000312,1.0,0.0,0.0,0.0,0.0,0.0,0.0
236526013,236335671,0.096345164,0.09634425,0.20683949,1.216913,1.2169199,2.8206112,0.0,0.0,0.0,0.0,0.0,0.0,0.0,12.422135,0.0,0.0,0.0,0.0,0.0,0.0,0.0025125602,0.0025125602,0.0025113018,0.002507297,1.0000303,1.000031,1.0000001,0.0,0.0,0.0,0.0,0.0,0.0
237025963,236835671,0.09632632,0.096337855,0.20683329,1.2125052,1.2125123,2.7971435,0.0,0.0,0.0,0.0,0.0,0.0,0.0,12.421484,0.0,0.0,0.0,0.0,0.0,0.0,0.002510768,0.002510768,0.0025095209,0.0025066885,1.0000304,1.0000311,1.0,0.0,0.0,0.0,0.0,0.0,0.0
237525962,237335671,0.09632464,0.09633436,0.20683035,1.2059278,1.2059354,2.7770596,0.0,0.0,0.0,0.0,0.0,0.0,0.0,12.421605,0.0,0.0,0.0,0.0,0.0,0.0,0.0025106056,0.0025106056,0.002510098,0.002507153,1.0000303,1.000031,1.0000001,0.0,0.0,0.0,0.0,0.0,0.0
238025987,237835671,0.0963248,0.09633457,0.20682321,1.2015327,1.2015406,2.757289,0.0,0.0,0.0,0.0,0.0,0.0,0.0,12.421376,0.0,0.0,0.0,0.0,0.0,0.0,0.0025125244,0.0025125244,0.002510565,0.0025073045,1.0000303,1.0000311,1.0,0.0,0.0,0.0,0.0,0.0,0.0
238525974,238335671,0.0963146,0.09632541,0.20681624,1.1949822,1.1949904,2.737344,0.0,0.0,0.0,0.0,0.0,0.0,0.0,12.420719,0.0,0.0,0.0,0.0,0.0,0.0,0.0025127097,0.0025127097,0.002511025,0.0025079355,1.0000304,1.0000311,1.0,0.0,0.0,0.0,0.0,0.0,0.0
239025968,238835671,0.09632177,0.096312,0.20681228,1.1906046,1.1906133,2.717475,0.0,0.0,0.0,0.0,0.0,0.0,0.0,12.420846,0.0,0.0,0.0,0.0,0.0,0.0,0.0025134145,0.0025134145,0.002510401,0.0025076815,1.0000304,1.0000311,1.0,0.0,0.0,0.0,0.0,0.0,0.0
239525965,239335671,0.096298315,0.0962745,0.20681475,1.1862283,1.1862371,2.701167,0.0,0.0,0.0,0.0,0.0,0.0,0.0,12.420973,0.0,0.0,0.0,0.0,0.0,0.0,0.0025159558,0.0025112482,0.0025159558,0.0025150431,1.0000305,1.0000302,1.000001,0.0,0.0,0.0,0.0,0.0,0.0
240025981,239835671,0.09608538,0.097021766,0.2068248,1.1797132,1.1797279,2.6846838,0.0,0.0,0.0,0.0,0.0,0.0,0.0,12.419975,0.0,0.0,0.0,0.0,0.0,0.0,0.0025364205,0.0025136375,0.0025320498,0.0025364205,1.0000306,1.0000303,1.0000012,0.0,0.0,0.0,0.0,0.0,0.0
240525975,240335671,0.09623082,0.09771252,0.20683436,1.1732156,1.173255,2.6650176,0.0,0.0,0.0,0.0,0.0,0.0,0.0,12.420107,0.0,0.0,0.0,0.0,0.0,0.0,0.0025122324,0.0025120121,0.0025122324,0.0025095767,1.000031,1.0000314,1.0000001,0.0,0.0,0.0,0.0,0.0,0.0
241025962,240835671,0.09632053,0.09684727,0.20683627,1.166743,1.1667992,2.6488845,0.0,0.0,0.0,0.0,0.0,0.0,0.0,12.420248,0.0,0.0,0.0,0.0,0.0,0.0,0.0025112892,0.0025112892,0.0025100634,0.002506315,1.000031,1.0000315,1.0000001,0.0,0.0,0.0,0.0,0.0,0.0
241525989,241335671,0.096364796,0.09637124,0.20682605,1.1624061,1.1624558,2.6293569,0.0,0.0,0.0,0.0,0.0,0.0,0.0,12.420387,0.0,0.0,0.0,0.0,0.0,0.0,0.0025128606,0.00251105,0.0025128606,0.002509674,1.000031,1.0000311,1.0000004,0.0,0.0,0.0,0.0,0.0,0.0
242025979,241835671,0.0963888,0.09663862,0.2068216,1.1559647,1.1559935,2.6099048,0.0,0.0,0.0,0.0,0.0,0.0,0.0,12.419741,0.0,0.0,0.0,0.0,0.0,0.0,0.0025128047,0.0025108217,0.0025128047,0.002509977,1.0000308,1.000031,1.0000004,0.0,0.0,0.0,0.0,0.0,0.0
242525979,242335671,0.096347906,0.09702847,0.206824,1.1495304,1.149543,2.5905151,0.0,0.0,0.0,0.0,0.0,0.0,0.0,12.419869,0.0,0.0,0.0,0.0,0.0,0.0,0.0025118643,0.0025107975,0.0025118643,0.0025089118,1.0000304,1.0000308,1.0000002,0.0,0.0,0.0,0.0,0.0,0.0
243025990,242835671,0.09633443,0.097096175,0.20681912,1.1431178,1.1431271,2.571424,0.0,0.0,0.0,0.0,0.0,0.0,0.0,12.419998,0.0,0.0,0.0,0.0,0.0,0.0,0.0025101989,0.0025101989,0.0025097192,0.0025065592,1.0000303,1.0000309,1.0000001,0.0,0.0,0.0,0.0,0.0,0.0
243525978,243335671,0.09635507,0.09727118,0.2068193,1.1388193,1.1388351,2.5521722,0.0,0.0,0.0,0.0,0.0,0.0,0.0,12.418983,0.0,0.0,0.0,0.0,0.0,0.0,0.0025539908,0.0025155696,0.0025488862,0.0025539908,1.0000296,1.0000277,1.0000039,0.0,0.0,0.0,0.0,0.0,0.0
244025984,243835671,0.096300624,0.09870134,0.2068414,1.134539,1.1345851,2.532997,0.0,0.0,0.0,0.0,0.0,0.0,0.0,12.419106,0.0,0.0,0.0,0.0,0.0,0.0,0.002515311,0.0025099758,0.002515311,0.0025134634,1.0000308,1.0000302,1.0000006,0.0,0.0,0.0,0.0,0.0,0.0
244525979,244335671,0.0962998,0.09743069,0.20682392,1.1302665,1.1303384,2.5172539,0.0,0.0,0.0,0.0,0.0,0.0,0.0,12.419235,0.0,0.0,0.0,0.0,0.0,0.0,0.0025096184,0.0025096184,0.0025085425,0.002505574,1.0000314,1.0000308,1.0,0.0,0.0,0.0,0.0,0.0,0.0
245025968,244835671,0.096267045,0.096354544,0.20679617,1.1260061,1.1260747,2.5013418,0.0,0.0,0.0,0.0,0.0,0.0,0.0,12.418241,0.0,0.0,0.0,0.0,0.0,0.0,0.0025110652,0.002510204,0.0025110652,0.0025089604,1.000032,1.0000305,1.0000001,0.0,0.0,0.0,0.0,0.0,0.0
246025977,245835671,0.09625308,0.09707643,0.2067861,1.1175108,1.1175311,2.46988,0.0,0.0,0.0,0.0,0.0,0.0,0.0,12.418496,0.0,0.0,0.0,0.0,0.0,0.0,0.0025105767,0.0025098263,0.0025105767,0.0025081914,1.0000314,1.0000306,1.0000001,0.0,0.0,0.0,0.0,0.0,0.0
246526014,246335671,0.096272275,0.09727328,0.20678435,1.1132773,1.1132944,2.4572248,0.0,0.0,0.0,0.0,0.0,0.0,0.0,12.418633,0.0,0.0,0.0,0.0,0.0,0.0,0.00250978,0.00250978,0.0025088547,0.0025060412,1.0000308,1.0000306,1.0,0.0,0.0,0.0,0.0,0.0,0.0
247025963,246835671,0.09630534,0.09784438,0.20678927,1.1111388,1.1111692,2.4446123,0.0,0.0,0.0,0.0,0.0,0.0,0.0,12.417999,0.0,0.0,0.0,0.0,0.0,0.0,0.002557925,0.0025188248,0.0025463887,0.002557925,1.00003,1.000028,1.000003,0.0,0.0,0.0,0.0,0.0,0.0
248026015,247835671,0.09636507,0.09695863,0.20679048,1.1027316,1.1028196,2.4197264,0.0,0.0,0.0,0.0,0.0,0.0,0.0,12.418319,0.0,0.0,0.0,0.0,0.0,0.0,0.002513139,0.0025102068,0.002513139,0.0025100785,1.00003,1.0000299,1.0000005,0.0,0.0,0.0,0.0,0.0,0.0
248525976,248335671,0.09636764,0.09637433,0.20677431,1.1006063,1.1006775,2.410304,0.0,0.0,0.0,0.0,0.0,0.0,0.0,12.417356,0.0,0.0,0.0,0.0,0.0,0.0,0.002516458,0.0025103847,0.002516458,0.0025137088,1.0000298,1.0000294,1.0000008,0.0,0.0,0.0,0.0,0.0,0.0
249025962,248835671,0.09634341,0.09671356,0.20678206,1.0984918,1.0985312,2.3978415,0.0,0.0,0.0,0.0,0.0,0.0,0.0,12.417523,0.0,0.0,0.0,0.0,0.0,0.0,0.002512446,0.0025099628,0.002512446,0.0025096473,1.0000297,1.0000297,1.0000005,0.0,0.0,0.0,0.0,0.0,0.0
249525960,249335671,0.09631824,0.09700997,0.2067848,1.0963788,1.0963967,2.388677,0.0,0.0,0.0,0.0,0.0,0.0,0.0,12.417693,0.0,0.0,0.0,0.0,0.0,0.0,0.0025109428,0.0025099819,0.0025109428,0.0025077164,1.0000296,1.0000297,1.0000004,0.0,0.0,0.0,0.0,0.0,0.0
250025978,249835671,0.096283846,0.096946396,0.20678401,1.0963435,1.0963556,2.3793323,0.0,0.0,0.0,0.0,0.0,0.0,0.0,12.417096,0.0,0.0,0.0,0.0,0.0,0.0,0.0025095425,0.0025095425,0.0025087707,0.002505524,1.0000297,1.0000298,1.0000001,0.0,0.0,0.0,0.0,0.0,0.0
250525978,250335671,0.09625505,0.0965692,0.2067737,1.0942429,1.0942572,2.3669634,0.0,0.0,0.0,0.0,0.0,0.0,0.0,12.417275,0.0,0.0,0.0,0.0,0.0,0.0,0.0025095942,0.0025095942,0.0025083532,0.0025048696,1.0000299,1.00003,1.0,0.0,0.0,0.0,0.0,0.0,0.0
251025961,250835671,0.096176155,0.09622162,0.20676954,1.0921456,1.092161,2.3578734,0.0,0.0,0.0,0.0,0.0,0.0,0.0,12.417116,0.0,0.0,0.0,0.0,0.0,0.0,0.0025102522,0.0025095479,0.0025102522,0.0025071339,1.0000303,1.00003,1.0000001,0.0,0.0,0.0,0.0,0.0,0.0
251525994,251335671,0.09613653,0.09621044,0.20676167,1.0900425,1.0900561,2.3516357,0.0,0.0,0.0,0.0,0.0,0.0,0.0,12.41732,0.0,0.0,0.0,0.0,0.0,0.0,0.0025101372,0.0025096368,0.0025101372,0.0025069918,1.0000304,1.0000303,1.0000001,0.0,0.0,0.0,0.0,0.0,0.0
252025980,251835671,0.09614833,0.096372366,0.20675974,1.0900115,1.0900252,2.3484511,0.0,0.0,0.0,0.0,0.0,0.0,0.0,12.416759,0.0,0.0,0.0,0.0,0.0,0.0,0.0025093758,0.0025093758,0.0025087814,0.0025055192,1.0000304,1.0000305,1.0,0.0,0.0,0.0,0.0,0.0,0.0
252525980,252335671,0.09619754,0.09645392,0.20676444,1.0879215,1.0879391,2.3452773,0.0,0.0,0.0,0.0,0.0,0.0,0.0,12.416982,0.0,0.0,0.0,0.0,0.0,0.0,0.0025094463,0.0025094463,0.0025080321,0.0025045513,1.0000304,1.0000308,1.0,0.0,0.0,0.0,0.0,0.0,0.0
253025995,252835671,0.09621953,0.09638878,0.20676424,1.0899655,1.0899878,2.3453586,0.0,0.0,0.0,0.0,0.0,0.0,0.0,12.417228,0.0,0.0,0.0,0.0,0.0,0.0,0.0025096536,0.0025096536,0.0025082724,0.002504566,1.0000305,1.000031,1.0000001,0.0,0.0,0.0,0.0,0.0,0.0
253525961,253335671,0.09610527,0.09627845,0.20676549,1.0920078,1.0920346,2.345248,0.0,0.0,0.0,0.0,0.0,0.0,0.0,12.416355,0.0,0.0,0.0,0.0,0.0,0.0,0.002516052,0.0025099784,0.002516052,0.0025141195,1.0000306,1.0000304,1.0000006,0.0,0.0,0.0,0.0,0.0,0.0
254025978,253835671,0.096111044,0.09639439,0.2067761,1.0940652,1.0941015,2.3512242,0.0,0.0,0.0,0.0,0.0,0.0,0.0,12.416632,0.0,0.0,0.0,0.0,0.0,0.0,0.002509929,0.002509929,0.0025079737,0.0025044745,1.000031,1.0000315,1.0,0.0,0.0,0.0,0.0,0.0,0.0
254525979,254335671,0.09618506,0.09627592,0.20677033,1.0961343,1.0961745,2.3574262,0.0,0.0,0.0,0.0,0.0,0.0,0.0,12.416924,0.0,0.0,0.0,0.0,0.0,0.0,0.0025102836,0.0025102836,0.0025102345,0.002506541,1.000031,1.0000314,1.0000004,0.0,0.0,0.0,0.0,0.0,0.0
255025962,254835671,0.09626497,0.096278936,0.20676681,1.1002938,1.100327,2.3665006,0.0,0.0,0.0,0.0,0.0,0.0,0.0,12.41646,0.0,0.0,0.0,0.0,0.0,0.0,0.002511571,0.0025104517,0.002511571,0.002508567,1.0000309,1.0000312,1.0000006,0.0,0.0,0.0,0.0,0.0,0.0
255525968,255335671,0.096364886,0.09650383,0.20676702,1.1086254,1.108648,2.3817172,0.0,0.0,0.0,0.0,0.0,0.0,0.0,12.416797,0.0,0.0,0.0,0.0,0.0,0.0,0.00251019,0.00251019,0.0025085984,0.0025052095,1.0000309,1.0000315,1.0000004,0.0,0.0,0.0,0.0,0.0,0.0
256025982,255835671,0.0964279,0.096543536,0.20677194,1.1253796,1.1253963,2.4033546,0.0,0.0,0.0,0.0,0.0,0.0,0.0,12.417173,0.0,0.0,0.0,0.0,0.0,0.0,0.0025100643,0.0025100643,0.0025084359,0.00250432,1.0000308,1.0000312,1.0000002,0.0,0.0,0.0,0.0,0.0,0.0
256525980,256335671,0.09890558,0.09894921,0.21221375,1.1487067,1.1487219,2.431139,0.0,0.0,0.0,0.0,0.0,0.0,0.0,12.416503,0.0,0.0,0.0,0.0,0.0,0.0,0.0025096736,0.0025096736,0.0025079409,0.0025041853,1.0000306,1.000031,1.0000001,0.0,0.0,0.0,0.0,0.0,0.0
257025968,256835671,0.12309393,0.12311791,0.26598153,1.1729002,1.1729168,2.456415,0.0,0.0,0.0,0.0,0.0,0.0,0.0,12.417394,0.0,0.0,0.0,0.0,0.0,0.0,0.0025094138,0.0025094138,0.002507638,0.0025040219,1.0000308,1.0000311,1.0,0.0,0.0,0.0,0.0,0.0,0.0
257525960,257335671,0.09675465,0.09677532,0.2068728,1.181898,1.1819154,2.465925,0.0,0.0,0.0,0.0,0.0,0.0,0.0,12.417963,0.0,0.0,0.0,0.0,0.0,0.0,0.0025095483,0.0025095483,0.0025076617,0.002504072,1.0000303,1.0000308,1.0000001,0.0,0.0,0.0,0.0,0.0,0.0
258026008,257835671,0.096523285,0.09655656,0.20684552,1.1797414,1.1797587,2.4630594,0.0,0.0,0.0,0.0,0.0,0.0,0.0,12.4183655,0.0,0.0,0.0,0.0,0.0,0.0,0.0025096824,0.0025096824,0.0025077218,0.0025039462,1.0000302,1.0000306,1.0,0.0,0.0,0.0,0.0,0.0,0.0
258525980,258335671,0.09660661,0.09672551,0.2068273,1.1818627,1.1818812,2.4848492,0.0,0.0,0.0,0.0,0.0,0.0,0.0,12.417587,0.0,0.0,0.0,0.0,0.0,0.0,0.0025101854,0.0025101854,0.0025077902,0.002505169,1.0000298,1.0000302,1.0,0.0,0.0,0.0,0.0,0.0,0.0
259025975,258835671,0.09641956,0.096467905,0.20682088,1.1839888,1.1840088,2.4942358,0.0,0.0,0.0,0.0,0.0,0.0,0.0,12.417979,0.0,0.0,0.0,0.0,0.0,0.0,0.0025101604,0.0025101604,0.0025075662,0.002505046,1.0000296,1.00003,1.0,0.0,0.0,0.0,0.0,0.0,0.0
259525961,259335671,0.09639358,0.09631457,0.20680961,1.183958,1.1839778,2.4975739,0.0,0.0,0.0,0.0,0.0,0.0,0.0,12.418347,0.0,0.0,0.0,0.0,0.0,0.0,0.0025096377,0.0025096377,0.002508361,0.0025051206,1.0000297,1.00003,1.0000001,0.0,0.0,0.0,0.0,0.0,0.0
260025977,259835671,0.0962843,0.09620476,0.20679742,1.181781,1.1817982,2.4912968,0.0,0.0,0.0,0.0,0.0,0.0,0.0,12.417893,0.0,0.0,0.0,0.0,0.0,0.0,0.0025094948,0.0025094948,0.0025085097,0.0025047907,1.0000298,1.0000302,1.0000001,0.0,0.0,0.0,0.0,0.0,0.0
260525980,260335671,0.096201405,0.096177965,0.20678589,1.1795948,1.179609,2.4881163,0.0,0.0,0.0,0.0,0.0,0.0,0.0,12.4182005,0.0,0.0,0.0,0.0,0.0,0.0,0.0025096852,0.0025096852,0.0025089814,0.002505256,1.0000298,1.0000304,1.0000002,0.0,0.0,0.0,0.0,0.0,0.0
261025962,260835671,0.09619466,0.09621932,0.20678213,1.1774153,1.1774286,2.4820168,0.0,0.0,0.0,0.0,0.0,0.0,0.0,12.418491,0.0,0.0,0.0,0.0,0.0,0.0,0.002509847,0.002509847,0.0025093488,0.0025046878,1.0000302,1.0000306,1.0000002,0.0,0.0,0.0,0.0,0.0,0.0
261525959,261335671,0.09621626,0.09626653,0.20677413,1.1752313,1.1752442,2.475689,0.0,0.0,0.0,0.0,0.0,0.0,0.0,12.4176235,0.0,0.0,0.0,0.0,0.0,0.0,0.002509369,0.002509369,0.0025084468,0.0025045068,1.0000303,1.0000308,1.0000001,0.0,0.0,0.0,0.0,0.0,0.0
262025976,261835671,0.09631524,0.09632216,0.20676878,1.177337,1.1773509,2.4724693,0.0,0.0,0.0,0.0,0.0,0.0,0.0,12.417878,0.0,0.0,0.0,0.0,0.0,0.0,0.00250968,0.00250968,0.0025078095,0.002504306,1.0000303,1.000031,1.0000001,0.0,0.0,0.0,0.0,0.0,0.0
262525977,262335671,0.096473984,0.096346505,0.20677073,1.1773158,1.1773319,2.4663465,0.0,0.0,0.0,0.0,0.0,0.0,0.0,12.418123,0.0,0.0,0.0,0.0,0.0,0.0,0.0025099867,0.0025099867,0.0025078105,0.0025047387,1.0000303,1.0000309,1.0000002,0.0,0.0,0.0,0.0,0.0,0.0
263026000,262835671,0.09655204,0.096377276,0.2067702,1.1773077,1.1773245,2.4631233,0.0,0.0,0.0,0.0,0.0,0.0,0.0,12.418371,0.0,0.0,0.0,0.0,0.0,0.0,0.002510842,0.002510842,0.0025078945,0.0025050135,1.0000302,1.0000308,1.0000002,0.0,0.0,0.0,0.0,0.0,0.0
263525964,263335671,0.0965942,0.096416846,0.20677003,1.1794397,1.1794553,2.4598973,0.0,0.0,0.0,0.0,0.0,0.0,0.0,12.41783,0.0,0.0,0.0,0.0,0.0,0.0,0.0025104738,0.0025104738,0.0025078328,0.0025038337,1.00003,1.0000308,1.0000001,0.0,0.0,0.0,0.0,0.0,0.0
264025979,263835671,0.09649418,0.09641576,0.20677537,1.1815913,1.1816056,2.4597893,0.0,0.0,0.0,0.0,0.0,0.0,0.0,12.41774,0.0,0.0,0.0,0.0,0.0,0.0,0.0025106499,0.0025106499,0.0025087995,0.0025044421,1.00003,1.0000308,1.0000001,0.0,0.0,0.0,0.0,0.0,0.0
264526029,264335671,0.09650526,0.09643933,0.20677298,1.1837498,1.1837631,2.4630067,0.0,0.0,0.0,0.0,0.0,0.0,0.0,12.4180155,0.0,0.0,0.0,0.0,0.0,0.0,0.0025168615,0.0025168615,0.0025093812,0.002516179,1.0000288,1.0000306,1.0000012,0.0,0.0,0.0,0.0,0.0,0.0
265025966,264835671,0.096670814,0.09635595,0.20677954,1.1859275,1.1859349,2.466032,0.0,0.0,0.0,0.0,0.0,0.0,0.0,12.417525,0.0,0.0,0.0,0.0,0.0,0.0,0.0025128254,0.0025128254,0.002507452,0.0025076019,1.0000293,1.0000308,1.0000005,0.0,0.0,0.0,0.0,0.0,0.0
265525963,265335671,0.09659488,0.09627312,0.20678194,1.1902488,1.1902483,2.4690669,0.0,0.0,0.0,0.0,0.0,0.0,0.0,12.417822,0.0,0.0,0.0,0.0,0.0,0.0,0.0025108359,0.0025108359,0.0025070251,0.0025046556,1.0000297,1.0000311,1.0000004,0.0,0.0,0.0,0.0,0.0,0.0
266025977,265835671,0.0964237,0.09629889,0.20678593,1.1881268,1.18812,2.4661045,0.0,0.0,0.0,0.0,0.0,0.0,0.0,12.418126,0.0,0.0,0.0,0.0,0.0,0.0,0.0025100436,0.0025100436,0.0025070156,0.0025036144,1.0000299,1.0000314,1.0000001,0.0,0.0,0.0,0.0,0.0,0.0
266525976,266335671,0.096296474,0.096308924,0.20677884,1.1902882,1.1902845,2.4691458,0.0,0.0,0.0,0.0,0.0,0.0,0.0,12.4172945,0.0,0.0,0.0,0.0,0.0,0.0,0.0025111772,0.0025111772,0.0025073704,0.0025058605,1.0000299,1.0000314,1.0,0.0,0.0,0.0,0.0,0.0,0.0
267025964,266835671,0.09645029,0.09631344,0.20677362,1.1946046,1.1946135,2.475311,0.0,0.0,0.0,0.0,0.0,0.0,0.0,12.417602,0.0,0.0,0.0,0.0,0.0,0.0,0.002511768,0.002511768,0.0025075718,0.0025069632,1.0000299,1.0000312,1.0000001,0.0,0.0,0.0,0.0,0.0,0.0
267525971,267335671,0.09673941,0.09631346,0.20677827,1.1967779,1.1967969,2.4785876,0.0,0.0,0.0,0.0,0.0,0.0,0.0,12.417917,0.0,0.0,0.0,0.0,0.0,0.0,0.0025113903,0.0025113903,0.0025075756,0.0025068216,1.0000299,1.000031,1.0000001,0.0,0.0,0.0,0.0,0.0,0.0
268026012,267835671,0.09691496,0.096325465,0.20677781,1.1968089,1.1968293,2.4816637,0.0,0.0,0.0,0.0,0.0,0.0,0.0,12.418243,0.0,0.0,0.0,0.0,0.0,0.0,0.002511013,0.002511013,0.002507255,0.002505768,1.0000298,1.0000309,1.0,0.0,0.0,0.0,0.0,0.0,0.0
268525980,268335671,0.09680383,0.09633176,0.20677325,1.1968321,1.1968477,2.4784944,0.0,0.0,0.0,0.0,0.0,0.0,0.0,12.4177685,0.0,0.0,0.0,0.0,0.0,0.0,0.002510063,0.002510063,0.0025071858,0.0025044447,1.0000299,1.0000306,1.0,0.0,0.0,0.0,0.0,0.0,0.0
269025960,268835671,0.096605964,0.096311934,0.20677516,1.1946956,1.1947051,2.4753199,0.0,0.0,0.0,0.0,0.0,0.0,0.0,12.418071,0.0,0.0,0.0,0.0,0.0,0.0,0.002509532,0.002509532,0.0025072733,0.0025037234,1.0000299,1.0000305,1.0,0.0,0.0,0.0,0.0,0.0,0.0
269525988,269335671,0.096850105,0.09633779,0.20677704,1.199037,1.1990366,2.4785867,0.0,0.0,0.0,0.0,0.0,0.0,0.0,12.418376,0.0,0.0,0.0,0.0,0.0,0.0,0.0025288716,0.0025288716,0.00252445,0.0025087444,1.0000296,1.0000308,1.0000002,0.0,0.0,0.0,0.0,0.0,0.0
270025999,269835671,0.09667232,0.096364,0.20677394,1.1990677,1.1990582,2.481648,0.0,0.0,0.0,0.0,0.0,0.0,0.0,12.417551,0.0,0.0,0.0,0.0,0.0,0.0,0.00263445,0.0026221382,0.00263445,0.0025033613,1.0000297,1.000031,1.0,0.0,0.0,0.0,0.0,0.0,0.0
270525976,270335671,0.09667633,0.09666216,0.20676638,1.1990812,1.1990718,2.4784682,0.0,0.0,0.0,0.0,0.0,0.0,0.0,12.417852,0.0,0.0,0.0,0.0,0.0,0.0,0.002735628,0.0027129585,0.002735628,0.002503347,1.0000296,1.0000298,1.0000001,0.0,0.0,0.0,0.0,0.0,0.0
271025956,270835671,0.097401425,0.09742081,0.20677207,1.1991014,1.1990995,2.4755006,0.0,0.0,0.0,0.0,0.0,0.0,0.0,12.4181595,0.0,0.0,0.0,0.0,0.0,0.0,0.0027340068,0.0027212668,0.0027340068,0.0025032896,1.0000281,1.0000273,1.0000001,0.0,0.0,0.0,0.0,0.0,0.0
272025959,271835671,0.10747097,0.107302904,0.22471157,1.201341,1.2013485,2.469152,0.0,0.0,0.0,0.0,0.0,0.0,0.0,12.417641,0.0,0.0,0.0,0.0,0.0,0.0,0.0026450732,0.002644974,0.0026450732,0.002503208,1.0000204,1.0000199,1.0,0.0,0.0,0.0,0.0,0.0,0.0
272525975,272335671,0.099871196,0.0997017,0.20679568,1.2079865,1.2079927,2.4755342,0.0,0.0,0.0,0.0,0.0,0.0,0.0,12.417958,0.0,0.0,0.0,0.0,0.0,0.0,0.0026104262,0.0026104262,0.0026102436,0.0025031855,1.0000162,1.0000163,1.0,0.0,0.0,0.0,0.0,0.0,0.0
273026008,272835671,0.099591255,0.09946211,0.2067922,1.2145615,1.2145644,2.484832,0.0,0.0,0.0,0.0,0.0,0.0,0.0,12.418279,0.0,0.0,0.0,0.0,0.0,0.0,0.002582613,0.0025818227,0.002582613,0.002503164,1.0000135,1.0000136,1.0,0.0,0.0,0.0,0.0,0.0,0.0
274025963,273835671,0.098755814,0.098705515,0.20685722,1.2394384,1.2394347,2.5416987,0.0,0.0,0.0,0.0,0.0,0.0,0.0,12.418635,0.0,0.0,0.0,0.0,0.0,0.0,0.0025428948,0.002539354,0.0025428948,0.0025031522,1.0000108,1.0000108,1.0,0.0,0.0,0.0,0.0,0.0,0.0
274526243,274335671,0.09800216,0.09798746,0.20685843,1.2505721,1.2505687,2.5705397,0.0,0.0,0.0,0.0,0.0,0.0,0.0,12.419157,0.0,0.0,0.0,0.0,0.0,0.0,0.0025283645,0.002524356,0.0025283645,0.0025031469,1.0000103,1.0000103,1.0,0.0,0.0,0.0,0.0,0.0,0.0
275026167,274835671,0.1099335,0.109931074,0.23479134,1.2576133,1.2576113,2.6123579,0.0,0.0,0.0,0.0,0.0,0.0,0.0,12.418768,0.0,0.0,0.0,0.0,0.0,0.0,0.0025167214,0.0025139635,0.0025167214,0.0025031467,1.0000101,1.0000101,1.0,0.0,0.0,0.0,0.0,0.0,0.0
275526134,275335671,0.096904874,0.09690595,0.20689236,1.2643111,1.2643116,2.6510756,0.0,0.0,0.0,0.0,0.0,0.0,0.0,12.419326,0.0,0.0,0.0,0.0,0.0,0.0,0.0025101504,0.0025101504,0.0025096955,0.0025031203,1.0000099,1.00001,1.0,0.0,0.0,0.0,0.0,0.0,0.0
276026129,275835671,0.10031174,0.10032258,0.21511047,1.2758136,1.2758179,2.6938424,0.0,0.0,0.0,0.0,0.0,0.0,0.0,12.4201765,0.0,0.0,0.0,0.0,0.0,0.0,0.002512373,0.002512373,0.0025086713,0.0025030822,1.00001,1.00001,1.0,0.0,0.0,0.0,0.0,0.0,0.0
276526169,276335671,0.10833386,0.10835747,0.23342346,1.289604,1.2896125,2.7138803,0.0,0.0,0.0,0.0,0.0,0.0,0.0,12.420235,0.0,0.0,0.0,0.0,0.0,0.0,0.002518091,0.002518091,0.0025134538,0.0025030826,1.00001,1.00001,1.0,0.0,0.0,0.0,0.0,0.0,0.0
277026183,276835671,0.09641583,0.09644768,0.20694701,1.2986109,1.2986221,2.7075431,0.0,0.0,0.0,0.0,0.0,0.0,0.0,12.420433,0.0,0.0,0.0,0.0,0.0,0.0,0.0025259715,0.0025259715,0.0025229282,0.0025030475,1.00001,1.00001,1.0,0.0,0.0,0.0,0.0,0.0,0.0
277526125,277335671,0.09626764,0.09629896,0.20690666,1.3051074,1.3051189,2.704486,0.0,0.0,0.0,0.0,0.0,0.0,0.0,12.420782,0.0,0.0,0.0,0.0,0.0,0.0,0.002532476,0.002532476,0.0025315871,0.0025030526,1.0000099,1.00001,1.0,0.0,0.0,0.0,0.0,0.0,0.0
278026182,277835671,0.09629133,0.09633778,0.20687154,1.3071734,1.3071859,2.6946392,0.0,0.0,0.0,0.0,0.0,0.0,0.0,12.421072,0.0,0.0,0.0,0.0,0.0,0.0,0.0025328977,0.0025327,0.0025328977,0.0025029795,1.0000099,1.00001,1.0,0.0,0.0,0.0,0.0,0.0,0.0
278526170,278335671,0.10947328,0.10949311,0.23620072,1.3116384,1.3116511,2.6913736,0.0,0.0,0.0,0.0,0.0,0.0,0.0,12.420624,0.0,0.0,0.0,0.0,0.0,0.0,0.0025301352,0.0025301352,0.002530104,0.0025029476,1.0000101,1.0000101,1.0,0.0,0.0,0.0,0.0,0.0,0.0
279026172,278835671,0.096556924,0.096554644,0.20685418,1.3161231,1.3161349,2.6847224,0.0,0.0,0.0,0.0,0.0,0.0,0.0,12.420844,0.0,0.0,0.0,0.0,0.0,0.0,0.0025273478,0.002527094,0.0025273478,0.0025029643,1.0000104,1.0000104,1.0,0.0,0.0,0.0,0.0,0.0,0.0
279526180,279335671,0.09659879,0.09659474,0.2068354,1.3205582,1.3205687,2.6815393,0.0,0.0,0.0,0.0,0.0,0.0,0.0,12.421047,0.0,0.0,0.0,0.0,0.0,0.0,0.0025255831,0.0025255831,0.0025254264,0.0025029243,1.0000107,1.0000108,1.0,0.0,0.0,0.0,0.0,0.0,0.0
280526191,280335671,0.09661372,0.09662513,0.20682101,1.334144,1.3341523,2.6844563,0.0,0.0,0.0,0.0,0.0,0.0,0.0,12.420321,0.0,0.0,0.0,0.0,0.0,0.0,0.0025226332,0.0025226332,0.00252253,0.0025029078,1.0000119,1.0000119,1.0,0.0,0.0,0.0,0.0,0.0,0.0
281026179,280835671,0.09660153,0.09662907,0.20681429,1.3501725,1.350181,2.6942804,0.0,0.0,0.0,0.0,0.0,0.0,0.0,12.42055,0.0,0.0,0.0,0.0,0.0,0.0,0.0025214483,0.0025214483,0.0025213356,0.002502897,1.0000125,1.0000126,1.0,0.0,0.0,0.0,0.0,0.0,0.0
281526128,281335671,0.13274848,0.13275686,0.287889,1.3711451,1.3711548,2.7106566,0.0,0.0,0.0,0.0,0.0,0.0,0.0,12.420242,0.0,0.0,0.0,0.0,0.0,0.0,0.002520557,0.002520557,0.0025204304,0.0025028908,1.0000132,1.0000134,1.0,0.0,0.0,0.0,0.0,0.0,0.0
282026132,281835671,0.107851155,0.10786574,0.23187307,1.3876464,1.3876562,2.7203941,0.0,0.0,0.0,0.0,0.0,0.0,0.0,12.420568,0.0,0.0,0.0,0.0,0.0,0.0,0.0025196103,0.0025195756,0.0025196103,0.0025028905,1.000014,1.000014,1.0,0.0,0.0,0.0,0.0,0.0,0.0
282526168,282335671,0.14506651,0.14508256,0.31571096,1.4088156,1.4088253,2.7337673,0.0,0.0,0.0,0.0,0.0,0.0,0.0,12.421011,0.0,0.0,0.0,0.0,0.0,0.0,0.0025191102,0.0025191102,0.002518938,0.0025028633,1.0000144,1.0000147,1.0000001,0.0,0.0,0.0,0.0,0.0,0.0
283026181,282835671,0.09712615,0.09713557,0.20693454,1.4262737,1.4262856,2.7570324,0.0,0.0,0.0,0.0,0.0,0.0,0.0,12.42053,0.0,0.0,0.0,0.0,0.0,0.0,0.0025184606,0.0025184606,0.0025184336,0.0025028638,1.0000151,1.0000154,1.0,0.0,0.0,0.0,0.0,0.0,0.0
283526132,283335671,0.16225387,0.1622735,0.35371384,1.4383469,1.4383585,2.7737982,0.0,0.0,0.0,0.0,0.0,0.0,0.0,12.421222,0.0,0.0,0.0,0.0,0.0,0.0,0.0025178741,0.002517769,0.0025178741,0.00250287,1.0000157,1.000016,1.0,0.0,0.0,0.0,0.0,0.0,0.0
284025959,283835671,0.12210308,0.12218615,0.2630696,1.455764,1.455779,2.793956,0.0,0.0,0.0,0.0,0.0,0.0,0.0,12.42196,0.0,0.0,0.0,0.0,0.0,0.0,0.002515099,0.002515099,0.0025133437,0.0025028987,1.0000165,1.0000165,1.0,0.0,0.0,0.0,0.0,0.0,0.0
284526007,284335671,0.18599482,0.18604356,0.40529904,1.4835972,1.483625,2.8250086,0.0,0.0,0.0,0.0,0.0,0.0,0.0,12.4233265,0.0,0.0,0.0,0.0,0.0,0.0,0.0025140287,0.0025140287,0.0025089078,0.0025028742,1.0000168,1.0000167,1.0,0.0,0.0,0.0,0.0,0.0,0.0
285025976,284835671,0.32398725,0.32419732,0.7129747,1.526552,1.5266205,2.8557522,0.0,0.0,0.0,0.0,0.0,0.0,0.0,12.426654,0.0,0.0,0.0,0.0,0.0,0.0,0.0025149144,0.0025149144,0.002510946,0.0025028714,1.000017,1.000017,1.0000001,0.0,0.0,0.0,0.0,0.0,0.0
285525968,285335671,0.31240824,0.31277847,0.6786448,1.6058097,1.6061225,2.8557522,0.0,0.0,0.0,0.0,0.0,0.0,0.0,12.436633,0.0,0.0,0.0,0.0,0.0,0.0,0.0025147935,0.0025147935,0.0025116557,0.0025028898,1.0000182,1.0000182,1.0000001,0.0,0.0,0.0,0.0,0.0,0.0
286025963,285835671,0.21617016,0.21681719,0.45151076,1.6743903,1.6753131,2.8557522,0.0,0.0,0.0,0.0,0.0,0.0,0.0,12.448053,0.0,0.0,0.0,0.0,0.0,0.0,0.0025151644,0.0025151644,0.0025112913,0.002502903,1.0000194,1.0000194,1.0000001,0.0,0.0,0.0,0.0,0.0,0.0
286525978,286335671,0.17456721,0.17562035,0.34517145,1.7423402,1.7445952,2.8557522,0.0,0.0,0.0,0.0,0.0,0.0,0.0,12.459328,0.0,0.0,0.0,0.0,0.0,0.0,0.0025149474,0.0025149474,0.0025111802,0.0025028198,1.0000211,1.0000209,1.0000002,0.0,0.0,0.0,0.0,0.0,0.0
287025978,286835671,0.13805854,0.13954714,0.24747759,1.8030319,1.8077289,2.8557522,0.0,0.0,0.0,0.0,0.0,0.0,0.0,12.472819,0.0,0.0,0.0,0.0,0.0,0.0,0.0025139223,0.0025139223,0.0025121472,0.0025027373,1.0000228,1.0000222,1.0000002,0.0,0.0,0.0,0.0,0.0,0.0
287525966,287335671,0.16798458,0.16985965,0.297291,1.8968763,1.9054285,2.8557522,0.0,0.0,0.0,0.0,0.0,0.0,0.0,12.486878,0.0,0.0,0.0,0.0,0.0,0.0,0.0025137588,0.0025137588,0.002512799,0.002502731,1.0000247,1.0000238,1.0000002,0.0,0.0,0.0,0.0,0.0,0.0
288025961,287835671,0.19655068,0.19902393,0.34114632,2.0398905,2.0542228,2.8557522,0.0,0.0,0.0,0.0,0.0,0.0,0.0,12.498973,0.0,0.0,0.0,0.0,0.0,0.0,0.0025138215,0.0025138215,0.0025128992,0.002502733,1.0000265,1.0000255,1.0000002,0.0,0.0,0.0,0.0,0.0,0.0
288525980,288335671,0.22035375,0.2234429,0.37152332,2.22049,2.2431722,2.8557522,0.0,0.0,0.0,0.0,0.0,0.0,0.0,12.512897,0.0,0.0,0.0,0.0,0.0,0.0,0.0025138995,0.0025138995,0.0025125255,0.002502752,1.0000284,1.0000273,1.0000002,0.0,0.0,0.0,0.0,0.0,0.0
289025982,288835671,0.31185845,0.31566072,0.5506262,2.4783413,2.5127091,2.8557522,0.0,0.0,0.0,0.0,0.0,0.0,0.0,12.526169,0.0,0.0,0.0,0.0,0.0,0.0,0.0025140052,0.0025140052,0.002512643,0.002502764,1.0000304,1.0000292,1.0000002,0.0,0.0,0.0,0.0,0.0,0.0
289525990,289335671,0.4704845,0.47518563,0.87885636,2.8125703,2.8627725,2.8557522,0.0,0.0,0.0,0.0,0.0,0.0,0.0,12.538461,0.0,0.0,0.0,0.0,0.0,0.0,0.0025141134,0.0025141134,0.0025130508,0.0025027771,1.0000324,1.0000311,1.0000002,0.0,0.0,0.0,0.0,0.0,0.0
290025960,289835671,0.48606497,0.492032,0.8817857,3.2048125,3.276503,2.8557522,0.0,0.0,0.0,0.0,0.0,0.0,0.0,12.5478525,0.0,0.0,0.0,0.0,0.0,0.0,0.002514339,0.002514339,0.0025134506,0.002502744,1.0000347,1.0000331,1.0000002,0.0,0.0,0.0,0.0,0.0,0.0
290525971,290335671,0.39889225,0.40771496,0.6478599,3.6786246,3.7806573,2.8557522,0.0,0.0,0.0,0.0,0.0,0.0,0.0,12.557798,0.0,0.0,0.0,0.0,0.0,0.0,0.0025147428,0.0025147428,0.0025131807,0.0025030647,1.0000367,1.0000353,1.0,0.0,0.0,0.0,0.0,0.0,0.0
291026003,290835671,0.4717304,0.4842806,0.7734654,4.203241,4.349251,2.8557522,0.0,0.0,0.0,0.0,0.0,0.0,0.0,12.566362,0.0,0.0,0.0,0.0,0.0,0.0,0.0025146105,0.0025146105,0.0025134932,0.002503027,1.000039,1.0000372,1.0,0.0,0.0,0.0,0.0,0.0,0.0
291525956,291335671,0.56616765,0.58263564,0.94480234,4.8044662,5.0107303,2.8557522,0.0,0.0,0.0,0.0,0.0,0.0,0.0,12.57315,0.0,0.0,0.0,0.0,0.0,0.0,0.0025148557,0.0025148557,0.002513878,0.0025030533,1.0000412,1.0000392,1.0,0.0,0.0,0.0,0.0,0.0,0.0
292025958,291835671,0.6095481,0.63022166,0.9977856,5.5121145,5.7982283,2.8557522,0.0,0.0,0.0,0.0,0.0,0.0,0.0,12.579232,0.0,0.0,0.0,0.0,0.0,0.0,0.002514905,0.002514905,0.0025141183,0.0025030482,1.0000435,1.0000414,1.0,0.0,0.0,0.0,0.0,0.0,0.0
292525979,292335671,0.59934574,0.62604463,0.9275652,6.311823,6.702676,2.8557522,0.0,0.0,0.0,0.0,0.0,0.0,0.0,12.584143,0.0,0.0,0.0,0.0,0.0,0.0,0.002515441,0.002515441,0.0025144266,0.0025031955,1.0000459,1.0000434,1.0,0.0,0.0,0.0,0.0,0.0,0.0
293025973,292835671,0.63407534,0.66795534,0.956532,7.2213764,7.748617,2.8557522,0.0,0.0,0.0,0.0,0.0,0.0,0.0,12.587172,0.0,0.0,0.0,0.0,0.0,0.0,0.002515192,0.002515192,0.0025143223,0.0025031492,1.0000486,1.0000453,1.0,0.0,0.0,0.0,0.0,0.0,0.0
293525984,293335671,0.6656071,0.709206,0.965337,8.464485,9.201965,2.8557522,0.0,0.0,0.0,0.0,0.0,0.0,0.0,12.590271,0.0,0.0,0.0,0.0,0.0,0.0,0.0025153256,0.0025153256,0.0025145954,0.0025031583,1.000051,1.0000474,1.0,0.0,0.0,0.0,0.0,0.0,0.0
294025959,293835671,0.67296255,0.7242931,0.93626326,9.425351,10.350273,2.8557522,0.0,0.0,0.0,0.0,0.0,0.0,0.0,12.592626,0.0,0.0,0.0,0.0,0.0,0.0,0.0025159696,0.0025159696,0.002514891,0.0025032521,1.0000534,1.0000498,1.0,0.0,0.0,0.0,0.0,0.0,0.0
294526002,294335671,0.70188266,0.76309204,0.9420426,10.745283,11.948231,2.8557522,0.0,0.0,0.0,0.0,0.0,0.0,0.0,12.594386,0.0,0.0,0.0,0.0,0.0,0.0,0.0025160555,0.0025160555,0.0025149751,0.002503263,1.0000563,1.0000517,1.0,0.0,0.0,0.0,0.0,0.0,0.0
295025984,294835671,0.74330795,0.81563234,0.97124404,12.252167,13.797193,2.8557522,0.0,0.0,0.0,0.0,0.0,0.0,0.0,12.595961,0.0,0.0,0.0,0.0,0.0,0.0,0.0025160757,0.0025160757,0.0025152413,0.00250329,1.000059,1.0000539,1.0,0.0,0.0,0.0,0.0,0.0,0.0
295525959,295335671,0.8397192,0.92473036,1.120939,13.956055,15.91857,2.8557522,0.0,0.0,0.0,0.0,0.0,0.0,0.0,12.596937,0.0,0.0,0.0,0.0,0.0,0.0,0.0025160825,0.0025160825,0.0025154387,0.0025032365,1.0000618,1.0000559,1.0,0.0,0.0,0.0,0.0,0.0,0.0
296025983,295835671,0.8619434,0.96084404,1.1020353,15.867318,18.334827,2.8557522,0.0,0.0,0.0,0.0,0.0,0.0,0.0,12.5976305,0.0,0.0,0.0,0.0,0.0,0.0,0.0025163766,0.0025163766,0.0025156932,0.002503278,1.0000644,1.0000582,1.0,0.0,0.0,0.0,0.0,0.0,0.0
297025974,296835671,0.9638106,1.0509839,1.1658033,20.46605,24.1068,2.8557522,0.0,0.0,0.0,0.0,0.0,0.0,0.0,12.597974,0.0,0.0,0.0,0.0,0.0,0.0,0.0025480792,0.0025172292,0.0025480792,0.0025052682,1.0000707,1.0000526,1.0000097,0.0,0.0,0.0,0.0,0.0,0.0
297525949,297335671,0.8494456,0.92928445,0.8222064,23.18009,27.387476,0.0,0.0,0.0,0.0,0.0,0.0,0.0,0.0,12.597411,0.0,0.0,0.0,0.0,0.0,0.0,0.0025214062,0.0025213198,0.0025214062,0.0025026638,1.0000714,1.0000626,1.0000043,0.0,0.0,0.0,0.0,0.0,0.0
298525963,298335671,0.9399638,1.0365885,0.87738365,29.303335,34.83864,0.0,0.0,0.0,0.0,0.0,0.0,0.0,0.0,12.597859,0.0,0.0,0.0,0.0,0.0,0.0,0.0025193756,0.0025193756,0.0025177393,0.002502585,1.000078,1.0000685,1.000002,0.0,0.0,0.0,0.0,0.0,0.0
299025961,298835671,0.9906834,1.1006095,0.91136706,32.760654,39.11493,0.0,0.0,0.0,0.0,0.0,0.0,0.0,0.0,12.598438,0.0,0.0,0.0,0.0,0.0,0.0,0.002520979,0.002520979,0.0025174432,0.0025026686,1.0000803,1.0000706,1.0000025,0.0,0.0,0.0,0.0,0.0,0.0
299525972,299335671,1.0029068,1.1274047,0.8553422,36.506817,43.805164,0.0,0.0,0.0,0.0,0.0,0.0,0.0,0.0,12.599083,0.0,0.0,0.0,0.0,0.0,0.0,0.002521701,0.002521701,0.0025177826,0.0025026742,1.000082,1.0000728,1.0000036,0.0,0.0,0.0,0.0,0.0,0.0
300025942,299835671,0.9746461,1.1156795,0.7004983,40.559196,48.951828,0.0,0.0,0.0,0.0,0.0,0.0,0.0,0.0,12.600038,0.0,0.0,0.0,0.0,0.0,0.0,0.0025227808,0.0025227808,0.0025179668,0.0025027352,1.0000845,1.0000753,1.0000036,0.0,0.0,0.0,0.0,0.0,0.0
300525957,300335671,0.87441325,1.0344682,0.38091257,44.875164,54.530594,0.0,0.0,0.0,0.0,0.0,0.0,0.0,0.0,12.600781,0.0,0.0,0.0,0.0,0.0,0.0,0.0025176157,0.0025176157,0.0025175654,0.0025028866,1.0000893,1.0000783,1.0000004,0.0,0.0,0.0,0.0,0.0,0.0
301025988,300835671,0.88146794,1.0694672,0.29981157,49.500797,60.644806,0.0,0.0,0.0,0.0,0.0,0.0,0.0,0.0,12.6014,0.0,0.0,0.0,0.0,0.0,0.0,0.0025182301,0.0025181542,0.0025182301,0.0025034102,1.0000911,1.0000808,1.0,0.0,0.0,0.0,0.0,0.0,0.0
301526106,301335671,0.918808,1.1408505,0.29641384,54.45382,67.38176,0.0,0.0,0.0,0.0,0.0,0.0,0.0,0.0,12.601392,0.0,0.0,0.0,0.0,0.0,0.0,0.0025185146,0.0025183638,0.0025185146,0.0025035678,1.0000933,1.0000819,1.0,0.0,0.0,0.0,0.0,0.0,0.0
302025945,301835671,0.9574165,1.2172358,0.2931392,59.794277,74.76532,0.0,0.0,0.0,0.0,0.0,0.0,0.0,0.0,12.601561,0.0,0.0,0.0,0.0,0.0,0.0,0.0025183233,0.0025182527,0.0025183233,0.0025034382,1.0000952,1.0000834,1.0,0.0,0.0,0.0,0.0,0.0,0.0
302526066,302335671,1.0258863,1.3272883,0.35344478,65.555824,82.89132,0.0,0.0,0.0,0.0,0.0,0.0,0.0,0.0,12.601521,0.0,0.0,0.0,0.0,0.0,0.0,0.0025185246,0.002518257,0.0025185246,0.0025034964,1.0000972,1.0000848,1.0,0.0,0.0,0.0,0.0,0.0,0.0
303025964,302835671,1.1567271,1.4998848,0.55846745,71.73629,91.73669,0.0,0.0,0.0,0.0,0.0,0.0,0.0,0.0,12.601058,0.0,0.0,0.0,0.0,0.0,0.0,0.0025183691,0.002518279,0.0025183691,0.0025034668,1.0000997,1.0000854,1.0,0.0,0.0,0.0,0.0,0.0,0.0
303525961,303335671,1.1744678,1.5641617,0.5021352,78.40219,101.46462,0.0,0.0,0.0,0.0,0.0,0.0,0.0,0.0,12.600883,0.0,0.0,0.0,0.0,0.0,0.0,0.0025186162,0.0025182918,0.0025186162,0.0025035352,1.0001017,1.0000868,1.0,0.0,0.0,0.0,0.0,0.0,0.0
304025943,303835671,1.2147222,1.6534917,0.48343396,85.59938,112.125755,0.0,0.0,0.0,0.0,0.0,0.0,0.0,0.0,12.6006975,0.0,0.0,0.0,0.0,0.0,0.0,0.002519329,0.002519329,0.002518294,0.0025037178,1.0001029,1.0000887,1.0000002,0.0,0.0,0.0,0.0,0.0,0.0
305025959,304835671,1.2195919,1.7886486,0.29133013,101.35425,136.38698,0.0,0.0,0.0,0.0,0.0,0.0,0.0,0.0,12.600645,0.0,0.0,0.0,0.0,0.0,0.0,0.002518497,0.002518497,0.002518247,0.0025033685,1.000108,1.0000901,1.0,0.0,0.0,0.0,0.0,0.0,0.0
305525960,305335671,1.2709079,1.9034392,0.29621348,110.142105,150.13347,0.0,0.0,0.0,0.0,0.0,0.0,0.0,0.0,12.600499,0.0,0.0,0.0,0.0,0.0,0.0,0.0025187766,0.0025184038,0.0025187766,0.0025035972,1.0001101,1.0000912,1.0,0.0,0.0,0.0,0.0,0.0,0.0
306026107,305835671,1.2998438,1.9953808,0.25004116,119.51007,165.02971,0.0,0.0,0.0,0.0,0.0,0.0,0.0,0.0,12.600425,0.0,0.0,0.0,0.0,0.0,0.0,0.0025188278,0.0025184655,0.0025188278,0.0025036058,1.0001123,1.0000923,1.0,0.0,0.0,0.0,0.0,0.0,0.0
306525956,306335671,1.334686,2.099488,0.21195553,129.46924,181.1109,0.0,0.0,0.0,0.0,0.0,0.0,0.0,0.0,12.600087,0.0,0.0,0.0,0.0,0.0,0.0,0.0025185577,0.0025185577,0.0025183982,0.0025033837,1.0001144,1.0000932,1.0,0.0,0.0,0.0,0.0,0.0,0.0
307025964,306835671,1.3870796,2.2234697,0.21203612,140.11194,198.56035,0.0,0.0,0.0,0.0,0.0,0.0,0.0,0.0,12.600149,0.0,0.0,0.0,0.0,0.0,0.0,0.0025185812,0.0025185812,0.0025185507,0.0025034545,1.0001152,1.0000958,1.0,0.0,0.0,0.0,0.0,0.0,0.0
307525984,307335671,1.4397187,2.3506584,0.21203892,151.40027,217.317,6.6537166,0.0,0.0,0.0,0.0,0.0,0.0,0.0,16.595007,0.0,0.0,0.0,0.0,0.0,0.0,0.0025186373,0.0025186373,0.0025185605,0.0025034568,1.0001165,1.0000976,1.0,0.0,0.0,0.0,0.0,0.0,0.0
308025959,307835671,0.10920026,0.1098673,0.24322116,3.9740338,3.9740415,6.9803934,0.0,0.0,0.0,0.0,0.0,0.0,0.0,12.998921,0.0,0.0,0.0,0.0,0.0,0.0,0.0025184161,0.0025183538,0.0025184161,0.0025033706,1.0001152,1.0000964,1.0,0.0,0.0,0.0,0.0,0.0,0.0
308525966,308335671,0.101734355,0.10327826,0.22312324,3.5668504,3.5669155,6.537249,0.0,0.0,0.0,0.0,0.0,0.0,0.0,12.7024765,0.0,0.0,0.0,0.0,0.0,0.0,0.002517413,0.002517413,0.0025173419,0.002503078,1.0001041,1.0000875,1.0,0.0,0.0,0.0,0.0,0.0,0.0
309025982,308835671,0.19864629,0.20459484,0.43309864,3.4129128,3.4132574,6.388811,0.0,0.0,0.0,0.0,0.0,0.0,0.0,12.599657,0.0,0.0,0.0,0.0,0.0,0.0,0.002530353,0.0025177863,0.002530353,0.0025063457,1.000086,1.0000691,1.0000066,0.0,0.0,0.0,0.0,0.0,0.0
309526008,309335671,0.26018786,0.269813,0.5583568,3.3283374,3.329726,6.313263,0.0,0.0,0.0,0.0,0.0,0.0,0.0,12.54962,0.0,0.0,0.0,0.0,0.0,0.0,0.00252338,0.0025194427,0.00252338,0.002505256,1.0000643,1.0000592,1.000005,0.0,0.0,0.0,0.0,0.0,0.0
310025960,309835671,0.15089184,0.15596557,0.30720916,3.2635953,3.2654026,6.2768154,0.0,0.0,0.0,0.0,0.0,0.0,0.0,12.52154,0.0,0.0,0.0,0.0,0.0,0.0,0.0025160373,0.0025160373,0.0025110762,0.0025026456,1.0000467,1.0000479,1.0000001,0.0,0.0,0.0,0.0,0.0,0.0
310525967,310335671,0.16856848,0.16967022,0.35443112,3.204647,3.2058063,6.2715616,0.0,0.0,0.0,0.0,0.0,0.0,0.0,12.502853,0.0,0.0,0.0,0.0,0.0,0.0,0.002515125,0.002515125,0.0025135768,0.0025026365,1.0000362,1.0000358,1.0000008,0.0,0.0,0.0,0.0,0.0,0.0
311026005,310835671,0.18046217,0.1806314,0.38390952,3.1774328,3.1783264,6.3243084,0.0,0.0,0.0,0.0,0.0,0.0,0.0,12.490878,0.0,0.0,0.0,0.0,0.0,0.0,0.0025172653,0.0025144564,0.0025172653,0.0025029606,1.0000304,1.0000287,1.0000019,0.0,0.0,0.0,0.0,0.0,0.0
312025962,311835671,0.3549183,0.35400948,0.7661529,3.268655,3.269042,6.402574,0.0,0.0,0.0,0.0,0.0,0.0,0.0,12.493116,0.0,0.0,0.0,0.0,0.0,0.0,0.0025144825,0.0025136056,0.0025144825,0.0025027248,1.0000298,1.0000291,1.0000014,0.0,0.0,0.0,0.0,0.0,0.0
312525962,312335671,0.4061599,0.4037749,0.86348855,3.3991082,3.3983452,6.402574,0.0,0.0,0.0,0.0,0.0,0.0,0.0,12.503307,0.0,0.0,0.0,0.0,0.0,0.0,0.0025133605,0.0025133605,0.00250965,0.0025023923,1.0000317,1.0000322,1.0000002,0.0,0.0,0.0,0.0,0.0,0.0
313025978,312835671,0.40392536,0.40002954,0.839051,3.5049493,3.5012727,6.402574,0.0,0.0,0.0,0.0,0.0,0.0,0.0,12.513754,0.0,0.0,0.0,0.0,0.0,0.0,0.0025140382,0.0025140382,0.0025094745,0.0025023273,1.0000336,1.0000343,1.0000002,0.0,0.0,0.0,0.0,0.0,0.0
313525982,313335675,0.25642863,0.25190163,0.48636523,3.58315,3.5742662,6.402574,0.0,0.0,0.0,0.0,0.0,0.0,0.0,12.526123,0.0,0.0,0.0,0.0,0.0,0.0,0.0025143872,0.0025143872,0.0025097681,0.002502346,1.0000355,1.0000366,1.0000002,0.0,0.0,0.0,0.0,0.0,0.0
314025959,313835671,0.20980379,0.20482694,0.35798952,3.6974838,3.681223,6.402574,0.0,0.0,0.0,0.0,0.0,0.0,0.0,12.538703,0.0,0.0,0.0,0.0,0.0,0.0,0.002514221,0.002514221,0.0025104755,0.0025023846,1.0000377,1.0000386,1.0000002,0.0,0.0,0.0,0.0,0.0,0.0
314525961,314335671,0.2754798,0.2690557,0.47635955,3.8520827,3.8253965,6.402574,0.0,0.0,0.0,0.0,0.0,0.0,0.0,12.549021,0.0,0.0,0.0,0.0,0.0,0.0,0.0025145086,0.0025145086,0.0025104396,0.0025024822,1.0000397,1.0000408,1.0000001,0.0,0.0,0.0,0.0,0.0,0.0
315025987,314835671,0.24975166,0.24238434,0.38692766,4.051509,4.010679,6.402574,0.0,0.0,0.0,0.0,0.0,0.0,0.0,12.560481,0.0,0.0,0.0,0.0,0.0,0.0,0.002514758,0.002514758,0.0025108557,0.002502473,1.0000418,1.0000429,1.0000001,0.0,0.0,0.0,0.0,0.0,0.0
315525979,315335671,0.24471286,0.23717833,0.34234154,4.3410025,4.2826295,6.402574,0.0,0.0,0.0,0.0,0.0,0.0,0.0,12.570769,0.0,0.0,0.0,0.0,0.0,0.0,0.0025148413,0.0025148413,0.0025113102,0.0025025448,1.0000439,1.0000451,1.0000001,0.0,0.0,0.0,0.0,0.0,0.0
316025989,315835671,0.3215131,0.31305185,0.47628203,4.711972,4.632987,6.402574,0.0,0.0,0.0,0.0,0.0,0.0,0.0,12.579707,0.0,0.0,0.0,0.0,0.0,0.0,0.002514917,0.002514917,0.0025120678,0.0025025748,1.0000459,1.0000471,1.0000001,0.0,0.0,0.0,0.0,0.0,0.0
316525956,316335671,0.37235743,0.36315107,0.5483669,5.165354,5.0614443,6.402574,0.0,0.0,0.0,0.0,0.0,0.0,0.0,12.585907,0.0,0.0,0.0,0.0,0.0,0.0,0.0025152876,0.0025152876,0.0025123626,0.0025024533,1.000048,1.0000491,1.0000002,0.0,0.0,0.0,0.0,0.0,0.0
317025974,316835671,0.40731198,0.39805692,0.5818551,5.7304974,5.5992775,6.402574,0.0,0.0,0.0,0.0,0.0,0.0,0.0,12.592143,0.0,0.0,0.0,0.0,0.0,0.0,0.0025154683,0.0025154683,0.002515081,0.0025025096,1.0000503,1.0000502,1.0000012,0.0,0.0,0.0,0.0,0.0,0.0
317525990,317335671,0.50935084,0.4988244,0.75932354,6.399605,6.238018,6.402574,0.0,0.0,0.0,0.0,0.0,0.0,0.0,12.597093,0.0,0.0,0.0,0.0,0.0,0.0,0.0025155789,0.0025155789,0.002513147,0.0025025327,1.0000523,1.0000534,1.0000001,0.0,0.0,0.0,0.0,0.0,0.0
318025954,317835671,0.55362034,0.5440979,0.80928016,7.167427,6.9736576,6.402574,0.0,0.0,0.0,0.0,0.0,0.0,0.0,12.600882,0.0,0.0,0.0,0.0,0.0,0.0,0.0025157495,0.0025157495,0.0025133288,0.0025028642,1.0000545,1.0000556,1.0,0.0,0.0,0.0,0.0,0.0,0.0
318525959,318335671,0.5349013,0.52726114,0.71544904,8.034969,7.8117065,6.402574,0.0,0.0,0.0,0.0,0.0,0.0,0.0,12.603625,0.0,0.0,0.0,0.0,0.0,0.0,0.002515952,0.002515952,0.0025136117,0.0025028153,1.0000565,1.0000575,1.0,0.0,0.0,0.0,0.0,0.0,0.0
319025974,318835671,0.49776036,0.49247253,0.57453597,9.030588,8.783695,6.402574,0.0,0.0,0.0,0.0,0.0,0.0,0.0,12.605416,0.0,0.0,0.0,0.0,0.0,0.0,0.0025160918,0.0025160918,0.0025139465,0.002502964,1.0000584,1.0000596,1.0,0.0,0.0,0.0,0.0,0.0,0.0
319525972,319335671,0.5092231,0.5059123,0.53671664,10.17881,9.917028,6.402574,0.0,0.0,0.0,0.0,0.0,0.0,0.0,12.605914,0.0,0.0,0.0,0.0,0.0,0.0,0.0025161544,0.0025161544,0.002514303,0.0025028794,1.0000603,1.0000616,1.0,0.0,0.0,0.0,0.0,0.0,0.0
320025956,319835671,0.5479729,0.5485545,0.5586018,11.471696,11.205688,6.402574,0.0,0.0,0.0,0.0,0.0,0.0,0.0,12.606455,0.0,0.0,0.0,0.0,0.0,0.0,0.0025163842,0.0025163842,0.0025154997,0.0025024707,1.0000623,1.0000628,1.0000007,0.0,0.0,0.0,0.0,0.0,0.0
320525959,320335671,0.59244764,0.5956192,0.5856153,12.93304,12.680792,6.402574,0.0,0.0,0.0,0.0,0.0,0.0,0.0,12.6066,0.0,0.0,0.0,0.0,0.0,0.0,0.002516517,0.002516517,0.0025155207,0.0025025904,1.0000647,1.0000645,1.0000006,0.0,0.0,0.0,0.0,0.0,0.0
321025998,320835671,0.63324666,0.64088094,0.60620356,14.582045,14.362722,6.402574,0.0,0.0,0.0,0.0,0.0,0.0,0.0,12.606459,0.0,0.0,0.0,0.0,0.0,0.0,0.0025168837,0.0025168837,0.002515312,0.0025031045,1.0000672,1.0000664,1.0,0.0,0.0,0.0,0.0,0.0,0.0
321525976,321335671,0.6778872,0.693348,0.6295124,16.441057,16.28873,6.402574,0.0,0.0,0.0,0.0,0.0,0.0,0.0,12.606556,0.0,0.0,0.0,0.0,0.0,0.0,0.002517129,0.002517129,0.00251501,0.002503016,1.0000697,1.0000677,1.0,0.0,0.0,0.0,0.0,0.0,0.0
322025960,321835671,0.68756723,0.7121674,0.5763946,18.529783,18.480452,6.402574,0.0,0.0,0.0,0.0,0.0,0.0,0.0,12.606026,0.0,0.0,0.0,0.0,0.0,0.0,0.0025172299,0.0025172299,0.0025153162,0.0025028267,1.0000712,1.00007,1.0,0.0,0.0,0.0,0.0,0.0,0.0
322525953,322335671,0.6879786,0.7229282,0.4958512,20.8321,20.944107,6.402574,0.0,0.0,0.0,0.0,0.0,0.0,0.0,12.604597,0.0,0.0,0.0,0.0,0.0,0.0,0.002517623,0.002517623,0.0025155898,0.0025033965,1.0000727,1.0000718,1.0000002,0.0,0.0,0.0,0.0,0.0,0.0
323025969,322835671,0.68332094,0.72720665,0.38388276,23.37269,23.699715,6.402574,0.0,0.0,0.0,0.0,0.0,0.0,0.0,12.604549,0.0,0.0,0.0,0.0,0.0,0.0,0.0025171572,0.0025171572,0.0025159216,0.002502895,1.0000741,1.0000739,1.0000001,0.0,0.0,0.0,0.0,0.0,0.0
323525975,323335671,0.7098623,0.7649135,0.34805572,26.198782,26.803741,6.402574,0.0,0.0,0.0,0.0,0.0,0.0,0.0,12.604048,0.0,0.0,0.0,0.0,0.0,0.0,0.002517228,0.002517228,0.0025161419,0.0025029862,1.0000759,1.0000758,1.0,0.0,0.0,0.0,0.0,0.0,0.0
324025954,323835671,0.7389368,0.80763847,0.30754763,29.319786,30.281307,6.402574,0.0,0.0,0.0,0.0,0.0,0.0,0.0,12.603617,0.0,0.0,0.0,0.0,0.0,0.0,0.0025173733,0.0025173733,0.0025163076,0.0025030193,1.0000778,1.0000772,1.0,0.0,0.0,0.0,0.0,0.0,0.0
324525958,324335671,0.85807216,0.9413115,0.48138645,32.79226,34.206104,6.402574,0.0,0.0,0.0,0.0,0.0,0.0,0.0,12.602879,0.0,0.0,0.0,0.0,0.0,0.0,0.002517577,0.002517577,0.0025163759,0.0025029809,1.0000803,1.0000781,1.0,0.0,0.0,0.0,0.0,0.0,0.0
325025971,324835671,0.86936057,0.9692956,0.4063083,36.691967,38.669476,6.402574,0.0,0.0,0.0,0.0,0.0,0.0,0.0,12.602596,0.0,0.0,0.0,0.0,0.0,0.0,0.0025177177,0.0025177177,0.0025165419,0.002503061,1.0000824,1.0000794,1.0,0.0,0.0,0.0,0.0,0.0,0.0
325525973,325335671,0.9211451,1.040635,0.42550784,40.965137,43.640274,6.402574,0.0,0.0,0.0,0.0,0.0,0.0,0.0,12.602383,0.0,0.0,0.0,0.0,0.0,0.0,0.0025176723,0.0025176723,0.0025166993,0.002502957,1.0000837,1.0000812,1.0,0.0,0.0,0.0,0.0,0.0,0.0
326025998,325835671,1.2382467,1.3783025,1.0105077,46.58167,50.26627,6.402574,0.0,0.0,0.0,0.0,0.0,0.0,0.0,12.602239,0.0,0.0,0.0,0.0,0.0,0.0,0.0025177756,0.0025177756,0.0025168324,0.0025029695,1.0000854,1.0000827,1.0,0.0,0.0,0.0,0.0,0.0,0.0
326525964,326335671,1.2018127,1.3650262,0.8356992,51.79597,56.494537,6.402574,0.0,0.0,0.0,0.0,0.0,0.0,0.0,12.602564,0.0,0.0,0.0,0.0,0.0,0.0,0.0025234988,0.0025234988,0.0025169416,0.0025027834,1.0000843,1.0000843,1.0000029,0.0,0.0,0.0,0.0,0.0,0.0
327025982,326835671,1.3490262,1.5401103,1.0805717,57.440136,63.35583,6.402574,0.0,0.0,0.0,0.0,0.0,0.0,0.0,12.602366,0.0,0.0,0.0,0.0,0.0,0.0,0.0025212,0.0025212,0.0025170606,0.0025027918,1.0000869,1.0000857,1.0000019,0.0,0.0,0.0,0.0,0.0,0.0
327526012,327335706,1.3452147,1.5650606,0.986561,63.491337,70.878975,6.402574,0.0,0.0,0.0,0.0,0.0,0.0,0.0,12.602127,0.0,0.0,0.0,0.0,0.0,0.0,0.0025203477,0.0025203477,0.0025171319,0.0025026738,1.0000889,1.0000874,1.0000014,0.0,0.0,0.0,0.0,0.0,0.0
328025963,327835671,1.4516717,1.7007067,1.1245782,69.93998,79.07031,6.402574,0.0,0.0,0.0,0.0,0.0,0.0,0.0,12.60151,0.0,0.0,0.0,0.0,0.0,0.0,0.0025195626,0.0025195626,0.0025171933,0.002502767,1.0000913,1.0000885,1.0000011,0.0,0.0,0.0,0.0,0.0,0.0
328525965,328335671,1.4838572,1.7647624,1.0962807,76.89451,88.06238,6.402574,0.0,0.0,0.0,0.0,0.0,0.0,0.0,12.601362,0.0,0.0,0.0,0.0,0.0,0.0,0.0025188483,0.0025188483,0.0025173088,0.0025027143,1.0000929,1.0000905,1.0000005,0.0,0.0,0.0,0.0,0.0,0.0
329025979,328835671,1.337328,1.6481735,0.65588003,84.313065,97.83094,6.402574,0.0,0.0,0.0,0.0,0.0,0.0,0.0,12.601344,0.0,0.0,0.0,0.0,0.0,0.0,0.0025181847,0.0025181847,0.0025174252,0.002503103,1.0000951,1.0000916,1.0000001,0.0,0.0,0.0,0.0,0.0,0.0
329525979,329335671,1.4031299,1.7511388,0.68767834,92.25267,108.45088,6.402574,0.0,0.0,0.0,0.0,0.0,0.0,0.0,12.600998,0.0,0.0,0.0,0.0,0.0,0.0,0.0025184308,0.0025184308,0.002517578,0.0025031227,1.0000963,1.0000925,1.0000005,0.0,0.0,0.0,0.0,0.0,0.0
